$GPGGA,133435.000,5003.5487,N,01957.5608,E,1,09,0.9,205.4,M,42.0,M,,0000*53
$GPGSA,A,3,15,09,17,30,26,12,04,14,22,,,,1.5,0.9,1.2*32
$GPRMC,133435.000,A,5003.5487,N,01957.5608,E,,168.54,080808,,,A*7C
$GPGGA,133436.000,5003.5488,N,01957.5609,E,1,08,1.0,205.6,M,42.0,M,,0000*55
$GPGSA,A,3,15,09,17,30,26,12,14,22,,,,,1.6,1.0,1.3*3C
$GPRMC,133436.000,A,5003.5488,N,01957.5609,E,,168.54,080808,,,A*71
$GPGGA,133437.000,5003.5488,N,01957.5610,E,1,08,1.0,205.7,M,42.0,M,,0000*5D
$GPGSA,A,3,15,09,17,30,26,12,14,22,,,,,1.6,1.0,1.3*3C
$GPGSV,3,1,11,09,86,249,37,12,56,261,39,17,37,055,37,14,19,321,33*73
$GPGSV,3,2,11,15,16,185,34,04,14,110,21,30,13,257,35,26,06,174,29*7E
$GPGSV,3,3,11,22,06,287,14,28,03,071,,02,03,141,20*4F
$GPRMC,133437.000,A,5003.5488,N,01957.5610,E,,168.54,080808,,,A*78
$GPGGA,133438.000,5003.5488,N,01957.5611,E,1,09,0.9,205.9,M,42.0,M,,0000*54
$GPGSA,A,3,15,09,17,30,26,12,04,14,22,,,,1.5,0.9,1.2*32
$GPRMC,133438.000,A,5003.5488,N,01957.5611,E,,168.54,080808,,,A*76
$GPGGA,133439.000,5003.5489,N,01957.5612,E,1,08,1.0,206.0,M,42.0,M,,0000*54
$GPGSA,A,3,15,09,17,30,26,12,14,22,,,,,1.6,1.0,1.3*3C
$GPRMC,133439.000,A,5003.5489,N,01957.5612,E,,168.54,080808,,,A*75
$GPGGA,133440.000,5003.5489,N,01957.5613,E,1,08,1.0,206.1,M,42.0,M,,0000*5A
$GPGSA,A,3,15,09,17,30,26,12,14,22,,,,,1.6,1.0,1.3*3C
$GPRMC,133440.000,A,5003.5489,N,01957.5613,E,,168.54,080808,,,A*7A
$GPGGA,133441.000,5003.5489,N,01957.5614,E,1,09,0.9,206.2,M,42.0,M,,0000*56
$GPGSA,A,3,15,09,17,30,26,12,14,22,04,,,,1.5,0.9,1.2*32
$GPRMC,133441.000,A,5003.5489,N,01957.5614,E,,168.54,080808,,,A*7C
$GPGGA,133442.000,5003.5489,N,01957.5614,E,1,09,0.9,206.3,M,42.0,M,,0000*54
$GPGSA,A,3,15,09,17,30,26,12,14,22,04,,,,1.5,0.9,1.2*32
$GPGSV,3,1,11,09,86,246,37,12,56,261,39,17,37,055,37,14,19,321,33*7C
$GPGSV,3,2,11,15,16,185,35,04,14,109,25,30,13,257,36,26,06,174,29*70
$GPGSV,3,3,11,22,06,286,13,02,03,140,11,28,03,071,13*48
$GPRMC,133442.000,A,5003.5489,N,01957.5614,E,,168.54,080808,,,A*7F
$GPGGA,133443.000,5003.5486,N,01957.5616,E,1,09,0.9,206.4,M,42.0,M,,0000*5F
$GPGSA,A,3,15,09,17,30,26,12,14,22,04,,,,1.5,0.9,1.2*32
$GPRMC,133443.000,A,5003.5486,N,01957.5616,E,,168.54,080808,,,A*73
$GPGGA,133444.000,5003.5477,N,01957.5620,E,1,09,0.9,206.4,M,42.0,M,,0000*53
$GPGSA,A,3,15,09,17,30,26,12,14,22,04,,,,1.5,0.9,1.2*32
$GPRMC,133444.000,A,5003.5477,N,01957.5620,E,4.77,165.15,080808,,,A*6D
$GPGGA,133445.000,5003.5460,N,01957.5626,E,1,09,0.9,206.4,M,42.0,M,,0000*52
$GPGSA,A,3,15,09,17,30,26,12,14,22,04,,,,1.5,0.9,1.2*32
$GPRMC,133445.000,A,5003.5460,N,01957.5626,E,7.70,168.45,080808,,,A*60
$GPGGA,133446.000,5003.5438,N,01957.5632,E,1,09,0.9,206.3,M,42.0,M,,0000*5E
$GPGSA,A,3,15,09,17,30,26,12,14,22,04,,,,1.5,0.9,1.2*32
$GPRMC,133446.000,A,5003.5438,N,01957.5632,E,8.19,171.30,080808,,,A*61
$GPGGA,133447.000,5003.5414,N,01957.5637,E,1,09,0.9,206.3,M,42.0,M,,0000*54
$GPGSA,A,3,15,09,17,30,26,12,14,22,04,,,,1.5,0.9,1.2*32
$GPGSV,3,1,11,09,86,245,37,12,56,261,39,17,37,055,37,14,19,321,32*7E
$GPGSV,3,2,11,15,16,185,35,04,14,109,34,30,13,257,36,22,06,286,17*77
$GPGSV,3,3,11,26,06,174,33,02,03,140,09,28,03,071,08*43
$GPRMC,133447.000,A,5003.5414,N,01957.5637,E,8.96,170.56,080808,,,A*6D
$GPGGA,133448.000,5003.5388,N,01957.5645,E,1,09,0.9,206.2,M,42.0,M,,0000*5D
$GPGSA,A,3,15,09,17,30,26,12,14,22,04,,,,1.5,0.9,1.2*32
$GPRMC,133448.000,A,5003.5388,N,01957.5645,E,10.22,166.80,080808,,,A*5F
$GPGGA,133449.000,5003.5358,N,01957.5657,E,1,09,0.9,206.2,M,42.0,M,,0000*52
$GPGSA,A,3,15,09,17,30,26,12,14,22,04,,,,1.5,0.9,1.2*32
$GPRMC,133449.000,A,5003.5358,N,01957.5657,E,11.81,163.82,080808,,,A*5F
$GPGGA,133450.000,5003.5323,N,01957.5670,E,1,09,0.9,206.1,M,42.0,M,,0000*50
$GPGSA,A,3,15,09,17,30,26,12,14,22,04,,,,1.5,0.9,1.2*32
$GPRMC,133450.000,A,5003.5323,N,01957.5670,E,13.37,167.76,080808,,,A*5E
$GPGGA,133451.000,5003.5283,N,01957.5675,E,1,09,0.9,206.0,M,42.0,M,,0000*5E
$GPGSA,A,3,15,09,17,30,26,12,14,22,04,,,,1.5,0.9,1.2*32
$GPRMC,133451.000,A,5003.5283,N,01957.5675,E,15.19,178.63,080808,,,A*51
$GPGGA,133452.000,5003.5237,N,01957.5669,E,1,09,0.9,205.9,M,42.0,M,,0000*55
$GPGSA,A,3,15,09,17,30,26,12,14,22,04,,,,1.5,0.9,1.2*32
$GPGSV,3,1,11,09,86,245,37,12,56,261,39,17,37,055,36,14,19,321,32*7F
$GPGSV,3,2,11,15,16,185,35,04,14,109,27,30,13,257,36,22,06,286,23*72
$GPGSV,3,3,11,26,06,174,34,02,03,140,18,28,03,071,*4C
$GPRMC,133452.000,A,5003.5237,N,01957.5669,E,17.85,187.69,080808,,,A*5D
$GPGGA,133453.002,5003.5186,N,01957.5658,E,1,09,0.9,205.8,M,42.0,M,,0000*5C
$GPGSA,A,3,15,09,17,30,26,12,14,22,04,,,,1.5,0.9,1.2*32
$GPRMC,133453.002,A,5003.5186,N,01957.5658,E,17.86,187.54,080808,,,A*58
$GPGGA,133454.000,5003.5136,N,01957.5647,E,1,09,0.9,205.8,M,42.0,M,,0000*5C
$GPGSA,A,3,15,09,17,30,26,12,14,22,04,,,,1.5,0.9,1.2*32
$GPRMC,133454.000,A,5003.5136,N,01957.5647,E,18.21,187.86,080808,,,A*55
$GPGGA,133455.000,5003.5084,N,01957.5637,E,1,09,0.9,205.7,M,42.0,M,,0000*5D
$GPGSA,A,3,15,09,17,30,26,12,14,22,04,,,,1.5,0.9,1.2*32
$GPRMC,133455.000,A,5003.5084,N,01957.5637,E,18.91,186.48,080808,,,A*53
$GPGGA,133456.000,5003.5032,N,01957.5629,E,1,09,0.9,205.7,M,42.0,M,,0000*5C
$GPGSA,A,3,15,09,17,30,26,12,14,22,04,,,,1.5,0.9,1.2*32
$GPRMC,133456.000,A,5003.5032,N,01957.5629,E,18.46,184.39,080808,,,A*5C
$GPGGA,133457.000,5003.4981,N,01957.5623,E,1,09,0.9,205.6,M,42.0,M,,0000*56
$GPGSA,A,3,15,09,17,30,26,12,14,22,04,,,,1.5,0.9,1.2*32
$GPGSV,3,1,11,09,86,245,37,12,56,261,39,17,37,055,36,14,19,321,32*7F
$GPGSV,3,2,11,15,16,185,36,04,14,109,28,30,13,257,31,22,06,286,17*7E
$GPGSV,3,3,11,26,06,174,23,02,03,140,15,28,03,071,07*40
$GPRMC,133457.000,A,5003.4981,N,01957.5623,E,17.59,182.96,080808,,,A*55
$GPGGA,133458.000,5003.4934,N,01957.5622,E,1,09,0.9,205.7,M,42.0,M,,0000*57
$GPGSA,A,3,15,09,17,30,26,12,14,22,04,,,,1.5,0.9,1.2*32
$GPRMC,133458.000,A,5003.4934,N,01957.5622,E,16.65,178.32,080808,,,A*50
$GPGGA,133459.000,5003.4888,N,01957.5630,E,1,09,0.9,205.6,M,42.0,M,,0000*52
$GPGSA,A,3,15,09,17,30,26,12,14,22,04,,,,1.5,0.9,1.2*32
$GPRMC,133459.000,A,5003.4888,N,01957.5630,E,16.31,169.01,080808,,,A*55
$GPGGA,133500.000,5003.4844,N,01957.5651,E,1,09,0.9,205.5,M,42.0,M,,0000*5B
$GPGSA,A,3,15,09,17,30,26,12,14,22,04,,,,1.5,0.9,1.2*32
$GPRMC,133500.000,A,5003.4844,N,01957.5651,E,16.80,158.30,080808,,,A*55
$GPGGA,133501.000,5003.4803,N,01957.5684,E,1,08,0.9,205.4,M,42.0,M,,0000*51
$GPGSA,A,3,15,09,17,30,12,14,22,04,,,,,1.5,0.9,1.2*36
$GPRMC,133501.000,A,5003.4803,N,01957.5684,E,16.29,148.83,080808,,,A*55
$GPGGA,133502.000,5003.4768,N,01957.5725,E,1,09,0.9,205.4,M,42.0,M,,0000*5B
$GPGSA,A,3,15,09,17,30,26,12,14,22,04,,,,1.5,0.9,1.2*32
$GPGSV,3,1,11,09,86,244,37,12,56,261,39,17,37,055,36,14,19,321,32*7E
$GPGSV,3,2,11,15,16,185,36,04,14,109,34,30,13,257,33,22,06,286,31*75
$GPGSV,3,3,11,26,06,174,13,02,03,140,29,28,02,071,21*49
$GPRMC,133502.000,A,5003.4768,N,01957.5725,E,15.71,138.91,080808,,,A*54
$GPGGA,133503.000,5003.4740,N,01957.5775,E,1,09,0.9,205.3,M,42.0,M,,0000*52
$GPGSA,A,3,15,09,17,30,26,12,14,22,04,,,,1.5,0.9,1.2*32
$GPRMC,133503.000,A,5003.4740,N,01957.5775,E,15.29,126.29,080808,,,A*5B
$GPGGA,133504.000,5003.4721,N,01957.5836,E,1,09,0.9,205.2,M,42.0,M,,0000*5B
$GPGSA,A,3,15,09,17,30,26,12,14,22,04,,,,1.5,0.9,1.2*32
$GPRMC,133504.000,A,5003.4721,N,01957.5836,E,15.84,109.70,080808,,,A*55
$GPGGA,133505.000,5003.4715,N,01957.5907,E,1,09,0.9,205.1,M,42.0,M,,0000*5D
$GPGSA,A,3,15,09,17,30,26,12,14,22,04,,,,1.5,0.9,1.2*32
$GPRMC,133505.000,A,5003.4715,N,01957.5907,E,17.23,92.16,080808,,,A*6C
$GPGGA,133506.000,5003.4723,N,01957.5988,E,1,09,0.9,205.0,M,42.0,M,,0000*5D
$GPGSA,A,3,15,09,17,30,26,12,14,22,04,,,,1.5,0.9,1.2*32
$GPRMC,133506.000,A,5003.4723,N,01957.5988,E,19.45,77.27,080808,,,A*6A
$GPGGA,133507.000,5003.4742,N,01957.6073,E,1,09,0.9,204.9,M,42.0,M,,0000*5D
$GPGSA,A,3,15,09,17,30,26,12,14,22,04,,,,1.5,0.9,1.2*32
$GPGSV,3,1,11,09,86,244,37,12,56,261,38,17,37,055,36,14,19,321,32*7F
$GPGSV,3,2,11,15,16,185,33,04,14,109,34,30,13,257,33,22,06,286,32*73
$GPGSV,3,3,11,26,06,174,22,02,03,140,11,28,02,071,20*41
$GPRMC,133507.000,A,5003.4742,N,01957.6073,E,20.93,68.63,080808,,,A*6D
$GPGGA,133508.000,5003.4767,N,01957.6156,E,1,09,0.9,204.7,M,42.0,M,,0000*5D
$GPGSA,A,3,15,09,17,30,26,12,14,22,04,,,,1.5,0.9,1.2*32
$GPRMC,133508.000,A,5003.4767,N,01957.6156,E,20.61,63.83,080808,,,A*6B
$GPGGA,133509.000,5003.4796,N,01957.6239,E,1,09,0.9,204.6,M,42.0,M,,0000*59
$GPGSA,A,3,15,09,17,30,26,12,14,22,04,,,,1.5,0.9,1.2*32
$GPRMC,133509.000,A,5003.4796,N,01957.6239,E,21.81,61.44,080808,,,A*68
$GPGGA,133510.000,5003.4827,N,01957.6323,E,1,09,0.9,204.6,M,42.0,M,,0000*5E
$GPGSA,A,3,15,09,17,30,26,12,14,22,04,,,,1.5,0.9,1.2*32
$GPRMC,133510.000,A,5003.4827,N,01957.6323,E,21.87,60.64,080808,,,A*6A
$GPGGA,133511.000,5003.4859,N,01957.6407,E,1,09,0.9,204.5,M,42.0,M,,0000*54
$GPGSA,A,3,15,09,17,30,26,12,14,22,04,,,,1.5,0.9,1.2*32
$GPRMC,133511.000,A,5003.4859,N,01957.6407,E,22.78,58.95,080808,,,A*65
$GPGGA,133512.000,5003.4895,N,01957.6494,E,1,09,0.9,204.4,M,42.0,M,,0000*5C
$GPGSA,A,3,15,09,17,30,26,12,14,22,04,,,,1.5,0.9,1.2*32
$GPGSV,3,1,11,09,86,244,37,12,56,261,38,17,37,055,36,14,19,321,21*7D
$GPGSV,3,2,11,15,16,185,33,04,14,109,32,30,13,257,32,22,06,286,23*74
$GPGSV,3,3,11,26,06,174,13,02,03,140,,28,02,071,24*47
$GPRMC,133512.000,A,5003.4895,N,01957.6494,E,23.91,56.38,080808,,,A*63
$GPGGA,133513.000,5003.4936,N,01957.6582,E,1,09,0.9,204.4,M,42.0,M,,0000*53
$GPGSA,A,3,15,09,17,30,26,12,14,22,04,,,,1.5,0.9,1.2*32
$GPRMC,133513.000,A,5003.4936,N,01957.6582,E,25.29,53.76,080808,,,A*66
$GPGGA,133514.000,5003.4977,N,01957.6673,E,1,09,0.9,204.6,M,42.0,M,,0000*5E
$GPGSA,A,3,15,09,17,30,26,12,14,22,04,,,,1.5,0.9,1.2*32
$GPRMC,133514.000,A,5003.4977,N,01957.6673,E,25.64,54.28,080808,,,A*6C
$GPGGA,133515.000,5003.5019,N,01957.6762,E,1,09,0.9,204.6,M,42.0,M,,0000*5E
$GPGSA,A,3,15,09,17,30,26,12,14,22,04,,,,1.5,0.9,1.2*32
$GPRMC,133515.000,A,5003.5019,N,01957.6762,E,24.67,54.48,080808,,,A*68
$GPGGA,133516.000,5003.5058,N,01957.6848,E,1,09,0.9,204.4,M,42.0,M,,0000*5D
$GPGSA,A,3,15,09,17,30,26,12,14,22,04,,,,1.5,0.9,1.2*32
$GPRMC,133516.000,A,5003.5058,N,01957.6848,E,23.74,54.89,080808,,,A*61
$GPGGA,133517.000,5003.5094,N,01957.6931,E,1,09,0.9,204.4,M,42.0,M,,0000*53
$GPGSA,A,3,15,09,17,30,26,12,14,22,04,,,,1.5,0.9,1.2*32
$GPGSV,3,1,11,09,86,242,37,12,56,261,37,17,37,055,35,14,19,321,21*77
$GPGSV,3,2,11,15,16,184,32,04,14,109,16,30,13,257,20,22,06,286,14*75
$GPGSV,3,3,11,26,06,174,18,02,04,140,16,28,02,071,23*4B
$GPRMC,133517.000,A,5003.5094,N,01957.6931,E,22.20,57.58,080808,,,A*60
$GPGGA,133518.000,5003.5127,N,01957.7006,E,1,09,0.9,204.3,M,42.0,M,,0000*5E
$GPGSA,A,3,15,09,17,30,26,12,14,22,04,,,,1.5,0.9,1.2*32
$GPRMC,133518.000,A,5003.5127,N,01957.7006,E,19.64,54.46,080808,,,A*6E
$GPGGA,133519.000,5003.5157,N,01957.7071,E,1,09,0.9,204.1,M,42.0,M,,0000*5A
$GPGSA,A,3,15,09,17,30,26,12,14,22,04,,,,1.5,0.9,1.2*32
$GPRMC,133519.000,A,5003.5157,N,01957.7071,E,17.55,55.56,080808,,,A*64
$GPGGA,133520.000,5003.5181,N,01957.7124,E,1,08,0.9,204.0,M,42.0,M,,0000*5A
$GPGSA,A,3,15,09,17,30,26,12,14,04,,,,,1.6,0.9,1.3*30
$GPRMC,133520.000,A,5003.5181,N,01957.7124,E,13.63,56.25,080808,,,A*62
$GPGGA,133521.000,5003.5197,N,01957.7169,E,1,08,0.9,203.9,M,42.0,M,,0000*5B
$GPGSA,A,3,15,09,17,30,26,12,14,04,,,,,1.6,0.9,1.3*30
$GPRMC,133521.000,A,5003.5197,N,01957.7169,E,11.37,64.74,080808,,,A*6B
$GPGGA,133522.000,5003.5207,N,01957.7214,E,1,08,0.9,204.0,M,42.0,M,,0000*55
$GPGSA,A,3,15,09,17,30,26,12,14,04,,,,,1.6,0.9,1.3*30
$GPGSV,3,1,11,09,86,242,37,12,56,261,37,17,37,055,35,14,19,321,21*77
$GPGSV,3,2,11,15,16,184,33,04,14,109,33,30,13,257,16,22,06,286,21*70
$GPGSV,3,3,11,26,06,174,27,02,04,140,18,28,02,071,22*48
$GPRMC,133522.000,A,5003.5207,N,01957.7214,E,10.83,75.09,080808,,,A*6F
$GPGGA,133523.000,5003.5211,N,01957.7262,E,1,08,0.9,204.0,M,42.0,M,,0000*52
$GPGSA,A,3,15,09,17,30,26,12,14,04,,,,,1.6,0.9,1.3*30
$GPRMC,133523.000,A,5003.5211,N,01957.7262,E,11.94,86.32,080808,,,A*6B
$GPGGA,133524.000,5003.5212,N,01957.7318,E,1,08,0.9,204.1,M,42.0,M,,0000*5B
$GPGSA,A,3,15,09,17,30,26,12,14,04,,,,,1.6,0.9,1.3*30
$GPRMC,133524.000,A,5003.5212,N,01957.7318,E,13.62,90.09,080808,,,A*67
$GPGGA,133525.000,5003.5212,N,01957.7381,E,1,08,0.9,204.5,M,42.0,M,,0000*5E
$GPGSA,A,3,15,09,17,30,26,12,14,04,,,,,1.6,0.9,1.3*30
$GPRMC,133525.000,A,5003.5212,N,01957.7381,E,14.83,86.79,080808,,,A*6E
$GPGGA,133526.000,5003.5218,N,01957.7446,E,1,08,0.9,204.5,M,42.0,M,,0000*5B
$GPGSA,A,3,15,09,17,30,26,12,14,04,,,,,1.6,0.9,1.3*30
$GPRMC,133526.000,A,5003.5218,N,01957.7446,E,15.92,79.56,080808,,,A*67
$GPGGA,133527.000,5003.5233,N,01957.7515,E,1,08,0.9,204.4,M,42.0,M,,0000*55
$GPGSA,A,3,15,09,17,30,26,12,14,04,,,,,1.6,0.9,1.3*30
$GPGSV,3,1,11,09,86,242,37,12,56,261,37,17,37,055,36,14,19,321,29*7C
$GPGSV,3,2,11,15,16,184,18,04,14,109,33,30,13,257,31,22,06,286,*7F
$GPGSV,3,3,11,26,06,174,13,02,04,140,17,28,02,071,13*42
$GPRMC,133527.000,A,5003.5233,N,01957.7515,E,17.32,70.70,080808,,,A*6D
$GPGGA,133528.000,5003.5260,N,01957.7584,E,1,07,1.0,204.2,M,42.0,M,,0000*55
$GPGSA,A,3,15,09,17,30,12,14,04,,,,,,1.7,1.0,1.4*3A
$GPRMC,133528.000,A,5003.5260,N,01957.7584,E,19.49,57.29,080808,,,A*67
$GPGGA,133529.000,5003.5292,N,01957.7658,E,1,07,1.0,204.0,M,42.0,M,,0000*59
$GPGSA,A,3,15,09,17,30,12,14,04,,,,,,1.7,1.0,1.4*3A
$GPRMC,133529.000,A,5003.5292,N,01957.7658,E,21.31,58.65,080808,,,A*6A
$GPGGA,133530.000,5003.5326,N,01957.7741,E,1,08,0.9,204.0,M,42.0,M,,0000*51
$GPGSA,A,3,15,09,17,30,12,14,22,04,,,,,1.5,0.9,1.2*36
$GPRMC,133530.000,A,5003.5326,N,01957.7741,E,23.69,58.08,080808,,,A*61
$GPGGA,133531.000,5003.5362,N,01957.7833,E,1,08,0.9,203.9,M,42.0,M,,0000*54
$GPGSA,A,3,15,09,17,30,12,14,22,04,,,,,1.5,0.9,1.2*36
$GPRMC,133531.000,A,5003.5362,N,01957.7833,E,25.29,60.60,080808,,,A*6D
$GPGGA,133532.000,5003.5396,N,01957.7930,E,1,09,0.9,203.6,M,42.0,M,,0000*50
$GPGSA,A,3,15,09,17,30,26,12,14,22,04,,,,1.5,0.9,1.2*32
$GPGSV,3,1,11,09,86,242,37,12,56,261,37,17,37,055,36,14,19,321,28*7D
$GPGSV,3,2,11,15,16,184,32,04,14,109,33,30,13,257,31,22,06,286,16*70
$GPGSV,3,3,11,26,06,174,30,02,04,140,16,28,02,071,19*48
$GPRMC,133532.000,A,5003.5396,N,01957.7930,E,25.60,62.72,080808,,,A*6B
$GPGGA,133533.000,5003.5430,N,01957.8032,E,1,08,0.9,203.6,M,42.0,M,,0000*5F
$GPGSA,A,3,15,09,17,30,12,14,22,04,,,,,1.5,0.9,1.2*36
$GPRMC,133533.000,A,5003.5430,N,01957.8032,E,26.80,63.76,080808,,,A*6D
$GPGGA,133534.000,5003.5463,N,01957.8140,E,1,08,1.0,203.3,M,42.0,M,,0000*57
$GPGSA,A,3,15,09,17,30,26,12,14,22,,,,,1.6,1.0,1.3*3C
$GPRMC,133534.000,A,5003.5463,N,01957.8140,E,27.87,66.17,080808,,,A*6C
$GPGGA,133535.000,5003.5494,N,01957.8253,E,1,08,1.0,203.2,M,42.0,M,,0000*5E
$GPGSA,A,3,15,09,17,30,26,12,14,22,,,,,1.6,1.0,1.3*3C
$GPRMC,133535.000,A,5003.5494,N,01957.8253,E,28.66,67.58,080808,,,A*6E
$GPGGA,133536.000,5003.5524,N,01957.8367,E,1,08,0.9,203.0,M,42.0,M,,0000*5B
$GPGSA,A,3,09,17,30,26,12,14,22,04,,,,,1.5,0.9,1.2*36
$GPRMC,133536.000,A,5003.5524,N,01957.8367,E,28.27,67.89,080808,,,A*68
$GPGGA,133537.000,5003.5554,N,01957.8479,E,1,09,0.9,203.0,M,42.0,M,,0000*54
$GPGSA,A,3,15,09,17,30,26,12,14,22,04,,,,1.5,0.9,1.2*32
$GPGSV,3,1,11,09,86,242,38,12,56,261,37,17,37,055,37,14,19,321,29*72
$GPGSV,3,2,11,15,16,184,15,04,14,109,14,30,13,257,32,22,06,286,28*7E
$GPGSV,3,3,11,26,06,174,17,02,04,140,14,28,02,071,20*45
$GPRMC,133537.000,A,5003.5554,N,01957.8479,E,28.04,68.78,080808,,,A*66
$GPGGA,133538.000,5003.5581,N,01957.8594,E,1,07,1.1,202.7,M,42.0,M,,0000*50
$GPGSA,A,3,15,09,17,30,26,12,22,,,,,,1.7,1.1,1.3*39
$GPRMC,133538.000,A,5003.5581,N,01957.8594,E,28.06,70.78,080808,,,A*68
$GPGGA,133539.000,5003.5607,N,01957.8708,E,1,08,1.0,202.5,M,42.0,M,,0000*57
$GPGSA,A,3,15,09,17,30,26,12,14,22,,,,,1.6,1.0,1.3*3C
$GPRMC,133539.000,A,5003.5607,N,01957.8708,E,27.98,70.07,080808,,,A*63
$GPGGA,133540.000,5003.5635,N,01957.8821,E,1,09,0.9,202.4,M,42.0,M,,0000*54
$GPGSA,A,3,15,09,17,30,26,12,14,22,04,,,,1.5,0.9,1.2*32
$GPRMC,133540.000,A,5003.5635,N,01957.8821,E,27.85,69.96,080808,,,A*64
$GPGGA,133541.000,5003.5661,N,01957.8935,E,1,07,1.2,202.6,M,42.0,M,,0000*56
$GPGSA,A,3,09,17,30,12,14,22,04,,,,,,1.7,1.2,1.2*3A
$GPRMC,133541.000,A,5003.5661,N,01957.8935,E,27.97,70.21,080808,,,A*67
$GPGGA,133542.000,5003.5687,N,01957.9048,E,1,07,1.2,202.5,M,42.0,M,,0000*5C
$GPGSA,A,3,09,17,30,12,14,22,04,,,,,,1.7,1.2,1.2*3A
$GPGSV,3,1,11,09,86,239,38,12,56,261,36,17,37,055,37,14,19,320,25*72
$GPGSV,3,2,11,15,16,184,11,04,15,109,23,30,14,258,32,22,06,286,21*7E
$GPGSV,3,3,11,26,06,174,15,02,04,140,,28,02,072,20*41
$GPRMC,133542.000,A,5003.5687,N,01957.9048,E,27.72,71.10,080808,,,A*66
$GPGGA,133543.000,5003.5717,N,01957.9157,E,1,08,0.9,202.6,M,42.0,M,,0000*5C
$GPGSA,A,3,09,17,30,26,12,14,22,04,,,,,1.5,0.9,1.2*36
$GPRMC,133543.000,A,5003.5717,N,01957.9157,E,27.11,67.22,080808,,,A*63
$GPGGA,133544.000,5003.5743,N,01957.9266,E,1,09,0.9,202.4,M,42.0,M,,0000*58
$GPGSA,A,3,15,09,17,30,26,12,14,22,04,,,,1.5,0.9,1.2*32
$GPRMC,133544.000,A,5003.5743,N,01957.9266,E,26.97,68.99,080808,,,A*64
$GPGGA,133545.000,5003.5772,N,01957.9372,E,1,08,0.9,202.9,M,42.0,M,,0000*53
$GPGSA,A,3,09,17,30,26,12,14,22,04,,,,,1.5,0.9,1.2*36
$GPRMC,133545.000,A,5003.5772,N,01957.9372,E,26.74,67.27,080808,,,A*64
$GPGGA,133546.000,5003.5801,N,01957.9478,E,1,07,1.1,203.2,M,42.0,M,,0000*5A
$GPGSA,A,3,09,17,30,26,12,14,22,,,,,,1.7,1.1,1.3*38
$GPRMC,133546.000,A,5003.5801,N,01957.9478,E,26.18,68.33,080808,,,A*61
$GPGGA,133547.000,5003.5826,N,01957.9582,E,1,07,1.1,203.8,M,42.0,M,,0000*50
$GPGSA,A,3,09,17,30,26,12,14,22,,,,,,1.7,1.1,1.3*38
$GPGSV,3,1,11,09,86,238,37,12,56,261,36,17,37,054,37,14,19,320,20*78
$GPGSV,3,2,11,15,16,184,13,04,15,109,11,30,14,258,32,22,06,286,19*76
$GPGSV,3,3,11,26,06,174,13,02,04,140,07,28,02,072,18*4B
$GPRMC,133547.000,A,5003.5826,N,01957.9582,E,25.17,68.36,080808,,,A*68
$GPGGA,133548.000,5003.5847,N,01957.9680,E,1,07,1.1,203.6,M,42.0,M,,0000*57
$GPGSA,A,3,09,17,30,26,12,14,22,,,,,,1.7,1.1,1.3*38
$GPRMC,133548.000,A,5003.5847,N,01957.9680,E,23.11,71.51,080808,,,A*68
$GPGGA,133549.000,5003.5868,N,01957.9768,E,1,07,1.1,203.7,M,42.0,M,,0000*5D
$GPGSA,A,3,09,17,30,26,12,14,22,,,,,,1.7,1.1,1.3*38
$GPRMC,133549.000,A,5003.5868,N,01957.9768,E,21.03,68.76,080808,,,A*6F
$GPGGA,133550.000,5003.5888,N,01957.9847,E,1,05,3.6,203.6,M,42.0,M,,0000*5F
$GPGSA,A,3,09,17,30,12,22,,,,,,,,4.3,3.6,2.4*39
$GPRMC,133550.000,A,5003.5888,N,01957.9847,E,18.89,68.84,080808,,,A*6E
$GPGGA,133551.000,5003.5902,N,01957.9919,E,1,06,1.9,203.5,M,42.0,M,,0000*5A
$GPGSA,A,3,09,17,30,12,14,22,,,,,,,2.8,1.9,1.9*32
$GPRMC,133551.000,A,5003.5902,N,01957.9919,E,16.72,72.41,080808,,,A*6E
$GPGGA,133552.000,5003.5917,N,01957.9980,E,1,06,1.9,203.5,M,42.0,M,,0000*5D
$GPGSA,A,3,09,17,30,12,14,22,,,,,,,2.8,1.9,1.9*32
$GPGSV,3,1,11,09,86,237,37,12,56,261,36,17,37,054,37,14,19,320,33*75
$GPGSV,3,2,11,15,16,184,,04,15,109,,30,14,258,32,22,06,286,19*74
$GPGSV,3,3,11,26,06,174,08,02,04,140,,28,02,072,24*49
$GPRMC,133552.000,A,5003.5917,N,01957.9980,E,14.69,68.48,080808,,,A*63
$GPGGA,133553.000,5003.5930,N,01958.0035,E,1,06,1.9,203.4,M,42.0,M,,0000*59
$GPGSA,A,3,09,17,30,12,14,22,,,,,,,2.8,1.9,1.9*32
$GPRMC,133553.000,A,5003.5930,N,01958.0035,E,13.56,69.57,080808,,,A*62
$GPGGA,133554.000,5003.5944,N,01958.0085,E,1,06,1.9,203.3,M,42.0,M,,0000*51
$GPGSA,A,3,09,17,30,12,14,22,,,,,,,2.8,1.9,1.9*32
$GPRMC,133554.000,A,5003.5944,N,01958.0085,E,12.44,69.73,080808,,,A*69
$GPGGA,133555.000,5003.5954,N,01958.0131,E,1,07,1.2,203.1,M,42.0,M,,0000*57
$GPGSA,A,3,04,09,17,30,12,14,22,,,,,,1.7,1.2,1.3*3B
$GPRMC,133555.000,A,5003.5954,N,01958.0131,E,11.04,69.28,080808,,,A*6E
$GPGGA,133556.000,5003.5965,N,01958.0168,E,1,07,1.2,203.2,M,42.0,M,,0000*59
$GPGSA,A,3,04,09,17,30,12,14,22,,,,,,1.7,1.2,1.3*3B
$GPRMC,133556.000,A,5003.5965,N,01958.0168,E,8.86,67.34,080808,,,A*52
$GPGGA,133557.000,5003.5975,N,01958.0200,E,1,07,1.2,203.6,M,42.0,M,,0000*50
$GPGSA,A,3,04,09,17,30,12,14,22,,,,,,1.7,1.2,1.3*3B
$GPGSV,3,1,11,09,86,237,37,12,56,261,36,17,37,054,37,14,19,320,33*75
$GPGSV,3,2,11,15,16,184,09,04,15,109,23,30,14,258,32,22,06,286,18*7D
$GPGSV,3,3,11,26,06,174,10,02,04,140,,28,02,072,20*44
$GPRMC,133557.000,A,5003.5975,N,01958.0200,E,8.33,65.01,080808,,,A*55
$GPGGA,133558.000,5003.5985,N,01958.0236,E,1,07,1.2,203.7,M,42.0,M,,0000*54
$GPGSA,A,3,04,09,17,30,12,14,22,,,,,,1.7,1.2,1.3*3B
$GPRMC,133558.000,A,5003.5985,N,01958.0236,E,10.62,67.32,080808,,,A*6F
$GPGGA,133559.000,5003.5998,N,01958.0285,E,1,07,1.2,203.7,M,42.0,M,,0000*51
$GPGSA,A,3,04,09,17,30,12,14,22,,,,,,1.7,1.2,1.3*3B
$GPRMC,133559.000,A,5003.5998,N,01958.0285,E,13.60,67.04,080808,,,A*6E
$GPGGA,133600.000,5003.6014,N,01958.0345,E,1,07,1.2,203.9,M,42.0,M,,0000*53
$GPGSA,A,3,04,09,17,30,12,14,22,,,,,,1.7,1.2,1.3*3B
$GPRMC,133600.000,A,5003.6014,N,01958.0345,E,16.20,67.61,080808,,,A*60
$GPGGA,133601.000,5003.6028,N,01958.0414,E,1,08,0.9,203.3,M,42.0,M,,0000*51
$GPGSA,A,3,04,09,17,30,15,12,14,22,,,,,1.5,0.9,1.2*36
$GPRMC,133601.000,A,5003.6028,N,01958.0414,E,17.36,67.78,080808,,,A*63
$GPGGA,133602.000,5003.6049,N,01958.0488,E,1,08,0.9,203.5,M,42.0,M,,0000*56
$GPGSA,A,3,04,09,17,30,15,12,14,22,,,,,1.5,0.9,1.2*36
$GPGSV,3,1,11,09,86,237,37,12,56,261,36,17,37,054,37,14,19,320,32*74
$GPGSV,3,2,11,15,16,184,28,04,15,109,14,30,14,258,32,22,06,286,24*75
$GPGSV,3,3,11,26,06,174,16,02,04,140,07,28,02,072,22*47
$GPRMC,133602.000,A,5003.6049,N,01958.0488,E,19.39,66.75,080808,,,A*6F
$GPGGA,133603.000,5003.6071,N,01958.0571,E,1,07,1.2,203.6,M,42.0,M,,0000*5D
$GPGSA,A,3,04,09,17,30,12,14,22,,,,,,1.7,1.2,1.3*3B
$GPRMC,133603.000,A,5003.6071,N,01958.0571,E,21.67,68.19,080808,,,A*66
$GPGGA,133604.000,5003.6095,N,01958.0664,E,1,07,1.2,203.9,M,42.0,M,,0000*58
$GPGSA,A,3,04,09,17,30,12,14,22,,,,,,1.7,1.2,1.3*3B
$GPRMC,133604.000,A,5003.6095,N,01958.0664,E,24.12,69.00,080808,,,A*62
$GPGGA,133605.000,5003.6122,N,01958.0766,E,1,07,1.2,204.4,M,42.0,M,,0000*5D
$GPGSA,A,3,04,09,17,30,12,14,22,,,,,,1.7,1.2,1.3*3B
$GPRMC,133605.000,A,5003.6122,N,01958.0766,E,26.30,69.29,080808,,,A*64
$GPGGA,133606.000,5003.6150,N,01958.0875,E,1,07,1.2,204.8,M,42.0,M,,0000*5A
$GPGSA,A,3,04,09,17,30,12,14,22,,,,,,1.7,1.2,1.3*3B
$GPRMC,133606.000,A,5003.6150,N,01958.0875,E,27.19,70.38,080808,,,A*6D
$GPGGA,133607.000,5003.6178,N,01958.0985,E,1,07,1.2,205.5,M,42.0,M,,0000*53
$GPGSA,A,3,04,09,17,30,12,14,22,,,,,,1.7,1.2,1.3*3B
$GPGSV,3,1,11,09,86,237,37,12,56,261,36,17,37,054,37,14,19,320,28*7F
$GPGSV,3,2,11,15,16,184,,04,15,109,13,30,14,258,32,22,06,286,25*79
$GPGSV,3,3,11,26,06,174,,02,04,140,,28,02,072,25*40
$GPRMC,133607.000,A,5003.6178,N,01958.0985,E,27.47,69.44,080808,,,A*60
$GPGGA,133608.000,5003.6204,N,01958.1100,E,1,07,1.2,206.0,M,42.0,M,,0000*56
$GPGSA,A,3,04,09,17,30,12,14,22,,,,,,1.7,1.2,1.3*3B
$GPRMC,133608.000,A,5003.6204,N,01958.1100,E,28.24,72.34,080808,,,A*64
$GPGGA,133609.000,5003.6224,N,01958.1221,E,1,07,1.2,206.4,M,42.0,M,,0000*51
$GPGSA,A,3,04,09,17,30,12,14,22,,,,,,1.7,1.2,1.3*3B
$GPRMC,133609.000,A,5003.6224,N,01958.1221,E,29.41,77.56,080808,,,A*64
$GPGGA,133610.000,5003.6233,N,01958.1352,E,1,08,0.9,206.2,M,42.0,M,,0000*59
$GPGSA,A,3,04,09,17,30,15,12,14,22,,,,,1.5,0.9,1.2*36
$GPRMC,133610.000,A,5003.6233,N,01958.1352,E,30.31,82.99,080808,,,A*69
$GPGGA,133611.000,5003.6236,N,01958.1488,E,1,08,0.9,206.2,M,42.0,M,,0000*5D
$GPGSA,A,3,04,09,17,30,15,12,14,22,,,,,1.5,0.9,1.2*36
$GPRMC,133611.000,A,5003.6236,N,01958.1488,E,31.10,87.01,080808,,,A*6B
$GPGGA,133612.000,5003.6236,N,01958.1627,E,1,07,1.2,206.6,M,42.0,M,,0000*58
$GPGSA,A,3,04,09,17,30,12,14,22,,,,,,1.7,1.2,1.3*3B
$GPGSV,3,1,11,09,86,234,37,12,57,261,37,17,36,054,37,14,19,320,28*7D
$GPGSV,3,2,11,15,16,184,19,04,15,109,27,30,14,258,22,22,06,286,18*79
$GPGSV,3,3,11,26,05,174,12,02,04,140,,28,02,072,20*45
$GPRMC,133612.000,A,5003.6236,N,01958.1627,E,32.25,90.37,080808,,,A*69
$GPGGA,133613.000,5003.6230,N,01958.1768,E,1,07,1.2,206.6,M,42.0,M,,0000*55
$GPGSA,A,3,04,09,17,30,12,14,22,,,,,,1.7,1.2,1.3*3B
$GPRMC,133613.000,A,5003.6230,N,01958.1768,E,32.08,94.73,080808,,,A*6F
$GPGGA,133614.000,5003.6215,N,01958.1909,E,1,07,1.2,206.4,M,42.0,M,,0000*5E
$GPGSA,A,3,04,09,17,30,12,14,22,,,,,,1.7,1.2,1.3*3B
$GPRMC,133614.000,A,5003.6215,N,01958.1909,E,32.69,99.71,080808,,,A*6E
$GPGGA,133615.000,5003.6193,N,01958.2049,E,1,07,1.2,206.3,M,42.0,M,,0000*5B
$GPGSA,A,3,04,09,17,30,12,14,22,,,,,,1.7,1.2,1.3*3B
$GPRMC,133615.000,A,5003.6193,N,01958.2049,E,32.77,103.62,080808,,,A*53
$GPGGA,133616.000,5003.6167,N,01958.2189,E,1,07,1.2,206.0,M,42.0,M,,0000*5D
$GPGSA,A,3,04,09,17,30,12,14,22,,,,,,1.7,1.2,1.3*3B
$GPRMC,133616.000,A,5003.6167,N,01958.2189,E,32.79,104.24,080808,,,A*5D
$GPGGA,133617.000,5003.6141,N,01958.2330,E,1,08,0.9,205.6,M,42.0,M,,0000*58
$GPGSA,A,3,04,09,17,30,12,15,14,22,,,,,1.5,0.9,1.2*36
$GPGSV,3,1,11,09,86,234,37,12,57,261,37,17,36,054,36,14,19,320,33*76
$GPGSV,3,2,11,15,16,184,33,04,15,109,36,30,14,258,27,22,06,286,18*74
$GPGSV,3,3,11,26,05,174,,02,04,140,12,28,02,072,20*45
$GPRMC,133617.000,A,5003.6141,N,01958.2330,E,33.00,102.75,080808,,,A*55
$GPGGA,133618.000,5003.6117,N,01958.2470,E,1,07,1.0,205.3,M,42.0,M,,0000*55
$GPGSA,A,3,04,09,17,12,15,14,22,,,,,,1.6,1.0,1.2*3E
$GPRMC,133618.000,A,5003.6117,N,01958.2470,E,32.83,103.38,080808,,,A*58
$GPGGA,133619.000,5003.6093,N,01958.2608,E,1,07,1.0,204.9,M,42.0,M,,0000*5F
$GPGSA,A,3,04,09,17,12,15,14,22,,,,,,1.6,1.0,1.2*3E
$GPRMC,133619.000,A,5003.6093,N,01958.2608,E,32.26,104.85,080808,,,A*57
$GPGGA,133620.000,5003.6068,N,01958.2741,E,1,06,1.4,204.7,M,42.0,M,,0000*56
$GPGSA,A,3,04,09,17,12,14,22,,,,,,,2.0,1.4,1.3*3A
$GPRMC,133620.000,A,5003.6068,N,01958.2741,E,31.27,105.53,080808,,,A*5D
$GPGGA,133621.000,5003.6043,N,01958.2869,E,1,06,1.4,204.5,M,42.0,M,,0000*59
$GPGSA,A,3,04,09,17,12,14,22,,,,,,,2.0,1.4,1.3*3A
$GPRMC,133621.000,A,5003.6043,N,01958.2869,E,30.62,106.24,080808,,,A*53
$GPGGA,133622.000,5003.6017,N,01958.2993,E,1,07,1.2,203.8,M,42.0,M,,0000*52
$GPGSA,A,3,04,09,17,30,12,14,22,,,,,,1.7,1.2,1.3*3B
$GPGSV,3,1,11,09,86,233,37,12,57,261,38,17,36,054,36,14,19,320,29*75
$GPGSV,3,2,11,15,16,184,07,04,15,109,36,30,14,258,20,22,06,286,26*79
$GPGSV,3,3,11,26,05,174,,02,04,140,,28,02,072,20*46
$GPRMC,133622.000,A,5003.6017,N,01958.2993,E,29.97,106.88,080808,,,A*51
$GPGGA,133623.000,5003.5992,N,01958.3116,E,1,07,1.2,203.4,M,42.0,M,,0000*5C
$GPGSA,A,3,04,09,17,30,12,14,22,,,,,,1.7,1.2,1.3*3B
$GPRMC,133623.000,A,5003.5992,N,01958.3116,E,29.43,106.37,080808,,,A*5E
$GPGGA,133624.000,5003.5968,N,01958.3238,E,1,07,1.2,203.2,M,42.0,M,,0000*57
$GPGSA,A,3,04,09,17,30,12,14,22,,,,,,1.7,1.2,1.3*3B
$GPRMC,133624.000,A,5003.5968,N,01958.3238,E,29.45,105.26,080808,,,A*56
$GPGGA,133625.000,5003.5948,N,01958.3361,E,1,06,1.4,203.1,M,42.0,M,,0000*5D
$GPGSA,A,3,04,09,17,12,14,22,,,,,,,2.0,1.4,1.3*3A
$GPRMC,133625.000,A,5003.5948,N,01958.3361,E,29.11,103.02,080808,,,A*59
$GPGGA,133626.000,5003.5931,N,01958.3483,E,1,06,1.4,203.0,M,42.0,M,,0000*5A
$GPGSA,A,3,04,09,17,12,14,22,,,,,,,2.0,1.4,1.3*3A
$GPRMC,133626.000,A,5003.5931,N,01958.3483,E,29.01,101.28,080808,,,A*54
$GPGGA,133627.000,5003.5912,N,01958.3606,E,1,07,1.2,202.8,M,42.0,M,,0000*5B
$GPGSA,A,3,04,09,17,30,12,14,22,,,,,,1.7,1.2,1.3*3B
$GPGSV,3,1,11,09,86,233,37,12,57,261,39,17,36,054,36,14,19,320,32*7E
$GPGSV,3,2,11,15,16,184,,04,15,109,36,30,14,258,14,22,06,286,31*7F
$GPGSV,3,3,11,26,05,174,,02,04,140,,28,02,072,12*47
$GPRMC,133627.000,A,5003.5912,N,01958.3606,E,29.21,103.73,080808,,,A*55
$GPGGA,133628.000,5003.5890,N,01958.3729,E,1,07,1.2,202.7,M,42.0,M,,0000*5C
$GPGSA,A,3,04,09,17,30,12,14,22,,,,,,1.7,1.2,1.3*3B
$GPRMC,133628.000,A,5003.5890,N,01958.3729,E,29.79,106.47,080808,,,A*52
$GPGGA,133629.000,5003.5863,N,01958.3854,E,1,08,0.9,202.5,M,42.0,M,,0000*53
$GPGSA,A,3,04,09,17,30,15,12,14,22,,,,,1.5,0.9,1.2*36
$GPRMC,133629.000,A,5003.5863,N,01958.3854,E,30.51,107.27,080808,,,A*5F
$GPGGA,133630.000,5003.5837,N,01958.3982,E,1,08,0.9,202.5,M,42.0,M,,0000*50
$GPGSA,A,3,04,09,17,30,15,12,14,22,,,,,1.5,0.9,1.2*36
$GPRMC,133630.000,A,5003.5837,N,01958.3982,E,31.16,106.87,080808,,,A*55
$GPGGA,133631.000,5003.5811,N,01958.4111,E,1,08,0.9,202.3,M,42.0,M,,0000*56
$GPGSA,A,3,04,09,17,30,15,12,14,22,,,,,1.5,0.9,1.2*36
$GPRMC,133631.000,A,5003.5811,N,01958.4111,E,31.18,107.06,080808,,,A*53
$GPGGA,133632.000,5003.5784,N,01958.4238,E,1,09,0.9,202.1,M,42.0,M,,0000*5D
$GPGSA,A,3,04,09,17,30,15,12,14,22,26,,,,1.5,0.9,1.2*32
$GPGSV,3,1,11,09,86,233,37,12,57,261,38,17,36,054,36,14,19,320,32*7F
$GPGSV,3,2,11,15,16,184,27,04,15,109,35,30,14,258,14,22,06,286,32*7A
$GPGSV,3,3,11,26,05,174,21,02,04,140,17,28,02,072,*41
$GPRMC,133632.000,A,5003.5784,N,01958.4238,E,30.14,107.16,080808,,,A*57
$GPGGA,133633.000,5003.5757,N,01958.4356,E,1,09,0.9,201.7,M,42.0,M,,0000*5E
$GPGSA,A,3,04,09,17,30,15,12,14,22,26,,,,1.5,0.9,1.2*32
$GPRMC,133633.000,A,5003.5757,N,01958.4356,E,27.74,109.15,080808,,,A*5C
$GPGGA,133634.000,5003.5731,N,01958.4462,E,1,09,0.9,201.5,M,42.0,M,,0000*5B
$GPGSA,A,3,04,09,17,30,15,12,14,22,26,,,,1.5,0.9,1.2*32
$GPRMC,133634.000,A,5003.5731,N,01958.4462,E,25.23,110.36,080808,,,A*52
$GPGGA,133635.000,5003.5708,N,01958.4559,E,1,09,0.9,201.5,M,42.0,M,,0000*59
$GPGSA,A,3,04,09,17,30,15,12,14,22,26,,,,1.5,0.9,1.2*32
$GPRMC,133635.000,A,5003.5708,N,01958.4559,E,22.98,108.96,080808,,,A*54
$GPGGA,133636.000,5003.5689,N,01958.4648,E,1,09,0.9,201.5,M,42.0,M,,0000*51
$GPGSA,A,3,04,09,17,30,15,12,14,22,26,,,,1.5,0.9,1.2*32
$GPRMC,133636.000,A,5003.5689,N,01958.4648,E,20.71,107.20,080808,,,A*5B
$GPGGA,133637.000,5003.5674,N,01958.4724,E,1,07,0.9,201.6,M,42.0,M,,0000*54
$GPGSA,A,3,04,17,30,15,12,14,22,,,,,,1.9,0.9,1.7*36
$GPGSV,3,1,11,09,86,233,17,12,57,261,33,17,36,054,12,14,19,320,32*70
$GPGSV,3,2,11,15,16,184,18,04,15,109,31,30,14,258,28,22,06,286,32*7D
$GPGSV,3,3,11,26,05,174,11,02,04,140,07,28,02,072,*43
$GPRMC,133637.000,A,5003.5674,N,01958.4724,E,17.36,107.55,080808,,,A*56
$GPGGA,133638.000,5003.5660,N,01958.4788,E,1,06,1.1,201.4,M,42.0,M,,0000*52
$GPGSA,A,3,04,09,17,30,15,22,,,,,,,1.9,1.1,1.5*32
$GPRMC,133638.000,A,5003.5660,N,01958.4788,E,14.99,109.69,080808,,,A*5D
$GPGGA,133639.000,5003.5647,N,01958.4841,E,1,07,1.1,201.5,M,42.0,M,,0000*5C
$GPGSA,A,3,04,09,17,30,15,12,22,,,,,,1.7,1.1,1.3*39
$GPRMC,133639.000,A,5003.5647,N,01958.4841,E,12.29,110.51,080808,,,A*5D
$GPGGA,133640.000,5003.5639,N,01958.4884,E,1,07,1.1,201.6,M,42.0,M,,0000*51
$GPGSA,A,3,04,09,17,30,15,12,22,,,,,,1.7,1.1,1.3*39
$GPRMC,133640.000,A,5003.5639,N,01958.4884,E,9.55,107.90,080808,,,A*69
$GPGGA,133641.000,5003.5633,N,01958.4916,E,1,08,0.9,201.6,M,42.0,M,,0000*56
$GPGSA,A,3,04,09,17,30,15,12,14,22,,,,,1.5,0.9,1.2*36
$GPRMC,133641.000,A,5003.5633,N,01958.4916,E,7.55,103.28,080808,,,A*61
$GPGGA,133642.000,5003.5631,N,01958.4941,E,1,08,0.9,201.5,M,42.0,M,,0000*56
$GPGSA,A,3,04,09,17,30,15,12,14,22,,,,,1.5,0.9,1.2*36
$GPGSV,3,1,11,09,86,230,36,12,57,262,37,17,36,054,34,14,20,320,32*79
$GPGSV,3,2,11,15,15,184,25,04,15,109,36,30,14,258,18,22,06,286,23*74
$GPGSV,3,3,11,26,05,174,,02,04,140,,28,02,072,*44
$GPRMC,133642.000,A,5003.5631,N,01958.4941,E,5.53,96.99,080808,,,A*51
$GPGGA,133643.000,5003.5629,N,01958.4957,E,1,08,0.9,201.1,M,42.0,M,,0000*5D
$GPGSA,A,3,04,09,17,30,15,12,14,22,,,,,1.5,0.9,1.2*36
$GPRMC,133643.000,A,5003.5629,N,01958.4957,E,3.26,97.42,080808,,,A*5D
$GPGGA,133644.000,5003.5628,N,01958.4965,E,1,08,0.9,200.9,M,42.0,M,,0000*53
$GPGSA,A,3,04,09,17,30,15,12,14,22,,,,,1.5,0.9,1.2*36
$GPRMC,133644.000,A,5003.5628,N,01958.4965,E,,97.42,080808,,,A*43
$GPGGA,133645.000,5003.5629,N,01958.4966,E,1,08,0.9,200.7,M,42.0,M,,0000*5E
$GPGSA,A,3,04,09,17,30,15,12,14,22,,,,,1.5,0.9,1.2*36
$GPRMC,133645.000,A,5003.5629,N,01958.4966,E,,97.42,080808,,,A*40
$GPGGA,133646.000,5003.5630,N,01958.4965,E,1,08,0.9,200.6,M,42.0,M,,0000*57
$GPGSA,A,3,04,09,17,30,15,12,14,22,,,,,1.5,0.9,1.2*36
$GPRMC,133646.000,A,5003.5630,N,01958.4965,E,,97.42,080808,,,A*48
$GPGGA,133647.000,5003.5631,N,01958.4965,E,1,08,0.9,200.4,M,42.0,M,,0000*55
$GPGSA,A,3,04,09,17,30,15,12,14,22,,,,,1.5,0.9,1.2*36
$GPGSV,3,1,11,09,86,230,36,12,57,262,38,17,36,054,35,14,20,320,33*76
$GPGSV,3,2,11,15,15,184,20,04,15,109,32,30,14,258,21,22,06,286,27*7B
$GPGSV,3,3,11,26,05,174,09,02,04,140,,28,02,072,*4D
$GPRMC,133647.000,A,5003.5631,N,01958.4965,E,,97.42,080808,,,A*48
$GPGGA,133648.000,5003.5630,N,01958.4975,E,1,08,0.9,200.5,M,42.0,M,,0000*5B
$GPGSA,A,3,04,09,17,30,15,12,14,22,,,,,1.5,0.9,1.2*36
$GPRMC,133648.000,A,5003.5630,N,01958.4975,E,4.17,101.64,080808,,,A*61
$GPGGA,133649.000,5003.5627,N,01958.5000,E,1,09,0.9,200.4,M,42.0,M,,0000*56
$GPGSA,A,3,04,09,17,30,15,12,14,26,22,,,,1.5,0.9,1.2*32
$GPRMC,133649.000,A,5003.5627,N,01958.5000,E,7.68,95.74,080808,,,A*5A
$GPGGA,133650.000,5003.5623,N,01958.5033,E,1,09,0.9,200.2,M,42.0,M,,0000*5C
$GPGSA,A,3,04,09,17,30,15,12,14,26,22,,,,1.5,0.9,1.2*32
$GPRMC,133650.000,A,5003.5623,N,01958.5033,E,8.10,98.67,080808,,,A*59
$GPGGA,133651.000,5003.5619,N,01958.5069,E,1,09,0.9,200.1,M,42.0,M,,0000*58
$GPGSA,A,3,04,09,17,30,15,12,14,26,22,,,,1.5,0.9,1.2*32
$GPRMC,133651.000,A,5003.5619,N,01958.5069,E,8.76,99.40,080808,,,A*5A
$GPGGA,133652.000,5003.5615,N,01958.5112,E,1,09,0.9,200.1,M,42.0,M,,0000*5A
$GPGSA,A,3,04,09,17,30,15,12,14,26,22,,,,1.5,0.9,1.2*32
$GPGSV,3,1,11,09,86,230,37,12,57,262,38,17,36,054,35,14,20,320,34*70
$GPGSV,3,2,11,15,15,184,28,04,15,109,32,30,14,258,26,22,06,286,25*76
$GPGSV,3,3,11,26,05,174,20,02,04,140,07,28,02,072,*41
$GPRMC,133652.000,A,5003.5615,N,01958.5112,E,11.28,98.39,080808,,,A*64
$GPGGA,133653.000,5003.5611,N,01958.5167,E,1,09,0.9,200.0,M,42.0,M,,0000*5C
$GPGSA,A,3,04,09,17,30,15,12,14,26,22,,,,1.5,0.9,1.2*32
$GPRMC,133653.000,A,5003.5611,N,01958.5167,E,13.90,94.33,080808,,,A*64
$GPGGA,133654.000,5003.5608,N,01958.5232,E,1,09,0.9,199.9,M,42.0,M,,0000*5A
$GPGSA,A,3,04,09,17,30,15,12,14,26,22,,,,1.5,0.9,1.2*32
$GPRMC,133654.000,A,5003.5608,N,01958.5232,E,15.91,92.56,080808,,,A*6A
$GPGGA,133655.000,5003.5607,N,01958.5300,E,1,09,0.9,199.8,M,42.0,M,,0000*55
$GPGSA,A,3,04,09,17,30,15,12,14,26,22,,,,1.5,0.9,1.2*32
$GPRMC,133655.000,A,5003.5607,N,01958.5300,E,15.55,91.60,080808,,,A*6A
$GPGGA,133656.000,5003.5606,N,01958.5368,E,1,09,0.9,199.7,M,42.0,M,,0000*56
$GPGSA,A,3,04,09,17,30,15,12,14,26,22,,,,1.5,0.9,1.2*32
$GPRMC,133656.000,A,5003.5606,N,01958.5368,E,15.45,89.38,080808,,,A*63
$GPGGA,133657.000,5003.5607,N,01958.5439,E,1,09,0.9,199.9,M,42.0,M,,0000*5B
$GPGSA,A,3,04,09,17,30,15,12,14,26,22,,,,1.5,0.9,1.2*32
$GPGSV,3,1,11,09,86,230,37,12,57,262,39,17,36,054,36,14,20,320,32*74
$GPGSV,3,2,11,15,15,184,34,04,15,109,24,30,14,258,25,22,06,286,25*7F
$GPGSV,3,3,11,26,05,174,13,02,04,140,,28,02,072,*46
$GPRMC,133657.000,A,5003.5607,N,01958.5439,E,16.98,87.88,080808,,,A*66
$GPGGA,133658.000,5003.5610,N,01958.5516,E,1,09,0.9,199.9,M,42.0,M,,0000*5E
$GPGSA,A,3,04,09,17,30,15,12,14,26,22,,,,1.5,0.9,1.2*32
$GPRMC,133658.000,A,5003.5610,N,01958.5516,E,18.25,85.37,080808,,,A*6D
$GPGGA,133659.000,5003.5615,N,01958.5597,E,1,09,0.9,199.9,M,42.0,M,,0000*53
$GPGSA,A,3,04,09,17,30,15,12,14,26,22,,,,1.5,0.9,1.2*32
$GPRMC,133659.000,A,5003.5615,N,01958.5597,E,19.13,83.65,080808,,,A*65
$GPGGA,133700.000,5003.5623,N,01958.5682,E,1,09,0.9,200.0,M,42.0,M,,0000*56
$GPGSA,A,3,04,09,17,30,15,12,14,26,22,,,,1.5,0.9,1.2*32
$GPRMC,133700.000,A,5003.5623,N,01958.5682,E,20.41,79.78,080808,,,A*6E
$GPGGA,133701.000,5003.5635,N,01958.5774,E,1,09,0.9,200.1,M,42.0,M,,0000*59
$GPGSA,A,3,04,09,17,30,15,12,14,26,22,,,,1.5,0.9,1.2*32
$GPRMC,133701.000,A,5003.5635,N,01958.5774,E,22.58,78.22,080808,,,A*64
$GPGGA,133702.000,5003.5651,N,01958.5871,E,1,09,0.9,200.2,M,42.0,M,,0000*51
$GPGSA,A,3,04,09,17,30,15,12,14,26,22,,,,1.5,0.9,1.2*32
$GPGSV,3,1,11,09,86,230,37,12,57,262,38,17,36,054,36,14,20,320,31*76
$GPGSV,3,2,11,15,15,184,23,04,15,109,27,30,14,258,33,22,06,286,28*70
$GPGSV,3,3,11,26,05,174,15,02,04,140,,28,02,072,*40
$GPRMC,133702.000,A,5003.5651,N,01958.5871,E,23.39,74.91,080808,,,A*6D
$GPGGA,133703.000,5003.5671,N,01958.5967,E,1,09,0.9,200.3,M,42.0,M,,0000*55
$GPGSA,A,3,04,09,17,30,15,12,14,26,22,,,,1.5,0.9,1.2*32
$GPRMC,133703.000,A,5003.5671,N,01958.5967,E,22.99,70.16,080808,,,A*68
$GPGGA,133704.000,5003.5696,N,01958.6060,E,1,09,0.9,200.6,M,42.0,M,,0000*53
$GPGSA,A,3,04,09,17,30,15,12,14,26,22,,,,1.5,0.9,1.2*32
$GPRMC,133704.000,A,5003.5696,N,01958.6060,E,23.12,65.95,080808,,,A*66
$GPGGA,133705.000,5003.5725,N,01958.6151,E,1,08,1.0,200.8,M,42.0,M,,0000*5F
$GPGSA,A,3,09,17,30,15,12,14,26,22,,,,,1.6,1.0,1.3*3C
$GPRMC,133705.000,A,5003.5725,N,01958.6151,E,23.30,63.57,080808,,,A*65
$GPGGA,133706.000,5003.5756,N,01958.6241,E,1,08,1.0,200.8,M,42.0,M,,0000*5A
$GPGSA,A,3,09,17,30,15,12,14,26,22,,,,,1.6,1.0,1.3*3C
$GPRMC,133706.000,A,5003.5756,N,01958.6241,E,23.34,60.45,080808,,,A*64
$GPGGA,133707.000,5003.5791,N,01958.6328,E,1,08,1.0,200.9,M,42.0,M,,0000*5F
$GPGSA,A,3,09,17,30,15,12,14,26,22,,,,,1.6,1.0,1.3*3C
$GPGSV,3,1,11,09,86,230,37,12,57,262,38,17,36,054,36,14,20,320,31*76
$GPGSV,3,2,11,15,15,184,30,04,15,109,08,30,14,258,32,22,06,286,28*7E
$GPGSV,3,3,11,26,05,174,18,02,04,140,,28,02,072,*4D
$GPRMC,133707.000,A,5003.5791,N,01958.6328,E,23.76,57.81,080808,,,A*6A
$GPGGA,133708.000,5003.5827,N,01958.6414,E,1,07,1.1,200.7,M,42.0,M,,0000*5A
$GPGSA,A,3,09,17,30,15,12,26,22,,,,,,1.7,1.1,1.3*39
$GPRMC,133708.000,A,5003.5827,N,01958.6414,E,23.32,57.44,080808,,,A*66
$GPGGA,133709.000,5003.5865,N,01958.6497,E,1,08,1.0,200.6,M,42.0,M,,0000*59
$GPGSA,A,3,09,17,30,15,12,14,26,22,,,,,1.6,1.0,1.3*3C
$GPRMC,133709.000,A,5003.5865,N,01958.6497,E,23.72,52.32,080808,,,A*6A
$GPGGA,133710.000,5003.5909,N,01958.6579,E,1,07,1.1,200.4,M,42.0,M,,0000*57
$GPGSA,A,3,09,17,30,15,12,14,22,,,,,,1.8,1.1,1.4*30
$GPRMC,133710.000,A,5003.5909,N,01958.6579,E,24.69,50.06,080808,,,A*60
$GPGGA,133711.000,5003.5956,N,01958.6663,E,1,09,0.9,200.2,M,42.0,M,,0000*55
$GPGSA,A,3,09,17,30,15,12,04,14,26,22,,,,1.5,0.9,1.2*32
$GPRMC,133711.000,A,5003.5956,N,01958.6663,E,26.09,49.33,080808,,,A*69
$GPGGA,133712.000,5003.6004,N,01958.6751,E,1,09,0.9,199.9,M,42.0,M,,0000*53
$GPGSA,A,3,09,17,30,15,12,04,14,26,22,,,,1.5,0.9,1.2*32
$GPGSV,3,1,11,09,86,226,37,12,57,262,38,17,36,054,36,14,20,320,23*72
$GPGSV,3,2,11,15,15,184,24,04,15,109,19,30,14,258,32,22,06,286,27*74
$GPGSV,3,3,11,26,05,174,17,02,04,140,,28,02,072,*42
$GPRMC,133712.000,A,5003.6004,N,01958.6751,E,26.91,50.72,080808,,,A*6B
$GPGGA,133713.000,5003.6049,N,01958.6842,E,1,09,0.9,199.7,M,42.0,M,,0000*58
$GPGSA,A,3,09,17,30,15,12,04,14,26,22,,,,1.5,0.9,1.2*32
$GPRMC,133713.000,A,5003.6049,N,01958.6842,E,25.98,54.41,080808,,,A*60
$GPGGA,133714.000,5003.6089,N,01958.6932,E,1,08,1.0,199.4,M,42.0,M,,0000*5F
$GPGSA,A,3,09,17,30,15,12,14,26,22,,,,,1.6,1.0,1.3*3C
$GPRMC,133714.000,A,5003.6089,N,01958.6932,E,24.28,57.54,080808,,,A*60
$GPGGA,133715.000,5003.6122,N,01958.7020,E,1,08,1.0,199.3,M,42.0,M,,0000*52
$GPGSA,A,3,09,17,30,15,12,14,26,22,,,,,1.6,1.0,1.3*3C
$GPRMC,133715.000,A,5003.6122,N,01958.7020,E,22.61,61.63,080808,,,A*60
$GPGGA,133716.000,5003.6152,N,01958.7104,E,1,08,1.0,199.0,M,42.0,M,,0000*52
$GPGSA,A,3,09,17,30,15,12,14,26,22,,,,,1.6,1.0,1.3*3C
$GPRMC,133716.000,A,5003.6152,N,01958.7104,E,21.71,60.86,080808,,,A*6B
$GPGGA,133717.000,5003.6182,N,01958.7187,E,1,08,1.0,198.7,M,42.0,M,,0000*53
$GPGSA,A,3,09,17,30,15,12,14,26,22,,,,,1.6,1.0,1.3*3C
$GPGSV,3,1,11,09,86,225,37,12,57,262,38,17,36,054,35,14,20,320,24*75
$GPGSV,3,2,11,15,15,184,19,04,15,109,,30,14,258,31,22,06,285,15*73
$GPGSV,3,3,11,26,05,174,18,02,04,140,,28,02,072,*4D
$GPRMC,133717.000,A,5003.6182,N,01958.7187,E,22.32,60.19,080808,,,A*6E
$GPGGA,133718.000,5003.6214,N,01958.7273,E,1,08,0.9,198.2,M,42.0,M,,0000*55
$GPGSA,A,3,04,09,17,30,15,12,14,22,,,,,1.5,0.9,1.2*36
$GPRMC,133718.000,A,5003.6214,N,01958.7273,E,23.52,58.25,080808,,,A*66
$GPGGA,133719.000,5003.6252,N,01958.7361,E,1,08,0.9,197.9,M,42.0,M,,0000*50
$GPGSA,A,3,04,09,17,30,15,12,14,22,,,,,1.5,0.9,1.2*36
$GPRMC,133719.000,A,5003.6252,N,01958.7361,E,24.92,54.57,080808,,,A*65
$GPGGA,133720.000,5003.6293,N,01958.7450,E,1,08,0.9,197.7,M,42.0,M,,0000*5C
$GPGSA,A,3,04,09,17,30,15,12,14,22,,,,,1.5,0.9,1.2*36
$GPRMC,133720.000,A,5003.6293,N,01958.7450,E,25.62,54.26,080808,,,A*6F
$GPGGA,133721.000,5003.6336,N,01958.7541,E,1,06,1.1,197.4,M,42.0,M,,0000*56
$GPGSA,A,3,09,17,30,15,12,14,,,,,,,1.9,1.1,1.5*30
$GPRMC,133721.000,A,5003.6336,N,01958.7541,E,26.23,53.71,080808,,,A*62
$GPGGA,133722.000,5003.6380,N,01958.7634,E,1,08,0.9,197.2,M,42.0,M,,0000*58
$GPGSA,A,3,04,09,17,30,15,12,14,22,,,,,1.5,0.9,1.2*36
$GPGSV,3,1,11,09,86,225,37,12,57,262,38,17,36,054,35,14,20,320,24*75
$GPGSV,3,2,11,15,15,184,19,04,15,109,17,30,14,258,29,22,06,285,14*7D
$GPGSV,3,3,11,26,05,174,,02,04,140,,28,02,072,*44
$GPRMC,133722.000,A,5003.6380,N,01958.7634,E,27.22,54.51,080808,,,A*68
$GPGGA,133723.000,5003.6428,N,01958.7732,E,1,08,0.9,197.4,M,42.0,M,,0000*5D
$GPGSA,A,3,04,09,17,30,15,12,14,22,,,,,1.5,0.9,1.2*36
$GPRMC,133723.000,A,5003.6428,N,01958.7732,E,28.75,54.52,080808,,,A*65
$GPGGA,133724.000,5003.6482,N,01958.7833,E,1,08,0.9,197.7,M,42.0,M,,0000*57
$GPGSA,A,3,04,09,17,30,15,12,14,22,,,,,1.5,0.9,1.2*36
$GPRMC,133724.000,A,5003.6482,N,01958.7833,E,30.91,51.04,080808,,,A*69
$GPGGA,133725.000,5003.6539,N,01958.7940,E,1,08,0.9,198.2,M,42.0,M,,0000*58
$GPGSA,A,3,04,09,17,30,15,12,14,22,,,,,1.5,0.9,1.2*36
$GPRMC,133725.000,A,5003.6539,N,01958.7940,E,32.50,53.36,080808,,,A*60
$GPGGA,133726.000,5003.6594,N,01958.8057,E,1,08,0.9,198.9,M,42.0,M,,0000*57
$GPGSA,A,3,04,09,17,30,15,12,14,22,,,,,1.5,0.9,1.2*36
$GPRMC,133726.000,A,5003.6594,N,01958.8057,E,34.31,55.18,080808,,,A*6F
$GPGGA,133727.000,5003.6652,N,01958.8182,E,1,08,0.9,199.1,M,42.0,M,,0000*5F
$GPGSA,A,3,04,09,17,30,15,12,14,22,,,,,1.5,0.9,1.2*36
$GPGSV,3,1,11,09,86,225,37,12,57,262,37,17,36,054,35,14,20,320,24*7A
$GPGSV,3,2,11,15,15,184,20,04,15,109,32,30,14,258,29,22,06,285,13*77
$GPGSV,3,3,11,26,05,174,,02,04,140,19,28,02,072,*4C
$GPRMC,133727.000,A,5003.6652,N,01958.8182,E,35.95,54.57,080808,,,A*6B
$GPGGA,133728.000,5003.6710,N,01958.8313,E,1,07,1.1,199.0,M,42.0,M,,0000*5A
$GPGSA,A,3,09,17,30,15,12,14,22,,,,,,1.8,1.1,1.4*30
$GPRMC,133728.000,A,5003.6710,N,01958.8313,E,36.83,55.80,080808,,,A*66
$GPGGA,133729.000,5003.6772,N,01958.8442,E,1,08,1.0,199.1,M,42.0,M,,0000*53
$GPGSA,A,3,09,17,30,15,12,14,26,22,,,,,1.6,1.0,1.3*3C
$GPRMC,133729.000,A,5003.6772,N,01958.8442,E,37.14,52.86,080808,,,A*6E
$GPGGA,133730.000,5003.6835,N,01958.8570,E,1,08,1.0,199.2,M,42.0,M,,0000*54
$GPGSA,A,3,09,17,30,15,12,14,26,22,,,,,1.6,1.0,1.3*3C
$GPRMC,133730.000,A,5003.6835,N,01958.8570,E,36.96,51.88,080808,,,A*6C
$GPGGA,133731.000,5003.6901,N,01958.8696,E,1,09,0.9,199.3,M,42.0,M,,0000*50
$GPGSA,A,3,04,09,17,30,15,12,14,26,22,,,,1.5,0.9,1.2*32
$GPRMC,133731.000,A,5003.6901,N,01958.8696,E,37.84,50.40,080808,,,A*67
$GPGGA,133732.000,5003.6971,N,01958.8823,E,1,09,0.9,199.6,M,42.0,M,,0000*51
$GPGSA,A,3,04,09,17,30,15,12,14,26,22,,,,1.5,0.9,1.2*32
$GPGSV,3,1,11,09,86,225,37,12,57,262,37,17,36,054,35,14,20,320,25*7B
$GPGSV,3,2,11,15,15,184,30,04,15,109,21,30,14,258,30,22,06,285,25*79
$GPGSV,3,3,11,26,05,174,20,02,04,140,11,28,02,072,*46
$GPRMC,133732.000,A,5003.6971,N,01958.8823,E,38.92,48.91,080808,,,A*6E
$GPGGA,133733.000,5003.7043,N,01958.8953,E,1,08,0.9,199.8,M,42.0,M,,0000*50
$GPGSA,A,3,04,09,17,30,12,14,26,22,,,,,1.5,0.9,1.2*36
$GPRMC,133733.000,A,5003.7043,N,01958.8953,E,39.68,50.65,080808,,,A*66
$GPGGA,133734.000,5003.7114,N,01958.9089,E,1,07,1.0,200.3,M,42.0,M,,0000*54
$GPGSA,A,3,04,09,17,30,12,14,26,,,,,,1.6,1.0,1.3*3C
$GPRMC,133734.000,A,5003.7114,N,01958.9089,E,40.61,52.53,080808,,,A*6D
$GPGGA,133735.000,5003.7186,N,01958.9229,E,1,09,0.9,201.2,M,42.0,M,,0000*50
$GPGSA,A,3,04,09,17,30,15,12,14,26,22,,,,1.5,0.9,1.2*32
$GPRMC,133735.000,A,5003.7186,N,01958.9229,E,41.62,52.55,080808,,,A*6B
$GPGGA,133736.000,5003.7258,N,01958.9371,E,1,09,0.9,201.8,M,42.0,M,,0000*55
$GPGSA,A,3,04,09,17,30,15,12,14,26,22,,,,1.5,0.9,1.2*32
$GPRMC,133736.000,A,5003.7258,N,01958.9371,E,41.59,52.35,080808,,,A*6A
$GPGGA,133737.000,5003.7329,N,01958.9512,E,1,09,0.9,202.8,M,42.0,M,,0000*53
$GPGSA,A,3,04,09,17,30,15,12,14,26,22,,,,1.5,0.9,1.2*32
$GPGSV,3,1,11,09,86,225,38,12,57,262,37,17,36,054,35,14,20,320,25*74
$GPGSV,3,2,11,15,15,184,32,04,15,109,31,30,14,258,31,22,06,285,24*7A
$GPGSV,3,3,11,26,05,174,19,02,04,140,,28,02,072,*4C
$GPRMC,133737.000,A,5003.7329,N,01958.9512,E,40.76,53.43,080808,,,A*63
$GPGGA,133738.000,5003.7398,N,01958.9652,E,1,09,0.9,203.5,M,42.0,M,,0000*5D
$GPGSA,A,3,04,09,17,30,15,12,14,26,22,,,,1.5,0.9,1.2*32
$GPRMC,133738.000,A,5003.7398,N,01958.9652,E,40.88,53.18,080808,,,A*6E
$GPGGA,133739.000,5003.7468,N,01958.9792,E,1,08,0.9,204.0,M,42.0,M,,0000*5A
$GPGSA,A,3,04,09,17,30,15,12,14,26,,,,,1.6,0.9,1.3*30
$GPRMC,133739.000,A,5003.7468,N,01958.9792,E,40.42,53.13,080808,,,A*67
$GPGGA,133740.000,5003.7534,N,01958.9931,E,1,09,0.9,204.8,M,42.0,M,,0000*52
$GPGSA,A,3,04,09,17,30,15,12,14,26,22,,,,1.5,0.9,1.2*32
$GPRMC,133740.000,A,5003.7534,N,01958.9931,E,39.51,54.65,080808,,,A*6C
$GPGGA,133741.000,5003.7599,N,01959.0071,E,1,09,0.9,205.5,M,42.0,M,,0000*5D
$GPGSA,A,3,04,09,17,30,15,12,14,26,22,,,,1.5,0.9,1.2*32
$GPRMC,133741.000,A,5003.7599,N,01959.0071,E,39.97,55.93,080808,,,A*6D
$GPGGA,133742.000,5003.7664,N,01959.0214,E,1,09,0.9,205.8,M,42.0,M,,0000*53
$GPGSA,A,3,04,09,17,30,15,12,14,26,22,,,,1.5,0.9,1.2*32
$GPGSV,3,1,11,09,86,225,38,12,57,262,37,17,36,054,36,14,20,320,25*77
$GPGSV,3,2,11,15,15,184,30,04,15,109,32,30,14,258,31,22,06,285,23*7C
$GPGSV,3,3,11,26,05,174,16,02,04,140,24,28,02,072,19*4D
$GPRMC,133742.000,A,5003.7664,N,01959.0214,E,40.67,55.95,080808,,,A*69
$GPGGA,133743.000,5003.7730,N,01959.0359,E,1,09,0.9,206.0,M,42.0,M,,0000*51
$GPGSA,A,3,04,09,17,30,15,12,14,26,22,,,,1.5,0.9,1.2*32
$GPRMC,133743.000,A,5003.7730,N,01959.0359,E,41.44,55.11,080808,,,A*6C
$GPGGA,133744.000,5003.7799,N,01959.0506,E,1,09,0.9,206.0,M,42.0,M,,0000*59
$GPGSA,A,3,04,09,17,30,15,12,14,26,22,,,,1.5,0.9,1.2*32
$GPRMC,133744.000,A,5003.7799,N,01959.0506,E,42.19,54.64,080808,,,A*6C
$GPGGA,133745.000,5003.7867,N,01959.0660,E,1,09,0.9,206.2,M,42.0,M,,0000*57
$GPGSA,A,3,04,09,17,30,15,12,14,26,22,,,,1.5,0.9,1.2*32
$GPRMC,133745.000,A,5003.7867,N,01959.0660,E,43.59,57.09,080808,,,A*6D
$GPGGA,133746.000,5003.7932,N,01959.0819,E,1,09,0.9,206.0,M,42.0,M,,0000*57
$GPGSA,A,3,04,09,17,30,15,12,14,26,22,,,,1.5,0.9,1.2*32
$GPRMC,133746.000,A,5003.7932,N,01959.0819,E,43.59,59.20,080808,,,A*6A
$GPGGA,133747.000,5003.7993,N,01959.0981,E,1,09,0.9,205.5,M,42.0,M,,0000*5B
$GPGSA,A,3,04,09,17,30,15,12,14,26,22,,,,1.5,0.9,1.2*32
$GPGSV,3,1,11,09,86,221,37,12,57,262,37,17,36,054,36,14,20,320,25*7C
$GPGSV,3,2,11,04,15,108,32,15,15,184,30,30,14,258,31,22,05,285,24*79
$GPGSV,3,3,11,26,05,174,27,02,04,140,27,28,02,072,28*4E
$GPRMC,133747.000,A,5003.7993,N,01959.0981,E,42.84,61.88,080808,,,A*68
$GPGGA,133748.000,5003.8047,N,01959.1140,E,1,09,0.9,204.8,M,42.0,M,,0000*53
$GPGSA,A,3,04,09,17,30,15,12,14,26,22,,,,1.5,0.9,1.2*32
$GPRMC,133748.000,A,5003.8047,N,01959.1140,E,40.68,64.18,080808,,,A*60
$GPGGA,133749.000,5003.8093,N,01959.1293,E,1,09,0.9,204.2,M,42.0,M,,0000*5C
$GPGSA,A,3,04,09,17,30,15,12,14,26,22,,,,1.5,0.9,1.2*32
$GPRMC,133749.000,A,5003.8093,N,01959.1293,E,37.90,66.75,080808,,,A*6B
$GPGGA,133750.000,5003.8131,N,01959.1437,E,1,09,0.9,203.5,M,42.0,M,,0000*55
$GPGSA,A,3,04,09,17,30,15,12,14,26,22,,,,1.5,0.9,1.2*32
$GPRMC,133750.000,A,5003.8131,N,01959.1437,E,34.96,69.22,080808,,,A*6A
$GPGGA,133751.000,5003.8162,N,01959.1571,E,1,09,0.9,202.8,M,42.0,M,,0000*5D
$GPGSA,A,3,04,09,17,30,15,12,14,26,22,,,,1.5,0.9,1.2*32
$GPRMC,133751.000,A,5003.8162,N,01959.1571,E,32.10,71.76,080808,,,A*6E
$GPGGA,133752.000,5003.8187,N,01959.1696,E,1,09,0.9,202.3,M,42.0,M,,0000*54
$GPGSA,A,3,04,09,17,30,15,12,14,26,22,,,,1.5,0.9,1.2*32
$GPGSV,3,1,11,09,86,221,37,12,57,262,36,17,36,054,36,14,20,320,31*78
$GPGSV,3,2,11,04,15,108,33,15,15,184,34,30,14,258,31,22,05,285,25*7D
$GPGSV,3,3,11,26,05,174,28,02,04,140,31,28,02,072,33*4C
$GPRMC,133752.000,A,5003.8187,N,01959.1696,E,29.35,73.78,080808,,,A*6D
$GPGGA,133753.000,5003.8207,N,01959.1810,E,1,09,0.9,201.9,M,42.0,M,,0000*57
$GPGSA,A,3,04,09,17,30,15,12,14,26,22,,,,1.5,0.9,1.2*32
$GPRMC,133753.000,A,5003.8207,N,01959.1810,E,26.78,75.65,080808,,,A*6B
$GPGGA,133754.000,5003.8222,N,01959.1913,E,1,09,0.9,201.3,M,42.0,M,,0000*5F
$GPGSA,A,3,04,09,17,30,15,12,14,26,22,,,,1.5,0.9,1.2*32
$GPRMC,133754.000,A,5003.8222,N,01959.1913,E,23.69,77.47,080808,,,A*6E
$GPGGA,133755.000,5003.8234,N,01959.2006,E,1,08,0.9,201.0,M,42.0,M,,0000*55
$GPGSA,A,3,04,09,17,30,15,12,14,22,,,,,1.5,0.9,1.2*36
$GPRMC,133755.000,A,5003.8234,N,01959.2006,E,21.55,78.24,080808,,,A*61
$GPGGA,133756.000,5003.8245,N,01959.2089,E,1,09,0.9,200.6,M,42.0,M,,0000*51
$GPGSA,A,3,04,09,17,30,15,12,14,26,22,,,,1.5,0.9,1.2*32
$GPRMC,133756.000,A,5003.8245,N,01959.2089,E,19.03,78.14,080808,,,A*68
$GPGGA,133757.000,5003.8254,N,01959.2161,E,1,09,0.9,200.4,M,42.0,M,,0000*55
$GPGSA,A,3,04,09,17,30,15,12,14,26,22,,,,1.5,0.9,1.2*32
$GPGSV,3,1,11,09,86,221,37,12,57,262,37,17,36,054,37,14,20,320,31*78
$GPGSV,3,2,11,04,15,108,32,15,15,184,34,30,14,258,31,22,05,285,27*7E
$GPGSV,3,3,11,26,05,174,26,02,04,140,11,28,02,072,29*4B
$GPRMC,133757.000,A,5003.8254,N,01959.2161,E,16.31,77.72,080808,,,A*6F
$GPGGA,133758.000,5003.8263,N,01959.2222,E,1,09,0.9,200.1,M,42.0,M,,0000*5F
$GPGSA,A,3,04,09,17,30,15,12,14,26,22,,,,1.5,0.9,1.2*32
$GPRMC,133758.000,A,5003.8263,N,01959.2222,E,14.26,76.45,080808,,,A*61
$GPGGA,133759.000,5003.8270,N,01959.2275,E,1,09,0.9,200.0,M,42.0,M,,0000*5F
$GPGSA,A,3,04,09,17,30,15,12,14,26,22,,,,1.5,0.9,1.2*32
$GPRMC,133759.000,A,5003.8270,N,01959.2275,E,12.41,77.07,080808,,,A*60
$GPGGA,133800.000,5003.8276,N,01959.2319,E,1,09,0.9,199.8,M,42.0,M,,0000*5A
$GPGSA,A,3,04,09,17,30,15,12,14,26,22,,,,1.5,0.9,1.2*32
$GPRMC,133800.000,A,5003.8276,N,01959.2319,E,9.87,76.49,080808,,,A*55
$GPGGA,133801.000,5003.8281,N,01959.2353,E,1,09,0.9,199.8,M,42.0,M,,0000*5D
$GPGSA,A,3,04,09,17,30,15,12,14,26,22,,,,1.5,0.9,1.2*32
$GPRMC,133801.000,A,5003.8281,N,01959.2353,E,7.87,76.78,080808,,,A*5E
$GPGGA,133802.000,5003.8285,N,01959.2381,E,1,09,0.9,199.8,M,42.0,M,,0000*55
$GPGSA,A,3,04,09,17,30,15,12,14,26,22,,,,1.5,0.9,1.2*32
$GPGSV,3,1,11,09,86,221,36,12,57,262,37,17,36,054,37,14,20,320,31*79
$GPGSV,3,2,11,04,15,108,33,15,15,184,34,30,14,258,32,22,05,285,24*7F
$GPGSV,3,3,11,26,05,174,14,02,04,140,11,28,02,072,31*43
$GPRMC,133802.000,A,5003.8285,N,01959.2381,E,6.69,76.51,080808,,,A*5C
$GPGGA,133803.000,5003.8287,N,01959.2402,E,1,09,0.9,199.8,M,42.0,M,,0000*5A
$GPGSA,A,3,04,09,17,30,15,12,14,26,22,,,,1.5,0.9,1.2*32
$GPRMC,133803.000,A,5003.8287,N,01959.2402,E,4.82,76.58,080808,,,A*5D
$GPGGA,133804.000,5003.8289,N,01959.2416,E,1,09,0.9,199.9,M,42.0,M,,0000*57
$GPGSA,A,3,04,09,17,30,15,12,14,26,22,,,,1.5,0.9,1.2*32
$GPRMC,133804.000,A,5003.8289,N,01959.2416,E,3.40,77.25,080808,,,A*53
$GPGGA,133805.000,5003.8290,N,01959.2425,E,1,09,0.9,200.0,M,42.0,M,,0000*54
$GPGSA,A,3,04,09,17,30,15,12,14,26,22,,,,1.5,0.9,1.2*32
$GPRMC,133805.000,A,5003.8290,N,01959.2425,E,,77.25,080808,,,A*43
$GPGGA,133806.000,5003.8290,N,01959.2430,E,1,09,0.9,200.0,M,42.0,M,,0000*53
$GPGSA,A,3,04,09,17,30,15,12,14,26,22,,,,1.5,0.9,1.2*32
$GPRMC,133806.000,A,5003.8290,N,01959.2430,E,,77.25,080808,,,A*44
$GPGGA,133807.000,5003.8291,N,01959.2433,E,1,09,0.9,200.1,M,42.0,M,,0000*51
$GPGSA,A,3,04,09,17,30,15,12,14,26,22,,,,1.5,0.9,1.2*32
$GPGSV,3,1,11,09,86,221,37,12,57,262,37,17,36,054,37,14,20,320,31*78
$GPGSV,3,2,11,04,15,108,33,15,15,184,34,30,14,258,32,22,05,285,32*78
$GPGSV,3,3,11,26,05,174,14,02,04,140,11,28,02,072,21*42
$GPRMC,133807.000,A,5003.8291,N,01959.2433,E,,77.25,080808,,,A*47
$GPGGA,133808.000,5003.8291,N,01959.2436,E,1,09,0.9,200.2,M,42.0,M,,0000*58
$GPGSA,A,3,04,09,17,30,15,12,14,26,22,,,,1.5,0.9,1.2*32
$GPRMC,133808.000,A,5003.8291,N,01959.2436,E,,77.25,080808,,,A*4D
$GPGGA,133809.000,5003.8291,N,01959.2436,E,1,09,0.9,200.2,M,42.0,M,,0000*59
$GPGSA,A,3,04,09,17,30,15,12,14,26,22,,,,1.5,0.9,1.2*32
$GPRMC,133809.000,A,5003.8291,N,01959.2436,E,,77.25,080808,,,A*4C
$GPGGA,133810.000,5003.8290,N,01959.2434,E,1,09,0.9,200.2,M,42.0,M,,0000*52
$GPGSA,A,3,04,09,17,30,15,12,14,26,22,,,,1.5,0.9,1.2*32
$GPRMC,133810.000,A,5003.8290,N,01959.2434,E,,77.25,080808,,,A*47
$GPGGA,133811.000,5003.8289,N,01959.2432,E,1,09,0.9,200.2,M,42.0,M,,0000*5D
$GPGSA,A,3,04,09,17,30,15,12,14,26,22,,,,1.5,0.9,1.2*32
$GPRMC,133811.000,A,5003.8289,N,01959.2432,E,,77.25,080808,,,A*48
$GPGGA,133812.000,5003.8288,N,01959.2431,E,1,09,0.9,200.2,M,42.0,M,,0000*5C
$GPGSA,A,3,04,09,17,30,15,12,14,26,22,,,,1.5,0.9,1.2*32
$GPGSV,3,1,11,09,86,221,37,12,57,262,37,17,36,054,37,14,20,320,32*7B
$GPGSV,3,2,11,04,15,108,33,15,15,184,34,30,14,258,32,22,05,285,32*78
$GPGSV,3,3,11,26,05,174,13,02,04,140,,28,02,072,23*47
$GPRMC,133812.000,A,5003.8288,N,01959.2431,E,,77.25,080808,,,A*49
$GPGGA,133813.000,5003.8288,N,01959.2429,E,1,09,0.9,200.3,M,42.0,M,,0000*55
$GPGSA,A,3,04,09,17,30,15,12,14,26,22,,,,1.5,0.9,1.2*32
$GPRMC,133813.000,A,5003.8288,N,01959.2429,E,,77.25,080808,,,A*41
$GPGGA,133814.000,5003.8287,N,01959.2427,E,1,09,0.9,200.3,M,42.0,M,,0000*53
$GPGSA,A,3,04,09,17,30,15,12,14,26,22,,,,1.5,0.9,1.2*32
$GPRMC,133814.000,A,5003.8287,N,01959.2427,E,,77.25,080808,,,A*47
$GPGGA,133815.000,5003.8287,N,01959.2426,E,1,08,0.9,200.3,M,42.0,M,,0000*52
$GPGSA,A,3,04,09,17,30,15,12,14,22,,,,,1.5,0.9,1.2*36
$GPRMC,133815.000,A,5003.8287,N,01959.2426,E,,77.25,080808,,,A*47
$GPGGA,133816.000,5003.8286,N,01959.2424,E,1,09,0.9,200.4,M,42.0,M,,0000*54
$GPGSA,A,3,04,09,17,30,15,12,14,26,22,,,,1.5,0.9,1.2*32
$GPRMC,133816.000,A,5003.8286,N,01959.2424,E,,77.25,080808,,,A*47
$GPGGA,133817.000,5003.8286,N,01959.2423,E,1,09,0.9,200.4,M,42.0,M,,0000*52
$GPGSA,A,3,04,09,17,30,15,12,14,26,22,,,,1.5,0.9,1.2*32
$GPGSV,3,1,11,09,86,217,37,12,57,262,37,17,36,054,38,14,20,320,32*71
$GPGSV,3,2,11,04,15,108,33,15,15,184,34,30,14,258,31,22,05,285,33*7A
$GPGSV,3,3,11,26,05,174,12,02,05,140,,28,01,072,24*43
$GPRMC,133817.000,A,5003.8286,N,01959.2423,E,,77.25,080808,,,A*41
$GPGGA,133818.000,5003.8286,N,01959.2422,E,1,09,0.9,200.4,M,42.0,M,,0000*5C
$GPGSA,A,3,04,09,17,30,15,12,14,26,22,,,,1.5,0.9,1.2*32
$GPRMC,133818.000,A,5003.8286,N,01959.2422,E,,77.25,080808,,,A*4F
$GPGGA,133819.000,5003.8285,N,01959.2421,E,1,09,0.9,200.3,M,42.0,M,,0000*5A
$GPGSA,A,3,04,09,17,30,15,12,14,26,22,,,,1.5,0.9,1.2*32
$GPRMC,133819.000,A,5003.8285,N,01959.2421,E,,77.25,080808,,,A*4E
$GPGGA,133820.000,5003.8285,N,01959.2420,E,1,09,0.9,200.4,M,42.0,M,,0000*56
$GPGSA,A,3,04,09,17,30,15,12,14,26,22,,,,1.5,0.9,1.2*32
$GPRMC,133820.000,A,5003.8285,N,01959.2420,E,,77.25,080808,,,A*45
$GPGGA,133821.000,5003.8284,N,01959.2419,E,1,09,0.9,200.3,M,42.0,M,,0000*5B
$GPGSA,A,3,04,09,17,30,15,12,14,26,22,,,,1.5,0.9,1.2*32
$GPRMC,133821.000,A,5003.8284,N,01959.2419,E,,77.25,080808,,,A*4F
$GPGGA,133822.000,5003.8284,N,01959.2418,E,1,09,0.9,200.4,M,42.0,M,,0000*5E
$GPGSA,A,3,04,09,17,30,15,12,14,26,22,,,,1.5,0.9,1.2*32
$GPGSV,3,1,11,09,86,217,37,12,57,262,37,17,36,054,38,14,20,320,32*71
$GPGSV,3,2,11,04,15,108,33,15,15,184,34,30,14,258,31,22,05,285,33*7A
$GPGSV,3,3,11,02,05,140,,26,05,174,13,28,01,072,23*45
$GPRMC,133822.000,A,5003.8284,N,01959.2418,E,,77.25,080808,,,A*4D
$GPGGA,133823.000,5003.8284,N,01959.2417,E,1,09,0.9,200.4,M,42.0,M,,0000*50
$GPGSA,A,3,04,09,17,30,15,12,14,26,22,,,,1.5,0.9,1.2*32
$GPRMC,133823.000,A,5003.8284,N,01959.2417,E,,77.25,080808,,,A*43
$GPGGA,133824.000,5003.8284,N,01959.2416,E,1,08,0.9,200.4,M,42.0,M,,0000*57
$GPGSA,A,3,04,09,17,30,15,12,14,22,,,,,1.5,0.9,1.2*36
$GPRMC,133824.000,A,5003.8284,N,01959.2416,E,,77.25,080808,,,A*45
$GPGGA,133825.000,5003.8284,N,01959.2415,E,1,08,0.9,200.4,M,42.0,M,,0000*55
$GPGSA,A,3,04,09,17,30,15,12,14,22,,,,,1.5,0.9,1.2*36
$GPRMC,133825.000,A,5003.8284,N,01959.2415,E,,77.25,080808,,,A*47
$GPGGA,133826.000,5003.8284,N,01959.2414,E,1,08,0.9,200.4,M,42.0,M,,0000*57
$GPGSA,A,3,04,09,17,30,15,12,14,22,,,,,1.5,0.9,1.2*36
$GPRMC,133826.000,A,5003.8284,N,01959.2414,E,,77.25,080808,,,A*45
$GPGGA,133827.000,5003.8284,N,01959.2414,E,1,08,0.9,200.3,M,42.0,M,,0000*51
$GPGSA,A,3,04,09,17,30,15,12,14,22,,,,,1.5,0.9,1.2*36
$GPGSV,3,1,11,09,86,217,37,12,57,262,37,17,36,054,38,14,20,320,31*72
$GPGSV,3,2,11,04,15,108,34,15,15,184,34,30,14,258,31,22,05,285,33*7D
$GPGSV,3,3,11,02,05,140,10,26,05,174,12,28,01,072,22*44
$GPRMC,133827.000,A,5003.8284,N,01959.2414,E,,77.25,080808,,,A*44
$GPGGA,133828.000,5003.8283,N,01959.2413,E,1,08,0.9,200.3,M,42.0,M,,0000*5E
$GPGSA,A,3,04,09,17,30,15,12,14,22,,,,,1.5,0.9,1.2*36
$GPRMC,133828.000,A,5003.8283,N,01959.2413,E,,77.25,080808,,,A*4B
$GPGGA,133829.000,5003.8283,N,01959.2412,E,1,08,0.9,200.3,M,42.0,M,,0000*5E
$GPGSA,A,3,04,09,17,30,15,12,14,22,,,,,1.5,0.9,1.2*36
$GPRMC,133829.000,A,5003.8283,N,01959.2412,E,,77.25,080808,,,A*4B
$GPGGA,133830.000,5003.8283,N,01959.2412,E,1,08,0.9,200.3,M,42.0,M,,0000*56
$GPGSA,A,3,04,09,17,30,15,12,14,22,,,,,1.5,0.9,1.2*36
$GPRMC,133830.000,A,5003.8283,N,01959.2412,E,,77.25,080808,,,A*43
$GPGGA,133831.000,5003.8283,N,01959.2412,E,1,08,0.9,200.2,M,42.0,M,,0000*56
$GPGSA,A,3,04,09,17,30,15,12,14,22,,,,,1.5,0.9,1.2*36
$GPRMC,133831.000,A,5003.8283,N,01959.2412,E,,77.25,080808,,,A*42
$GPGGA,133832.000,5003.8284,N,01959.2421,E,1,08,0.9,200.2,M,42.0,M,,0000*52
$GPGSA,A,3,04,09,17,30,15,12,14,22,,,,,1.5,0.9,1.2*36
$GPGSV,3,1,11,09,86,216,37,12,58,262,37,17,36,054,38,14,20,320,31*7C
$GPGSV,3,2,11,04,15,108,34,15,15,184,34,30,15,258,31,22,05,285,33*7C
$GPGSV,3,3,11,02,05,140,07,26,05,174,,28,01,072,22*41
$GPRMC,133832.000,A,5003.8284,N,01959.2421,E,3.71,78.84,080808,,,A*59
$GPGGA,133833.000,5003.8288,N,01959.2447,E,1,08,0.9,200.2,M,42.0,M,,0000*5F
$GPGSA,A,3,04,09,17,30,15,12,14,22,,,,,1.5,0.9,1.2*36
$GPRMC,133833.000,A,5003.8288,N,01959.2447,E,8.10,78.87,080808,,,A*5B
$GPGGA,133834.000,5003.8294,N,01959.2491,E,1,08,0.9,200.1,M,42.0,M,,0000*5D
$GPGSA,A,3,04,09,17,30,15,12,14,22,,,,,1.5,0.9,1.2*36
$GPRMC,133834.000,A,5003.8294,N,01959.2491,E,11.68,78.66,080808,,,A*62
$GPGGA,133835.000,5003.8302,N,01959.2547,E,1,08,0.9,200.1,M,42.0,M,,0000*58
$GPGSA,A,3,04,09,17,30,15,12,14,22,,,,,1.5,0.9,1.2*36
$GPRMC,133835.000,A,5003.8302,N,01959.2547,E,13.84,77.33,080808,,,A*68
$GPGGA,133836.000,5003.8313,N,01959.2614,E,1,08,0.9,200.0,M,42.0,M,,0000*5F
$GPGSA,A,3,04,09,17,30,15,12,14,22,,,,,1.5,0.9,1.2*36
$GPRMC,133836.000,A,5003.8313,N,01959.2614,E,17.27,76.69,080808,,,A*6D
$GPGGA,133837.000,5003.8326,N,01959.2694,E,1,08,0.9,199.9,M,42.0,M,,0000*5A
$GPGSA,A,3,04,09,17,30,15,12,14,22,,,,,1.5,0.9,1.2*36
$GPGSV,3,1,11,09,86,216,37,12,58,262,37,17,36,054,37,14,20,320,31*73
$GPGSV,3,2,11,04,15,108,34,15,15,184,26,30,15,258,32,22,05,285,28*76
$GPGSV,3,3,11,02,05,140,07,26,05,174,,28,01,072,27*44
$GPRMC,133837.000,A,5003.8326,N,01959.2694,E,19.84,76.13,080808,,,A*68
$GPGGA,133838.000,5003.8341,N,01959.2781,E,1,08,0.9,199.9,M,42.0,M,,0000*51
$GPGSA,A,3,04,09,17,30,15,12,14,22,,,,,1.5,0.9,1.2*36
$GPRMC,133838.000,A,5003.8341,N,01959.2781,E,20.91,75.73,080808,,,A*68
$GPGGA,133839.000,5003.8356,N,01959.2876,E,1,09,0.9,199.9,M,42.0,M,,0000*50
$GPGSA,A,3,04,09,17,30,15,12,14,22,26,,,,1.5,0.9,1.2*32
$GPRMC,133839.000,A,5003.8356,N,01959.2876,E,23.17,76.18,080808,,,A*6B
$GPGGA,133840.000,5003.8372,N,01959.2981,E,1,09,0.9,199.7,M,42.0,M,,0000*5F
$GPGSA,A,3,04,09,17,30,15,12,14,22,26,,,,1.5,0.9,1.2*32
$GPRMC,133840.000,A,5003.8372,N,01959.2981,E,25.99,77.25,080808,,,A*65
$GPGGA,133841.000,5003.8389,N,01959.3099,E,1,09,0.9,199.6,M,42.0,M,,0000*5A
$GPGSA,A,3,04,09,17,30,15,12,14,22,26,,,,1.5,0.9,1.2*32
$GPRMC,133841.000,A,5003.8389,N,01959.3099,E,28.60,77.59,080808,,,A*61
$GPGGA,133842.000,5003.8406,N,01959.3223,E,1,09,0.9,199.4,M,42.0,M,,0000*58
$GPGSA,A,3,04,09,17,30,15,12,14,22,26,,,,1.5,0.9,1.2*32
$GPGSV,3,1,11,09,86,216,37,12,58,262,37,17,36,054,37,14,20,320,31*73
$GPGSV,3,2,11,04,15,108,33,15,15,184,35,30,15,258,32,22,05,285,28*73
$GPGSV,3,3,11,02,05,140,20,26,05,174,23,28,01,072,25*42
$GPRMC,133842.000,A,5003.8406,N,01959.3223,E,29.12,77.51,080808,,,A*6D
$GPGGA,133843.000,5003.8424,N,01959.3351,E,1,09,0.9,199.2,M,42.0,M,,0000*5B
$GPGSA,A,3,04,09,17,30,15,12,14,22,26,,,,1.5,0.9,1.2*32
$GPRMC,133843.000,A,5003.8424,N,01959.3351,E,30.48,77.61,080808,,,A*6C
$GPGGA,133844.000,5003.8444,N,01959.3486,E,1,09,0.9,199.0,M,42.0,M,,0000*55
$GPGSA,A,3,04,09,17,30,15,12,14,22,26,,,,1.5,0.9,1.2*32
$GPRMC,133844.000,A,5003.8444,N,01959.3486,E,32.36,77.04,080808,,,A*68
$GPGGA,133845.000,5003.8466,N,01959.3628,E,1,09,0.9,198.8,M,42.0,M,,0000*5B
$GPGSA,A,3,04,09,17,30,15,12,14,22,26,,,,1.5,0.9,1.2*32
