$GPGGA,125748.244,5005.4843,N,01956.5834,E,1,03,1.9,-42.0,M,42.0,M,,0000*4F
$GPGSA,A,2,09,17,26,,,,,,,,,,2.2,1.9,1.0*31
$GPRMC,125748.244,A,5005.4843,N,01956.5834,E,,200.59,080808,,,A*73
$GPGGA,125749.244,5005.4843,N,01956.5834,E,1,03,1.9,-42.0,M,42.0,M,,0000*4E
$GPGSA,A,2,09,17,26,,,,,,,,,,2.2,1.9,1.0*31
$GPRMC,125749.244,A,5005.4843,N,01956.5834,E,,200.59,080808,,,A*72
$GPGGA,125750.244,5005.4844,N,01956.5834,E,1,03,1.9,-42.0,M,42.0,M,,0000*41
$GPGSA,A,2,09,17,26,,,,,,,,,,2.2,1.9,1.0*31
$GPRMC,125750.244,A,5005.4844,N,01956.5834,E,,200.59,080808,,,A*7D
$GPGGA,125751.244,5005.4844,N,01956.5834,E,1,03,1.9,-42.0,M,42.0,M,,0000*40
$GPGSA,A,2,09,17,26,,,,,,,,,,2.2,1.9,1.0*31
$GPRMC,125751.244,A,5005.4844,N,01956.5834,E,,200.59,080808,,,A*7C
$GPGGA,125752.244,5005.4845,N,01956.5834,E,1,03,1.9,-42.0,M,42.0,M,,0000*42
$GPGSA,A,2,09,17,26,,,,,,,,,,2.2,1.9,1.0*31
$GPGSV,3,1,12,09,69,299,38,17,47,072,35,26,22,174,38,07,55,144,*7A
$GPGSV,3,2,12,31,21,046,,29,16,174,,30,15,247,,22,13,305,35*72
$GPGSV,3,3,12,24,09,086,,18,06,243,31,02,03,117,,28,01,064,34*7B
$GPRMC,125752.244,A,5005.4845,N,01956.5834,E,,200.59,080808,,,A*7E
$GPGGA,125753.244,5005.4845,N,01956.5834,E,1,03,1.9,-42.0,M,42.0,M,,0000*43
$GPGSA,A,2,09,17,26,,,,,,,,,,2.2,1.9,1.0*31
$GPRMC,125753.244,A,5005.4845,N,01956.5834,E,,200.59,080808,,,A*7F
$GPGGA,125754.244,5005.4845,N,01956.5835,E,1,03,1.9,-42.0,M,42.0,M,,0000*45
$GPGSA,A,2,09,17,26,,,,,,,,,,2.2,1.9,1.0*31
$GPRMC,125754.244,A,5005.4845,N,01956.5835,E,,200.59,080808,,,A*79
$GPGGA,125755.244,5005.4846,N,01956.5834,E,1,03,1.9,-42.0,M,42.0,M,,0000*46
$GPGSA,A,2,09,17,26,,,,,,,,,,2.2,1.9,1.0*31
$GPRMC,125755.244,A,5005.4846,N,01956.5834,E,,200.59,080808,,,A*7A
$GPGGA,125756.244,5005.4846,N,01956.5834,E,1,03,1.9,-42.0,M,42.0,M,,0000*45
$GPGSA,A,2,09,17,26,,,,,,,,,,2.2,1.9,1.0*31
$GPRMC,125756.244,A,5005.4846,N,01956.5834,E,,200.59,080808,,,A*79
$GPGGA,125757.244,5005.4846,N,01956.5834,E,1,03,1.9,-42.0,M,42.0,M,,0000*44
$GPGSA,A,2,09,17,26,,,,,,,,,,2.2,1.9,1.0*31
$GPGSV,3,1,12,09,69,299,38,17,47,072,34,26,22,174,37,07,55,144,*74
$GPGSV,3,2,12,31,21,046,,29,16,174,,30,15,247,,22,13,305,34*73
$GPGSV,3,3,12,24,09,086,,18,06,243,31,02,03,117,,28,01,064,33*7C
$GPRMC,125757.244,A,5005.4846,N,01956.5834,E,,200.59,080808,,,A*78
$GPGGA,125758.244,5005.4846,N,01956.5834,E,1,03,1.9,-42.0,M,42.0,M,,0000*4B
$GPGSA,A,2,09,17,26,,,,,,,,,,2.2,1.9,1.0*31
$GPRMC,125758.244,A,5005.4846,N,01956.5834,E,,200.59,080808,,,A*77
$GPGGA,125759.244,5005.4240,N,01956.6284,E,1,05,2.9,220.6,M,42.0,M,,0000*5C
$GPGSA,A,3,09,17,12,26,15,,,,,,,,7.5,2.9,6.9*38
$GPRMC,125759.244,A,5005.4240,N,01956.6284,E,,200.59,080808,,,A*78
$GPGGA,125800.000,5005.4214,N,01956.6312,E,1,05,2.9,223.7,M,42.0,M,,0000*50
$GPGSA,A,3,09,17,12,26,15,,,,,,,,7.5,2.9,6.9*38
$GPRMC,125800.000,A,5005.4214,N,01956.6312,E,,200.59,080808,,,A*76
$GPGGA,125800.996,5005.4229,N,01956.6296,E,1,05,2.9,220.6,M,42.0,M,,0000*57
$GPGSA,A,3,09,17,12,26,15,,,,,,,,7.5,2.9,6.9*38
$GPRMC,125800.996,A,5005.4229,N,01956.6296,E,,200.59,080808,,,A*73
$GPGGA,125802.000,5005.4232,N,01956.6293,E,1,05,2.9,220.0,M,42.0,M,,0000*5A
$GPGSA,A,3,09,17,12,26,15,,,,,,,,7.5,2.9,6.9*38
$GPGSV,3,1,12,09,69,299,38,17,47,072,34,12,40,248,38,15,33,188,35*71
$GPGSV,3,2,12,26,22,174,37,07,55,143,,31,21,046,,29,16,174,*75
$GPGSV,3,3,12,30,15,247,,22,13,305,35,24,09,086,,18,06,243,31*77
$GPRMC,125802.000,A,5005.4232,N,01956.6293,E,,200.59,080808,,,A*78
$GPGGA,125803.000,5005.4234,N,01956.6292,E,1,05,2.9,219.9,M,42.0,M,,0000*5F
$GPGSA,A,3,09,17,12,26,15,,,,,,,,7.5,2.9,6.9*38
$GPRMC,125803.000,A,5005.4234,N,01956.6292,E,,200.59,080808,,,A*7E
$GPGGA,125804.000,5005.4234,N,01956.6291,E,1,05,2.9,219.8,M,42.0,M,,0000*5A
$GPGSA,A,3,09,17,12,26,15,,,,,,,,7.5,2.9,6.9*38
$GPRMC,125804.000,A,5005.4234,N,01956.6291,E,,200.59,080808,,,A*7A
$GPGGA,125805.000,5005.4247,N,01956.6285,E,1,08,0.9,214.0,M,42.0,M,,0000*50
$GPGSA,A,3,22,09,17,12,26,18,15,28,,,,,1.7,0.9,1.4*37
$GPRMC,125805.000,A,5005.4247,N,01956.6285,E,,200.59,080808,,,A*7A
$GPGGA,125806.000,5005.4249,N,01956.6284,E,1,08,0.9,213.2,M,42.0,M,,0000*59
$GPGSA,A,3,22,09,17,12,26,18,15,28,,,,,1.7,0.9,1.4*37
$GPRMC,125806.000,A,5005.4249,N,01956.6284,E,,200.59,080808,,,A*76
$GPGGA,125807.000,5005.4249,N,01956.6283,E,1,08,0.9,213.0,M,42.0,M,,0000*5D
$GPGSA,A,3,22,09,17,12,26,18,15,28,,,,,1.7,0.9,1.4*37
$GPGSV,3,1,12,09,69,299,38,07,55,143,,17,47,071,34,12,41,248,38*71
$GPGSV,3,2,12,15,33,188,34,26,22,174,37,31,21,046,,29,16,174,*76
$GPGSV,3,3,12,28,16,064,33,30,15,247,,22,12,300,35,18,09,263,30*71
$GPRMC,125807.000,A,5005.4249,N,01956.6283,E,,200.59,080808,,,A*70
$GPGGA,125808.000,5005.4250,N,01956.6283,E,1,08,0.9,212.9,M,42.0,M,,0000*52
$GPGSA,A,3,22,09,17,12,26,18,15,28,,,,,1.7,0.9,1.4*37
$GPRMC,125808.000,A,5005.4250,N,01956.6283,E,,200.59,080808,,,A*77
$GPGGA,125809.000,5005.4250,N,01956.6283,E,1,08,0.9,212.9,M,42.0,M,,0000*53
$GPGSA,A,3,22,09,17,12,26,18,15,28,,,,,1.7,0.9,1.4*37
$GPRMC,125809.000,A,5005.4250,N,01956.6283,E,,200.59,080808,,,A*76
$GPGGA,125810.000,5005.4250,N,01956.6283,E,1,08,0.9,212.9,M,42.0,M,,0000*5B
$GPGSA,A,3,22,09,17,12,26,18,15,28,,,,,1.7,0.9,1.4*37
$GPRMC,125810.000,A,5005.4250,N,01956.6283,E,,200.59,080808,,,A*7E
$GPGGA,125811.000,5005.4250,N,01956.6282,E,1,08,0.9,212.9,M,42.0,M,,0000*5B
$GPGSA,A,3,22,09,17,12,26,18,15,28,,,,,1.7,0.9,1.4*37
$GPRMC,125811.000,A,5005.4250,N,01956.6282,E,,200.59,080808,,,A*7E
$GPGGA,125812.000,5005.4250,N,01956.6282,E,1,08,0.9,212.9,M,42.0,M,,0000*58
$GPGSA,A,3,22,09,17,12,26,18,15,28,,,,,1.7,0.9,1.4*37
$GPGSV,3,1,12,09,69,299,38,07,55,143,,17,47,071,34,12,41,248,37*7E
$GPGSV,3,2,12,15,33,188,34,26,22,174,37,31,21,046,,28,16,064,33*77
$GPGSV,3,3,12,30,15,247,,22,12,300,36,18,09,263,29,24,09,085,*77
$GPRMC,125812.000,A,5005.4250,N,01956.6282,E,,200.59,080808,,,A*7D
$GPGGA,125813.000,5005.4250,N,01956.6282,E,1,08,0.9,212.9,M,42.0,M,,0000*59
$GPGSA,A,3,22,09,17,12,26,18,15,28,,,,,1.7,0.9,1.4*37
$GPRMC,125813.000,A,5005.4250,N,01956.6282,E,,200.59,080808,,,A*7C
$GPGGA,125814.000,5005.4251,N,01956.6282,E,1,08,0.9,212.9,M,42.0,M,,0000*5F
$GPGSA,A,3,22,09,17,12,26,18,15,28,,,,,1.7,0.9,1.4*37
$GPRMC,125814.000,A,5005.4251,N,01956.6282,E,,200.59,080808,,,A*7A
$GPGGA,125815.000,5005.4251,N,01956.6282,E,1,08,0.9,212.9,M,42.0,M,,0000*5E
$GPGSA,A,3,22,09,17,12,26,18,15,28,,,,,1.7,0.9,1.4*37
$GPRMC,125815.000,A,5005.4251,N,01956.6282,E,,200.59,080808,,,A*7B
$GPGGA,125816.000,5005.4251,N,01956.6282,E,1,08,0.9,212.9,M,42.0,M,,0000*5D
$GPGSA,A,3,22,09,17,12,26,18,15,28,,,,,1.7,0.9,1.4*37
$GPRMC,125816.000,A,5005.4251,N,01956.6282,E,,200.59,080808,,,A*78
$GPGGA,125817.000,5005.4250,N,01956.6282,E,1,08,0.9,212.9,M,42.0,M,,0000*5D
$GPGSA,A,3,22,09,17,12,26,18,15,28,,,,,1.7,0.9,1.4*37
$GPGSV,3,1,12,09,69,299,38,07,55,143,,17,47,071,34,12,41,248,37*7E
$GPGSV,3,2,12,15,33,188,34,26,22,174,37,31,21,046,,28,16,064,34*70
$GPGSV,3,3,12,30,15,247,,22,12,300,36,18,09,263,28,24,09,085,*76
$GPRMC,125817.000,A,5005.4250,N,01956.6282,E,,200.59,080808,,,A*78
$GPGGA,125818.000,5005.4243,N,01956.6277,E,1,08,0.9,212.9,M,42.0,M,,0000*5A
$GPGSA,A,3,22,09,17,12,26,18,15,28,,,,,1.7,0.9,1.4*37
$GPRMC,125818.000,A,5005.4243,N,01956.6277,E,3.82,205.10,080808,,,A*60
$GPGGA,125819.000,5005.4228,N,01956.6265,E,1,08,0.9,212.9,M,42.0,M,,0000*55
$GPGSA,A,3,22,09,17,12,26,18,15,28,,,,,1.7,0.9,1.4*37
$GPRMC,125819.000,A,5005.4228,N,01956.6265,E,7.64,206.97,080808,,,A*6F
$GPGGA,125820.000,5005.4205,N,01956.6246,E,1,08,0.9,213.0,M,42.0,M,,0000*59
$GPGSA,A,3,22,09,17,12,26,18,15,28,,,,,1.7,0.9,1.4*37
$GPRMC,125820.000,A,5005.4205,N,01956.6246,E,10.50,208.62,080808,,,A*5E
$GPGGA,125821.000,5005.4177,N,01956.6221,E,1,08,0.9,213.0,M,42.0,M,,0000*5F
$GPGSA,A,3,22,09,17,12,26,18,15,28,,,,,1.7,0.9,1.4*37
$GPRMC,125821.000,A,5005.4177,N,01956.6221,E,11.89,209.52,080808,,,A*5F
$GPGGA,125822.000,5005.4145,N,01956.6192,E,1,08,0.9,213.0,M,42.0,M,,0000*56
$GPGSA,A,3,22,09,17,12,26,18,15,28,,,,,1.7,0.9,1.4*37
$GPGSV,3,1,12,09,69,299,38,17,47,071,34,12,41,248,37,15,33,188,35*7C
$GPGSV,3,2,12,26,22,174,37,31,21,046,,28,16,064,33,30,15,247,*73
$GPGSV,3,3,12,22,12,300,30,18,09,263,29,24,09,085,,02,03,117,*71
$GPRMC,125822.000,A,5005.4145,N,01956.6192,E,13.70,210.28,080808,,,A*57
$GPGGA,125823.000,5005.4111,N,01956.6161,E,1,08,0.9,213.0,M,42.0,M,,0000*5A
$GPGSA,A,3,22,09,17,12,26,18,15,28,,,,,1.7,0.9,1.4*37
$GPRMC,125823.000,A,5005.4111,N,01956.6161,E,13.86,209.79,080808,,,A*5E
$GPGGA,125824.000,5005.4076,N,01956.6133,E,1,08,0.9,213.0,M,42.0,M,,0000*5A
$GPGSA,A,3,22,09,17,12,26,18,15,28,,,,,1.7,0.9,1.4*37
$GPRMC,125824.000,A,5005.4076,N,01956.6133,E,13.46,206.63,080808,,,A*56
$GPGGA,125825.000,5005.4043,N,01956.6110,E,1,08,0.9,212.9,M,42.0,M,,0000*54
$GPGSA,A,3,22,09,17,12,26,18,15,28,,,,,1.7,0.9,1.4*37
$GPRMC,125825.000,A,5005.4043,N,01956.6110,E,12.81,200.09,080808,,,A*50
$GPGGA,125826.000,5005.4006,N,01956.6097,E,1,08,0.9,212.8,M,42.0,M,,0000*59
$GPGSA,A,3,22,09,17,12,26,18,15,28,,,,,1.7,0.9,1.4*37
$GPRMC,125826.000,A,5005.4006,N,01956.6097,E,13.56,187.20,080808,,,A*50
$GPGGA,125827.000,5005.3967,N,01956.6100,E,1,08,0.9,212.6,M,42.0,M,,0000*50
$GPGSA,A,3,22,09,17,12,26,18,15,28,,,,,1.7,0.9,1.4*37
$GPGSV,3,1,12,09,69,299,38,17,47,071,34,12,41,248,38,15,33,188,35*73
$GPGSV,3,2,12,26,22,174,36,31,21,046,,28,16,064,15,30,15,247,*76
$GPGSV,3,3,12,22,12,300,31,18,09,263,22,24,09,085,,02,03,117,*7B
$GPRMC,125827.000,A,5005.3967,N,01956.6100,E,14.67,170.04,080808,,,A*5C
$GPGGA,125828.000,5005.3926,N,01956.6123,E,1,08,0.9,212.7,M,42.0,M,,0000*5A
$GPGSA,A,3,22,09,17,12,26,18,15,28,,,,,1.7,0.9,1.4*37
$GPRMC,125828.000,A,5005.3926,N,01956.6123,E,16.17,155.59,080808,,,A*5D
$GPGGA,125829.000,5005.3886,N,01956.6166,E,1,08,0.9,212.4,M,42.0,M,,0000*52
$GPGSA,A,3,22,09,17,12,26,18,15,28,,,,,1.7,0.9,1.4*37
$GPRMC,125829.000,A,5005.3886,N,01956.6166,E,18.18,143.65,080808,,,A*5F
$GPGGA,125830.000,5005.3846,N,01956.6228,E,1,08,0.9,211.9,M,42.0,M,,0000*51
$GPGSA,A,3,22,09,17,12,26,18,15,28,,,,,1.7,0.9,1.4*37
$GPRMC,125830.000,A,5005.3846,N,01956.6228,E,20.68,135.30,080808,,,A*5F
$GPGGA,125831.000,5005.3805,N,01956.6305,E,1,07,1.2,211.4,M,42.0,M,,0000*51
$GPGSA,A,3,22,09,17,12,26,18,15,,,,,,2.1,1.2,1.8*3E
$GPRMC,125831.000,A,5005.3805,N,01956.6305,E,23.61,130.03,080808,,,A*58
$GPGGA,125832.000,5005.3763,N,01956.6389,E,1,08,0.9,211.2,M,42.0,M,,0000*5A
$GPGSA,A,3,22,09,17,12,26,18,15,28,,,,,1.7,0.9,1.4*37
$GPGSV,3,1,12,09,69,299,38,17,47,071,35,12,41,248,38,15,33,188,36*71
$GPGSV,3,2,12,26,22,174,36,31,21,046,,28,16,064,12,30,15,247,*71
$GPGSV,3,3,12,22,12,300,26,18,09,263,19,24,09,085,,02,03,117,*75
$GPRMC,125832.000,A,5005.3763,N,01956.6389,E,24.24,128.29,080808,,,A*57
$GPGGA,125833.000,5005.3721,N,01956.6475,E,1,08,0.9,210.8,M,42.0,M,,0000*52
$GPGSA,A,3,22,09,17,12,26,18,15,28,,,,,1.7,0.9,1.4*37
$GPRMC,125833.000,A,5005.3721,N,01956.6475,E,24.54,128.39,080808,,,A*52
$GPGGA,125834.000,5005.3678,N,01956.6562,E,1,08,0.9,210.4,M,42.0,M,,0000*53
$GPGSA,A,3,22,09,17,12,26,18,15,28,,,,,1.7,0.9,1.4*37
$GPRMC,125834.000,A,5005.3678,N,01956.6562,E,25.54,128.21,080808,,,A*57
$GPGGA,125835.000,5005.3632,N,01956.6652,E,1,08,0.9,210.5,M,42.0,M,,0000*5D
$GPGSA,A,3,22,09,17,12,26,18,15,28,,,,,1.7,0.9,1.4*37
$GPRMC,125835.000,A,5005.3632,N,01956.6652,E,26.20,129.59,080808,,,A*56
$GPGGA,125836.000,5005.3585,N,01956.6744,E,1,08,0.9,210.1,M,42.0,M,,0000*53
$GPGSA,A,3,22,09,17,12,26,18,15,28,,,,,1.7,0.9,1.4*37
$GPRMC,125836.000,A,5005.3585,N,01956.6744,E,27.22,129.06,080808,,,A*55
$GPGGA,125837.000,5005.3536,N,01956.6840,E,1,08,0.9,210.0,M,42.0,M,,0000*50
$GPGSA,A,3,22,09,17,12,26,18,15,28,,,,,1.7,0.9,1.4*37
$GPGSV,3,1,12,09,69,299,38,17,47,071,34,12,41,248,38,15,33,188,35*73
$GPGSV,3,2,12,26,22,174,28,31,21,046,,28,16,064,23,30,15,247,*7C
$GPGSV,3,3,12,22,12,300,33,18,09,263,19,24,09,085,,02,03,117,*71
$GPRMC,125837.000,A,5005.3536,N,01956.6840,E,28.05,128.42,080808,,,A*5C
$GPGGA,125838.000,5005.3487,N,01956.6937,E,1,08,0.9,209.9,M,42.0,M,,0000*54
$GPGSA,A,3,22,09,17,12,26,18,15,28,,,,,1.7,0.9,1.4*37
$GPRMC,125838.000,A,5005.3487,N,01956.6937,E,28.46,128.97,080808,,,A*56
$GPGGA,125839.000,5005.3436,N,01956.7036,E,1,08,0.9,209.8,M,42.0,M,,0000*57
$GPGSA,A,3,22,09,17,12,26,18,15,28,,,,,1.7,0.9,1.4*37
$GPRMC,125839.000,A,5005.3436,N,01956.7036,E,29.05,129.25,080808,,,A*5A
$GPGGA,125840.000,5005.3386,N,01956.7134,E,1,08,0.9,209.6,M,42.0,M,,0000*58
$GPGSA,A,3,22,09,17,12,26,18,15,28,,,,,1.7,0.9,1.4*37
$GPRMC,125840.000,A,5005.3386,N,01956.7134,E,28.48,128.47,080808,,,A*56
$GPGGA,125841.000,5005.3336,N,01956.7233,E,1,08,0.9,209.4,M,42.0,M,,0000*54
$GPGSA,A,3,22,09,17,12,26,18,15,28,,,,,1.7,0.9,1.4*37
$GPRMC,125841.000,A,5005.3336,N,01956.7233,E,28.68,128.00,080808,,,A*59
$GPGGA,125842.000,5005.3286,N,01956.7333,E,1,08,0.9,208.9,M,42.0,M,,0000*50
$GPGSA,A,3,22,09,17,12,26,18,15,28,,,,,1.7,0.9,1.4*37
$GPGSV,3,1,12,09,69,299,37,17,47,071,34,12,41,248,36,15,33,188,34*73
$GPGSV,3,2,12,26,21,174,29,31,20,046,,28,16,065,32,22,12,300,24*7E
$GPGSV,3,3,12,18,09,263,18,24,09,085,,02,04,117,,05,01,250,32*75
$GPRMC,125842.000,A,5005.3286,N,01956.7333,E,29.20,128.51,080808,,,A*58
$GPGGA,125843.000,5005.3236,N,01956.7433,E,1,08,0.9,208.6,M,42.0,M,,0000*52
$GPGSA,A,3,22,09,17,12,26,18,15,28,,,,,1.7,0.9,1.4*37
$GPRMC,125843.000,A,5005.3236,N,01956.7433,E,29.17,128.50,080808,,,A*50
$GPGGA,125844.000,5005.3186,N,01956.7532,E,1,08,0.9,208.4,M,42.0,M,,0000*5F
$GPGSA,A,3,22,09,17,12,26,18,15,28,,,,,1.7,0.9,1.4*37
$GPRMC,125844.000,A,5005.3186,N,01956.7532,E,28.11,128.33,080808,,,A*5D
$GPGGA,125845.000,5005.3138,N,01956.7627,E,1,08,0.9,208.4,M,42.0,M,,0000*5C
$GPGSA,A,3,22,09,17,12,26,18,15,28,,,,,1.7,0.9,1.4*37
$GPRMC,125845.000,A,5005.3138,N,01956.7627,E,27.44,128.22,080808,,,A*51
$GPGGA,125846.000,5005.3090,N,01956.7720,E,1,08,0.9,208.2,M,42.0,M,,0000*5C
$GPGSA,A,3,22,09,17,12,26,18,15,28,,,,,1.7,0.9,1.4*37
$GPRMC,125846.000,A,5005.3090,N,01956.7720,E,27.08,129.38,080808,,,A*55
$GPGGA,125847.000,5005.3042,N,01956.7811,E,1,08,0.9,208.1,M,42.0,M,,0000*5C
$GPGSA,A,3,22,09,17,12,26,18,15,28,,,,,1.7,0.9,1.4*37
$GPGSV,3,1,12,09,69,299,35,17,47,071,34,12,41,248,29,15,33,188,30*7B
$GPGSV,3,2,12,26,21,174,26,31,20,046,,28,16,065,32,22,12,300,28*7D
$GPGSV,3,3,12,18,09,263,18,24,09,085,,02,04,117,,05,01,250,30*77
$GPRMC,125847.000,A,5005.3042,N,01956.7811,E,26.92,128.90,080808,,,A*57
$GPGGA,125848.000,5005.2995,N,01956.7903,E,1,08,0.9,207.9,M,42.0,M,,0000*54
$GPGSA,A,3,22,09,17,12,26,18,15,28,,,,,1.7,0.9,1.4*37
$GPRMC,125848.000,A,5005.2995,N,01956.7903,E,27.08,128.50,080808,,,A*56
$GPGGA,125849.000,5005.2948,N,01956.7993,E,1,08,0.9,207.6,M,42.0,M,,0000*53
$GPGSA,A,3,22,09,17,12,26,18,15,28,,,,,1.7,0.9,1.4*37
$GPRMC,125849.000,A,5005.2948,N,01956.7993,E,26.51,128.27,080808,,,A*53
$GPGGA,125850.000,5005.2903,N,01956.8083,E,1,08,0.9,207.6,M,42.0,M,,0000*53
$GPGSA,A,3,22,09,17,12,26,18,15,28,,,,,1.7,0.9,1.4*37
$GPRMC,125850.000,A,5005.2903,N,01956.8083,E,25.66,127.95,080808,,,A*52
$GPGGA,125851.000,5005.2859,N,01956.8170,E,1,08,0.9,207.5,M,42.0,M,,0000*52
$GPGSA,A,3,22,09,17,12,26,18,15,28,,,,,1.7,0.9,1.4*37
$GPRMC,125851.000,A,5005.2859,N,01956.8170,E,25.20,127.20,080808,,,A*5C
$GPGGA,125852.000,5005.2818,N,01956.8256,E,1,08,0.9,207.4,M,42.0,M,,0000*52
$GPGSA,A,3,22,09,17,12,26,18,15,28,,,,,1.7,0.9,1.4*37
$GPGSV,3,1,12,09,69,299,37,17,47,071,34,12,41,248,32,15,33,188,37*74
$GPGSV,3,2,12,26,21,174,30,31,20,046,,28,16,065,33,22,12,300,22*71
$GPGSV,3,3,12,18,09,263,18,24,09,085,,02,04,117,,05,01,250,29*7F
$GPRMC,125852.000,A,5005.2818,N,01956.8256,E,24.29,125.95,080808,,,A*59
$GPGGA,125853.000,5005.2780,N,01956.8340,E,1,08,0.9,207.2,M,42.0,M,,0000*5D
$GPGSA,A,3,22,09,17,12,26,18,15,28,,,,,1.7,0.9,1.4*37
$GPRMC,125853.000,A,5005.2780,N,01956.8340,E,23.74,124.98,080808,,,A*53
$GPGGA,125854.000,5005.2742,N,01956.8424,E,1,08,0.9,207.3,M,42.0,M,,0000*50
$GPGSA,A,3,22,09,17,12,26,18,15,28,,,,,1.7,0.9,1.4*37
$GPRMC,125854.000,A,5005.2742,N,01956.8424,E,23.45,124.48,080808,,,A*50
$GPGGA,125855.000,5005.2707,N,01956.8506,E,1,08,0.9,207.4,M,42.0,M,,0000*56
$GPGSA,A,3,22,09,17,12,26,18,15,28,,,,,1.7,0.9,1.4*37
$GPRMC,125855.000,A,5005.2707,N,01956.8506,E,22.43,123.22,080808,,,A*5D
$GPGGA,125856.000,5005.2673,N,01956.8588,E,1,08,0.9,207.5,M,42.0,M,,0000*50
$GPGSA,A,3,22,09,17,12,26,18,15,28,,,,,1.7,0.9,1.4*37
$GPRMC,125856.000,A,5005.2673,N,01956.8588,E,22.72,122.04,080808,,,A*5D
$GPGGA,125857.000,5005.2640,N,01956.8676,E,1,08,0.9,207.7,M,42.0,M,,0000*51
$GPGSA,A,3,22,09,17,12,26,18,15,28,,,,,1.7,0.9,1.4*37
$GPGSV,3,1,12,09,69,299,37,17,47,071,35,12,41,248,38,15,33,188,36*7E
$GPGSV,3,2,12,26,21,174,30,31,20,046,,28,16,065,32,22,12,300,26*74
$GPGSV,3,3,12,18,09,263,18,24,09,085,,02,04,117,,05,01,250,29*7F
$GPRMC,125857.000,A,5005.2640,N,01956.8676,E,24.05,119.60,080808,,,A*52
$GPGGA,125858.000,5005.2609,N,01956.8766,E,1,08,0.9,207.5,M,42.0,M,,0000*51
$GPGSA,A,3,22,09,17,12,26,18,15,28,,,,,1.7,0.9,1.4*37
$GPRMC,125858.000,A,5005.2609,N,01956.8766,E,23.27,117.59,080808,,,A*53
$GPGGA,125859.000,5005.2579,N,01956.8857,E,1,08,0.9,207.9,M,42.0,M,,0000*55
$GPGSA,A,3,22,09,17,12,26,18,15,28,,,,,1.7,0.9,1.4*37
$GPRMC,125859.000,A,5005.2579,N,01956.8857,E,24.20,117.51,080808,,,A*53
$GPGGA,125900.000,5005.2549,N,01956.8951,E,1,08,0.9,207.7,M,42.0,M,,0000*52
$GPGSA,A,3,22,09,17,12,26,18,15,28,,,,,1.7,0.9,1.4*37
$GPRMC,125900.000,A,5005.2549,N,01956.8951,E,24.75,116.01,080808,,,A*5E
$GPGGA,125901.000,5005.2519,N,01956.9049,E,1,08,0.9,207.5,M,42.0,M,,0000*55
$GPGSA,A,3,22,09,17,12,26,18,15,28,,,,,1.7,0.9,1.4*37
$GPRMC,125901.000,A,5005.2519,N,01956.9049,E,25.62,115.49,080808,,,A*53
$GPGGA,125902.000,5005.2489,N,01956.9151,E,1,08,0.9,207.3,M,42.0,M,,0000*50
$GPGSA,A,3,22,09,17,12,26,18,15,28,,,,,1.7,0.9,1.4*37
$GPGSV,3,1,12,09,69,299,37,17,47,071,35,12,41,248,35,15,33,188,36*73
$GPGSV,3,2,12,26,21,174,31,31,20,046,,28,16,065,35,22,12,300,32*77
$GPGSV,3,3,12,18,09,263,18,24,09,085,,02,04,117,,05,01,250,29*7F
$GPRMC,125902.000,A,5005.2489,N,01956.9151,E,26.38,114.83,080808,,,A*5B
$GPGGA,125903.000,5005.2459,N,01956.9257,E,1,08,0.9,207.1,M,42.0,M,,0000*5B
$GPGSA,A,3,22,09,17,12,26,18,15,28,,,,,1.7,0.9,1.4*37
$GPRMC,125903.000,A,5005.2459,N,01956.9257,E,27.46,114.21,080808,,,A*52
$GPGGA,125904.000,5005.2427,N,01956.9368,E,1,08,0.9,206.8,M,42.0,M,,0000*50
$GPGSA,A,3,22,09,17,12,26,18,15,28,,,,,1.7,0.9,1.4*37
$GPRMC,125904.000,A,5005.2427,N,01956.9368,E,28.50,113.80,080808,,,A*55
$GPGGA,125905.000,5005.2395,N,01956.9484,E,1,08,0.9,206.7,M,42.0,M,,0000*55
$GPGSA,A,3,22,09,17,12,26,18,15,28,,,,,1.7,0.9,1.4*37
$GPRMC,125905.000,A,5005.2395,N,01956.9484,E,29.52,113.47,080808,,,A*57
$GPGGA,125906.000,5005.2363,N,01956.9601,E,1,08,0.9,206.7,M,42.0,M,,0000*50
$GPGSA,A,3,22,09,17,12,26,18,15,28,,,,,1.7,0.9,1.4*37
$GPRMC,125906.000,A,5005.2363,N,01956.9601,E,29.24,113.47,080808,,,A*53
$GPGGA,125907.000,5005.2331,N,01956.9716,E,1,08,0.9,206.6,M,42.0,M,,0000*50
$GPGSA,A,3,22,09,17,12,26,18,15,28,,,,,1.7,0.9,1.4*37
$GPGSV,3,1,12,09,69,299,37,17,47,071,35,12,41,248,37,15,33,188,37*70
$GPGSV,3,2,12,26,21,174,32,31,20,046,,28,16,065,35,22,12,300,30*76
$GPGSV,3,3,12,18,09,263,18,24,09,085,,02,04,117,,05,01,250,30*77
$GPRMC,125907.000,A,5005.2331,N,01956.9716,E,28.52,113.70,080808,,,A*56
$GPGGA,125908.000,5005.2301,N,01956.9826,E,1,08,0.9,206.6,M,42.0,M,,0000*50
$GPGSA,A,3,22,09,17,12,26,18,15,28,,,,,1.7,0.9,1.4*37
$GPRMC,125908.000,A,5005.2301,N,01956.9826,E,26.97,113.45,080808,,,A*57
$GPGGA,125909.000,5005.2272,N,01956.9930,E,1,08,0.9,206.7,M,42.0,M,,0000*53
$GPGSA,A,3,22,09,17,12,26,18,15,28,,,,,1.7,0.9,1.4*37
$GPRMC,125909.000,A,5005.2272,N,01956.9930,E,25.70,113.16,080808,,,A*59
$GPGGA,125910.000,5005.2244,N,01957.0031,E,1,08,0.9,206.4,M,42.0,M,,0000*5D
$GPGSA,A,3,22,09,17,12,26,18,15,28,,,,,1.7,0.9,1.4*37
$GPRMC,125910.000,A,5005.2244,N,01957.0031,E,25.25,113.46,080808,,,A*51
$GPGGA,125911.000,5005.2216,N,01957.0133,E,1,08,0.9,206.4,M,42.0,M,,0000*58
$GPGSA,A,3,22,09,17,12,26,18,15,28,,,,,1.7,0.9,1.4*37
$GPRMC,125911.000,A,5005.2216,N,01957.0133,E,25.98,113.40,080808,,,A*54
$GPGGA,125912.000,5005.2187,N,01957.0239,E,1,08,0.9,206.3,M,42.0,M,,0000*5E
$GPGSA,A,3,22,09,17,12,26,18,15,28,,,,,1.7,0.9,1.4*37
$GPGSV,3,1,12,09,70,299,37,17,47,071,35,12,41,248,37,15,32,188,31*7F
$GPGSV,3,2,12,26,21,174,29,28,16,065,35,22,12,300,30,18,09,263,18*70
$GPGSV,3,3,12,24,09,085,,02,04,116,,05,02,250,24,11,01,020,*7D
$GPRMC,125912.000,A,5005.2187,N,01957.0239,E,27.05,113.11,080808,,,A*57
$GPGGA,125913.000,5005.2156,N,01957.0350,E,1,08,0.9,206.2,M,42.0,M,,0000*5C
$GPGSA,A,3,22,09,17,12,26,18,15,28,,,,,1.7,0.9,1.4*37
$GPRMC,125913.000,A,5005.2156,N,01957.0350,E,28.52,113.85,080808,,,A*54
$GPGGA,125914.000,5005.2123,N,01957.0465,E,1,08,0.9,206.1,M,42.0,M,,0000*5B
$GPGSA,A,3,22,09,17,12,26,18,15,28,,,,,1.7,0.9,1.4*37
$GPRMC,125914.000,A,5005.2123,N,01957.0465,E,29.27,114.04,080808,,,A*5D
$GPGGA,125915.000,5005.2091,N,01957.0580,E,1,07,1.2,205.9,M,42.0,M,,0000*56
$GPGSA,A,3,22,09,17,12,26,18,15,,,,,,2.1,1.2,1.7*31
$GPRMC,125915.000,A,5005.2091,N,01957.0580,E,28.76,113.27,080808,,,A*5D
$GPGGA,125916.000,5005.2060,N,01957.0692,E,1,07,1.0,206.1,M,42.0,M,,0000*52
$GPGSA,A,3,22,17,12,26,18,15,28,,,,,,2.3,1.0,2.0*36
$GPRMC,125916.000,A,5005.2060,N,01957.0692,E,27.67,113.13,080808,,,A*58
$GPGGA,125917.000,5005.2030,N,01957.0800,E,1,08,0.9,206.1,M,42.0,M,,0000*54
$GPGSA,A,3,22,09,17,12,26,18,15,28,,,,,1.7,0.9,1.4*37
$GPGSV,3,1,12,09,70,299,32,17,47,071,35,12,41,248,31,15,32,188,35*78
$GPGSV,3,2,12,26,21,174,23,28,16,065,30,22,12,300,29,18,09,263,15*7A
$GPGSV,3,3,12,24,09,085,,02,04,116,,05,02,250,17,11,01,020,*7D
$GPRMC,125917.000,A,5005.2030,N,01957.0800,E,26.92,113.94,080808,,,A*5D
$GPGGA,125918.000,5005.1999,N,01957.0909,E,1,08,0.9,206.5,M,42.0,M,,0000*5E
$GPGSA,A,3,22,09,17,12,26,18,15,28,,,,,1.7,0.9,1.4*37
$GPRMC,125918.000,A,5005.1999,N,01957.0909,E,27.75,113.94,080808,,,A*5B
$GPGGA,125919.000,5005.1967,N,01957.1021,E,1,08,0.9,206.7,M,42.0,M,,0000*5E
$GPGSA,A,3,22,09,17,12,26,18,15,28,,,,,1.7,0.9,1.4*37
$GPRMC,125919.000,A,5005.1967,N,01957.1021,E,28.51,112.56,080808,,,A*5F
$GPGGA,125920.000,5005.1939,N,01957.1142,E,1,08,0.9,207.1,M,42.0,M,,0000*5C
$GPGSA,A,3,22,09,17,12,26,18,15,28,,,,,1.7,0.9,1.4*37
$GPRMC,125920.000,A,5005.1939,N,01957.1142,E,30.26,107.79,080808,,,A*5A
$GPGGA,125921.000,5005.1916,N,01957.1271,E,1,08,0.9,207.4,M,42.0,M,,0000*56
$GPGSA,A,3,22,09,17,12,26,18,15,28,,,,,1.7,0.9,1.4*37
$GPRMC,125921.000,A,5005.1916,N,01957.1271,E,31.32,103.85,080808,,,A*56
$GPGGA,125922.000,5005.1894,N,01957.1406,E,1,08,0.9,207.7,M,42.0,M,,0000*5B
$GPGSA,A,3,22,09,17,12,26,18,15,28,,,,,1.7,0.9,1.4*37
$GPGSV,3,1,12,09,70,299,36,17,47,071,35,12,41,248,37,15,32,188,36*79
$GPGSV,3,2,12,26,21,174,25,28,16,065,32,22,12,300,31,18,09,263,19*7B
$GPGSV,3,3,12,24,09,085,,02,04,116,,05,02,250,33,11,01,020,*7B
$GPRMC,125922.000,A,5005.1894,N,01957.1406,E,32.34,103.99,080808,,,A*50
$GPGGA,125923.000,5005.1871,N,01957.1541,E,1,08,0.9,207.8,M,42.0,M,,0000*5C
$GPGSA,A,3,22,09,17,12,26,18,15,28,,,,,1.7,0.9,1.4*37
$GPRMC,125923.000,A,5005.1871,N,01957.1541,E,32.22,105.38,080808,,,A*52
$GPGGA,125924.000,5005.1846,N,01957.1674,E,1,08,0.9,207.9,M,42.0,M,,0000*5B
$GPGSA,A,3,22,09,17,12,26,18,15,28,,,,,1.7,0.9,1.4*37
$GPRMC,125924.000,A,5005.1846,N,01957.1674,E,31.42,106.48,080808,,,A*55
$GPGGA,125925.000,5005.1823,N,01957.1799,E,1,08,0.9,208.0,M,42.0,M,,0000*5D
$GPGSA,A,3,22,09,17,12,26,18,15,28,,,,,1.7,0.9,1.4*37
$GPRMC,125925.000,A,5005.1823,N,01957.1799,E,28.78,106.48,080808,,,A*54
$GPGGA,125926.000,5005.1802,N,01957.1912,E,1,08,0.9,207.7,M,42.0,M,,0000*58
$GPGSA,A,3,22,09,17,12,26,18,15,28,,,,,1.7,0.9,1.4*37
$GPRMC,125926.000,A,5005.1802,N,01957.1912,E,26.00,106.55,080808,,,A*54
$GPGGA,125927.000,5005.1783,N,01957.2010,E,1,08,0.9,207.4,M,42.0,M,,0000*54
$GPGSA,A,3,22,09,17,12,26,18,15,28,,,,,1.7,0.9,1.4*37
$GPGSV,3,1,12,09,70,299,36,17,47,071,35,12,41,248,38,15,32,188,36*76
$GPGSV,3,2,12,26,21,174,34,28,16,065,17,22,12,300,25,18,09,263,21*72
$GPGSV,3,3,12,24,09,085,,02,04,116,,05,02,250,32,11,01,020,*7A
$GPRMC,125927.000,A,5005.1783,N,01957.2010,E,22.34,106.46,080808,,,A*5A
$GPGGA,125928.000,5005.1767,N,01957.2095,E,1,08,0.9,207.3,M,42.0,M,,0000*5B
$GPGSA,A,3,22,09,17,12,26,18,15,28,,,,,1.7,0.9,1.4*37
$GPRMC,125928.000,A,5005.1767,N,01957.2095,E,19.50,107.09,080808,,,A*52
$GPGGA,125929.000,5005.1753,N,01957.2172,E,1,08,0.9,206.9,M,42.0,M,,0000*5E
$GPGSA,A,3,22,09,17,12,26,18,15,28,,,,,1.7,0.9,1.4*37
$GPRMC,125929.000,A,5005.1753,N,01957.2172,E,17.76,106.66,080808,,,A*5E
$GPGGA,125930.000,5005.1739,N,01957.2239,E,1,08,0.9,206.9,M,42.0,M,,0000*56
$GPGSA,A,3,22,09,17,12,26,18,15,28,,,,,1.7,0.9,1.4*37
$GPRMC,125930.000,A,5005.1739,N,01957.2239,E,15.46,108.11,080808,,,A*59
$GPGGA,125931.000,5005.1728,N,01957.2295,E,1,08,0.9,206.9,M,42.0,M,,0000*51
$GPGSA,A,3,22,09,17,12,26,18,15,28,,,,,1.7,0.9,1.4*37
$GPRMC,125931.000,A,5005.1728,N,01957.2295,E,12.82,108.03,080808,,,A*52
$GPGGA,125932.000,5005.1718,N,01957.2341,E,1,08,0.9,207.1,M,42.0,M,,0000*50
$GPGSA,A,3,22,09,17,12,26,18,15,28,,,,,1.7,0.9,1.4*37
$GPGSV,3,1,12,09,70,299,36,17,47,071,28,12,41,248,38,15,32,188,37*7B
$GPGSV,3,2,12,26,21,174,35,28,16,065,17,22,12,300,20,18,09,263,22*75
$GPGSV,3,3,12,24,09,085,,02,04,116,,05,02,250,29,11,01,020,*70
$GPRMC,125932.000,A,5005.1718,N,01957.2341,E,11.18,108.49,080808,,,A*54
$GPGGA,125933.000,5005.1708,N,01957.2380,E,1,08,0.9,207.5,M,42.0,M,,0000*59
$GPGSA,A,3,22,09,17,12,26,18,15,28,,,,,1.7,0.9,1.4*37
$GPRMC,125933.000,A,5005.1708,N,01957.2380,E,9.29,110.28,080808,,,A*6C
$GPGGA,125934.000,5005.1700,N,01957.2411,E,1,08,0.9,207.7,M,42.0,M,,0000*5B
$GPGSA,A,3,22,09,17,12,26,18,15,28,,,,,1.7,0.9,1.4*37
$GPRMC,125934.000,A,5005.1700,N,01957.2411,E,7.63,108.93,080808,,,A*65
$GPGGA,125935.000,5005.1694,N,01957.2436,E,1,08,0.9,208.0,M,42.0,M,,0000*5B
$GPGSA,A,3,22,09,17,12,26,18,15,28,,,,,1.7,0.9,1.4*37
$GPRMC,125935.000,A,5005.1694,N,01957.2436,E,6.19,109.98,080808,,,A*6B
$GPGGA,125936.000,5005.1689,N,01957.2455,E,1,08,0.9,208.1,M,42.0,M,,0000*50
$GPGSA,A,3,22,09,17,12,26,18,15,28,,,,,1.7,0.9,1.4*37
$GPRMC,125936.000,A,5005.1689,N,01957.2455,E,4.53,108.70,080808,,,A*6A
$GPGGA,125937.000,5005.1685,N,01957.2467,E,1,08,0.9,208.6,M,42.0,M,,0000*5B
$GPGSA,A,3,22,09,17,12,26,18,15,28,,,,,1.7,0.9,1.4*37
$GPGSV,3,1,12,09,70,299,36,17,47,071,27,12,41,248,38,15,32,188,28*7A
$GPGSV,3,2,12,26,21,174,22,28,16,065,19,22,12,300,18,18,09,263,23*77
$GPGSV,3,3,12,24,09,085,,02,04,116,,05,02,250,30,11,01,020,*78
$GPRMC,125937.000,A,5005.1685,N,01957.2467,E,,108.70,080808,,,A*7A
$GPGGA,125938.000,5005.1683,N,01957.2473,E,1,08,0.9,209.1,M,42.0,M,,0000*51
$GPGSA,A,3,22,09,17,12,26,18,15,28,,,,,1.7,0.9,1.4*37
$GPRMC,125938.000,A,5005.1683,N,01957.2473,E,,108.70,080808,,,A*76
$GPGGA,125939.000,5005.1683,N,01957.2474,E,1,08,0.9,209.7,M,42.0,M,,0000*51
$GPGSA,A,3,22,09,17,12,26,18,15,28,,,,,1.7,0.9,1.4*37
$GPRMC,125939.000,A,5005.1683,N,01957.2474,E,,108.70,080808,,,A*70
$GPGGA,125940.000,5005.1683,N,01957.2472,E,1,08,0.9,210.3,M,42.0,M,,0000*55
$GPGSA,A,3,22,09,17,12,26,18,15,28,,,,,1.7,0.9,1.4*37
$GPRMC,125940.000,A,5005.1683,N,01957.2472,E,,108.70,080808,,,A*78
$GPGGA,125941.000,5005.1684,N,01957.2469,E,1,08,0.9,210.9,M,42.0,M,,0000*53
$GPGSA,A,3,22,09,17,12,26,18,15,28,,,,,1.7,0.9,1.4*37
$GPRMC,125941.000,A,5005.1684,N,01957.2469,E,,108.70,080808,,,A*74
$GPGGA,125942.000,5005.1686,N,01957.2466,E,1,08,0.9,211.5,M,42.0,M,,0000*50
$GPGSA,A,3,22,09,17,12,26,18,15,28,,,,,1.7,0.9,1.4*37
$GPGSV,3,1,12,09,70,299,36,17,47,071,26,12,41,249,37,15,32,188,26*7B
$GPGSV,3,2,12,26,21,174,23,28,15,065,23,22,12,300,20,24,09,085,*73
$GPGSV,3,3,12,18,09,263,22,02,04,116,,05,02,250,21,04,01,122,*7A
$GPRMC,125942.000,A,5005.1686,N,01957.2466,E,,108.70,080808,,,A*7A
$GPGGA,125943.000,5005.1686,N,01957.2464,E,1,08,0.9,212.0,M,42.0,M,,0000*55
$GPGSA,A,3,22,09,17,12,26,18,15,28,,,,,1.7,0.9,1.4*37
$GPRMC,125943.000,A,5005.1686,N,01957.2464,E,,108.70,080808,,,A*79
$GPGGA,125944.000,5005.1686,N,01957.2462,E,1,08,0.9,212.6,M,42.0,M,,0000*52
$GPGSA,A,3,22,09,17,12,26,18,15,28,,,,,1.7,0.9,1.4*37
$GPRMC,125944.000,A,5005.1686,N,01957.2462,E,,108.70,080808,,,A*78
$GPGGA,125945.000,5005.1685,N,01957.2465,E,1,08,0.9,213.4,M,42.0,M,,0000*54
$GPGSA,A,3,22,09,17,12,26,18,15,28,,,,,1.7,0.9,1.4*37
$GPRMC,125945.000,A,5005.1685,N,01957.2465,E,,108.70,080808,,,A*7D
$GPGGA,125946.000,5005.1684,N,01957.2467,E,1,08,0.9,213.9,M,42.0,M,,0000*59
$GPGSA,A,3,22,09,17,12,26,18,15,28,,,,,1.7,0.9,1.4*37
$GPRMC,125946.000,A,5005.1684,N,01957.2467,E,,108.70,080808,,,A*7D
$GPGGA,125947.000,5005.1683,N,01957.2467,E,1,08,0.9,214.6,M,42.0,M,,0000*57
$GPGSA,A,3,22,09,17,12,26,18,15,28,,,,,1.7,0.9,1.4*37
$GPGSV,3,1,12,09,70,299,36,17,47,071,25,12,41,249,36,15,32,188,26*79
$GPGSV,3,2,12,26,21,174,23,28,15,065,26,22,12,300,20,24,09,085,*76
$GPGSV,3,3,12,18,09,263,17,02,04,116,,05,02,250,22,04,01,122,*7F
$GPRMC,125947.000,A,5005.1683,N,01957.2467,E,,108.70,080808,,,A*7B
$GPGGA,125948.000,5005.1685,N,01957.2466,E,1,08,0.9,214.6,M,42.0,M,,0000*5F
$GPGSA,A,3,22,09,17,12,26,18,15,28,,,,,1.7,0.9,1.4*37
$GPRMC,125948.000,A,5005.1685,N,01957.2466,E,,108.70,080808,,,A*73
$GPGGA,125949.000,5005.1685,N,01957.2466,E,1,08,0.9,214.7,M,42.0,M,,0000*5F
$GPGSA,A,3,22,09,17,12,26,18,15,28,,,,,1.7,0.9,1.4*37
$GPRMC,125949.000,A,5005.1685,N,01957.2466,E,,108.70,080808,,,A*72
$GPGGA,125950.000,5005.1685,N,01957.2465,E,1,08,0.9,214.9,M,42.0,M,,0000*5A
$GPGSA,A,3,22,09,17,12,26,18,15,28,,,,,1.7,0.9,1.4*37
$GPRMC,125950.000,A,5005.1685,N,01957.2465,E,,108.70,080808,,,A*79
$GPGGA,125951.000,5005.1686,N,01957.2466,E,1,08,0.9,215.1,M,42.0,M,,0000*52
$GPGSA,A,3,22,09,17,12,26,18,15,28,,,,,1.7,0.9,1.4*37
$GPRMC,125951.000,A,5005.1686,N,01957.2466,E,,108.70,080808,,,A*78
$GPGGA,125952.000,5005.1684,N,01957.2466,E,1,08,0.9,215.9,M,42.0,M,,0000*5B
$GPGSA,A,3,22,09,17,12,26,18,15,28,,,,,1.7,0.9,1.4*37
$GPGSV,3,1,12,09,70,299,36,17,47,070,20,12,41,249,35,15,32,188,27*7F
$GPGSV,3,2,12,26,21,174,23,28,15,065,26,22,12,300,20,24,09,085,*76
$GPGSV,3,3,12,18,09,263,14,02,04,116,,05,02,250,22,04,01,122,*7C
$GPRMC,125952.000,A,5005.1684,N,01957.2466,E,,108.70,080808,,,A*79
$GPGGA,125953.000,5005.1683,N,01957.2464,E,1,08,0.9,216.5,M,42.0,M,,0000*50
$GPGSA,A,3,22,09,17,12,26,18,15,28,,,,,1.7,0.9,1.4*37
$GPRMC,125953.000,A,5005.1683,N,01957.2464,E,,108.70,080808,,,A*7D
$GPGGA,125954.000,5005.1682,N,01957.2462,E,1,08,0.9,217.0,M,42.0,M,,0000*54
$GPGSA,A,3,22,09,17,12,26,18,15,28,,,,,1.7,0.9,1.4*37
$GPRMC,125954.000,A,5005.1682,N,01957.2462,E,,108.70,080808,,,A*7D
$GPGGA,125955.000,5005.1681,N,01957.2461,E,1,08,0.9,217.7,M,42.0,M,,0000*52
$GPGSA,A,3,22,09,17,12,26,18,15,28,,,,,1.7,0.9,1.4*37
$GPRMC,125955.000,A,5005.1681,N,01957.2461,E,,108.70,080808,,,A*7C
$GPGGA,125956.000,5005.1681,N,01957.2461,E,1,08,0.9,218.7,M,42.0,M,,0000*5E
$GPGSA,A,3,22,09,17,12,26,18,15,28,,,,,1.7,0.9,1.4*37
$GPRMC,125956.000,A,5005.1681,N,01957.2461,E,,108.70,080808,,,A*7F
$GPGGA,125957.000,5005.1680,N,01957.2459,E,1,08,0.9,218.9,M,42.0,M,,0000*5B
$GPGSA,A,3,22,09,17,12,26,18,15,28,,,,,1.7,0.9,1.4*37
$GPGSV,3,1,12,09,70,299,36,17,47,070,20,12,41,249,36,15,32,188,27*7C
$GPGSV,3,2,12,26,21,174,23,28,15,065,27,22,12,300,19,24,09,085,*7D
$GPGSV,3,3,12,18,09,263,16,02,04,116,,05,02,250,30,04,01,122,*7D
$GPRMC,125957.000,A,5005.1680,N,01957.2459,E,,108.70,080808,,,A*74
$GPGGA,125958.000,5005.1678,N,01957.2458,E,1,08,0.9,218.9,M,42.0,M,,0000*52
$GPGSA,A,3,22,09,17,12,26,18,15,28,,,,,1.7,0.9,1.4*37
$GPRMC,125958.000,A,5005.1678,N,01957.2458,E,,108.70,080808,,,A*7D
$GPGGA,125959.000,5005.1676,N,01957.2458,E,1,08,0.9,219.4,M,42.0,M,,0000*51
$GPGSA,A,3,22,09,17,12,26,18,15,28,,,,,1.7,0.9,1.4*37
$GPRMC,125959.000,A,5005.1676,N,01957.2458,E,,108.70,080808,,,A*72
$GPGGA,130000.000,5005.1675,N,01957.2461,E,1,08,0.9,219.5,M,42.0,M,,0000*58
$GPGSA,A,3,22,09,17,12,26,18,15,28,,,,,1.7,0.9,1.4*37
$GPRMC,130000.000,A,5005.1675,N,01957.2461,E,,108.70,080808,,,A*7A
$GPGGA,130001.000,5005.1673,N,01957.2470,E,1,08,0.9,219.0,M,42.0,M,,0000*5A
$GPGSA,A,3,22,09,17,12,26,18,15,28,,,,,1.7,0.9,1.4*37
$GPRMC,130001.000,A,5005.1673,N,01957.2470,E,,108.70,080808,,,A*7D
$GPGGA,130002.000,5005.1670,N,01957.2486,E,1,08,0.9,218.4,M,42.0,M,,0000*56
$GPGSA,A,3,22,09,17,12,26,18,15,28,,,,,1.7,0.9,1.4*37
$GPGSV,3,1,12,09,70,299,36,17,47,070,21,12,41,249,37,15,32,188,38*72
$GPGSV,3,2,12,26,21,174,35,28,15,065,19,22,12,300,20,24,09,085,*7D
$GPGSV,3,3,12,18,09,263,17,02,04,116,,05,02,250,30,04,01,122,*7C
$GPRMC,130002.000,A,5005.1670,N,01957.2486,E,4.61,115.06,080808,,,A*64
$GPGGA,130003.000,5005.1663,N,01957.2514,E,1,08,0.9,218.2,M,42.0,M,,0000*59
$GPGSA,A,3,22,09,17,12,26,18,15,28,,,,,1.7,0.9,1.4*37
$GPRMC,130003.000,A,5005.1663,N,01957.2514,E,8.10,112.09,080808,,,A*6F
$GPGGA,130004.000,5005.1655,N,01957.2548,E,1,08,0.9,217.9,M,42.0,M,,0000*56
$GPGSA,A,3,22,09,17,12,26,18,15,28,,,,,1.7,0.9,1.4*37
$GPRMC,130004.000,A,5005.1655,N,01957.2548,E,8.29,107.57,080808,,,A*61
$GPGGA,130005.000,5005.1649,N,01957.2584,E,1,08,0.9,217.4,M,42.0,M,,0000*57
$GPGSA,A,3,22,09,17,12,26,18,15,28,,,,,1.7,0.9,1.4*37
$GPRMC,130005.000,A,5005.1649,N,01957.2584,E,8.49,109.05,080808,,,A*62
$GPGGA,130006.000,5005.1642,N,01957.2625,E,1,08,0.9,217.1,M,42.0,M,,0000*52
$GPGSA,A,3,22,09,17,12,26,18,15,28,,,,,1.7,0.9,1.4*37
$GPRMC,130006.000,A,5005.1642,N,01957.2625,E,9.75,106.27,080808,,,A*63
$GPGGA,130007.000,5005.1634,N,01957.2661,E,1,08,0.9,216.8,M,42.0,M,,0000*5A
$GPGSA,A,3,22,09,17,12,26,18,15,28,,,,,1.7,0.9,1.4*37
$GPGSV,3,1,12,09,70,299,36,17,47,070,21,12,41,249,37,15,32,188,30*7A
$GPGSV,3,2,12,26,21,174,22,28,15,065,19,22,12,300,19,24,09,085,*71
$GPGSV,3,3,12,18,09,263,25,02,04,116,,05,02,250,31,04,01,122,*7C
$GPRMC,130007.000,A,5005.1634,N,01957.2661,E,8.34,109.94,080808,,,A*60
$GPGGA,130008.000,5005.1628,N,01957.2692,E,1,08,0.9,216.4,M,42.0,M,,0000*58
$GPGSA,A,3,22,09,17,12,26,18,15,28,,,,,1.7,0.9,1.4*37
$GPRMC,130008.000,A,5005.1628,N,01957.2692,E,7.00,107.10,080808,,,A*64
$GPGGA,130009.000,5005.1622,N,01957.2716,E,1,08,0.9,216.6,M,42.0,M,,0000*5C
$GPGSA,A,3,22,09,17,12,26,18,15,28,,,,,1.7,0.9,1.4*37
$GPRMC,130009.000,A,5005.1622,N,01957.2716,E,6.53,100.55,080808,,,A*63
$GPGGA,130010.000,5005.1620,N,01957.2745,E,1,08,0.9,216.5,M,42.0,M,,0000*53
$GPGSA,A,3,22,09,17,12,26,18,15,28,,,,,1.7,0.9,1.4*37
$GPRMC,130010.000,A,5005.1620,N,01957.2745,E,7.73,93.33,080808,,,A*57
$GPGGA,130011.000,5005.1622,N,01957.2779,E,1,07,1.0,216.2,M,42.0,M,,0000*5F
$GPGSA,A,3,22,17,12,26,18,15,28,,,,,,2.2,1.0,2.0*37
$GPRMC,130011.000,A,5005.1622,N,01957.2779,E,7.35,84.78,080808,,,A*50
$GPGGA,130012.000,5005.1627,N,01957.2808,E,1,07,1.0,216.2,M,42.0,M,,0000*50
$GPGSA,A,3,22,17,12,26,18,15,28,,,,,,2.2,1.0,2.0*37
$GPGSV,3,1,12,09,70,299,16,17,47,070,13,12,41,249,36,15,32,188,36*7E
$GPGSV,3,2,12,26,21,174,22,28,15,065,20,22,12,300,18,24,09,085,*7A
$GPGSV,3,3,12,18,09,263,27,02,04,116,,05,02,250,32,04,01,122,*7D
$GPRMC,130012.000,A,5005.1627,N,01957.2808,E,5.84,71.71,080808,,,A*54
$GPGGA,130013.000,5005.1632,N,01957.2821,E,1,07,1.0,216.0,M,42.0,M,,0000*5C
$GPGSA,A,3,22,17,12,26,18,15,28,,,,,,2.2,1.0,2.0*37
$GPRMC,130013.000,A,5005.1632,N,01957.2821,E,,71.71,080808,,,A*4D
$GPGGA,130014.000,5005.1634,N,01957.2826,E,1,07,1.0,215.7,M,42.0,M,,0000*5E
$GPGSA,A,3,22,17,12,26,18,15,28,,,,,,2.2,1.0,2.0*37
$GPRMC,130014.000,A,5005.1634,N,01957.2826,E,,71.71,080808,,,A*4B
$GPGGA,130015.000,5005.1632,N,01957.2827,E,1,08,0.9,214.2,M,42.0,M,,0000*5B
$GPGSA,A,3,22,09,17,12,26,18,15,28,,,,,1.7,0.9,1.4*37
$GPRMC,130015.000,A,5005.1632,N,01957.2827,E,,71.71,080808,,,A*4D
$GPGGA,130016.000,5005.1631,N,01957.2826,E,1,08,0.9,212.6,M,42.0,M,,0000*58
$GPGSA,A,3,22,09,17,12,26,18,15,28,,,,,1.7,0.9,1.4*37
$GPRMC,130016.000,A,5005.1631,N,01957.2826,E,,71.71,080808,,,A*4C
$GPGGA,130017.000,5005.1629,N,01957.2826,E,1,08,0.9,210.3,M,42.0,M,,0000*57
$GPGSA,A,3,22,09,17,12,26,18,15,28,,,,,1.7,0.9,1.4*37
$GPGSV,3,1,12,09,70,299,13,17,47,070,14,12,41,249,24,15,32,188,33*7A
$GPGSV,3,2,12,26,21,174,34,28,15,065,30,22,12,300,17,24,09,085,*73
$GPGSV,3,3,12,18,09,263,27,02,04,116,,05,02,250,29,04,01,122,*77
$GPRMC,130017.000,A,5005.1629,N,01957.2826,E,,71.71,080808,,,A*44
$GPGGA,130018.000,5005.1630,N,01957.2829,E,1,08,0.9,208.2,M,42.0,M,,0000*57
$GPGSA,A,3,22,09,17,12,26,18,15,28,,,,,1.7,0.9,1.4*37
$GPRMC,130018.000,A,5005.1630,N,01957.2829,E,,71.71,080808,,,A*4C
$GPGGA,130019.000,5005.1630,N,01957.2833,E,1,07,1.0,206.6,M,42.0,M,,0000*50
$GPGSA,A,3,22,17,12,26,18,15,28,,,,,,2.2,1.0,2.0*37
$GPRMC,130019.000,A,5005.1630,N,01957.2833,E,,71.71,080808,,,A*46
$GPGGA,130020.000,5005.1628,N,01957.2835,E,1,08,0.9,204.4,M,42.0,M,,0000*52
$GPGSA,A,3,22,09,17,12,26,18,15,28,,,,,1.7,0.9,1.4*37
$GPRMC,130020.000,A,5005.1628,N,01957.2835,E,,71.71,080808,,,A*43
$GPGGA,130021.000,5005.1627,N,01957.2834,E,1,06,1.1,202.6,M,42.0,M,,0000*5E
$GPGSA,A,3,22,17,26,18,15,28,,,,,,,2.8,1.1,2.6*39
$GPRMC,130021.000,A,5005.1627,N,01957.2834,E,,71.71,080808,,,A*4C
$GPGGA,130022.000,5005.1627,N,01957.2835,E,1,05,1.4,201.7,M,42.0,M,,0000*58
$GPGSA,A,3,22,26,18,15,28,,,,,,,,5.9,1.4,5.7*3A
$GPGSV,3,1,12,09,70,299,,17,47,070,13,12,41,249,18,15,32,188,24*76
$GPGSV,3,2,12,26,21,174,35,28,15,065,30,22,12,299,16,24,09,085,*72
$GPGSV,3,3,12,18,09,263,28,02,04,116,,05,02,250,26,04,01,122,*77
$GPRMC,130022.000,A,5005.1627,N,01957.2835,E,,71.71,080808,,,A*4E
$GPGGA,130023.000,5005.1624,N,01957.2841,E,1,06,1.1,199.3,M,42.0,M,,0000*59
$GPGSA,A,3,22,12,26,18,15,28,,,,,,,2.9,1.1,2.7*3C
$GPRMC,130023.000,A,5005.1624,N,01957.2841,E,,71.71,080808,,,A*4F
$GPGGA,130024.000,5005.1626,N,01957.2846,E,1,06,1.1,197.9,M,42.0,M,,0000*5F
$GPGSA,A,3,22,12,26,18,15,28,,,,,,,2.9,1.1,2.7*3C
$GPRMC,130024.000,A,5005.1626,N,01957.2846,E,,71.71,080808,,,A*4D
$GPGGA,130025.000,5005.1634,N,01957.2855,E,1,06,1.1,197.1,M,42.0,M,,0000*57
$GPGSA,A,3,22,12,26,18,15,28,,,,,,,2.9,1.1,2.7*3C
$GPRMC,130025.000,A,5005.1634,N,01957.2855,E,3.98,40.52,080808,,,A*52
$GPGGA,130026.000,5005.1647,N,01957.2870,E,1,06,1.1,193.4,M,42.0,M,,0000*56
$GPGSA,A,3,22,17,26,18,15,28,,,,,,,2.8,1.1,2.6*39
$GPRMC,130026.000,A,5005.1647,N,01957.2870,E,7.47,36.52,080808,,,A*55
$GPGGA,130027.000,5005.1672,N,01957.2888,E,1,06,1.1,194.7,M,42.0,M,,0000*52
$GPGSA,A,3,22,17,09,26,18,28,,,,,,,1.8,1.1,1.5*37
$GPGSV,3,1,12,09,70,299,35,17,47,070,36,12,41,249,11,15,32,188,19*70
$GPGSV,3,2,12,26,21,174,19,28,15,065,25,22,12,299,29,24,09,085,*74
$GPGSV,3,3,12,18,09,263,18,02,04,116,,05,02,250,15,04,01,122,*74
$GPRMC,130027.000,A,5005.1672,N,01957.2888,E,9.37,27.29,080808,,,A*50
$GPGGA,130028.000,5005.1705,N,01957.2910,E,1,08,0.9,197.4,M,42.0,M,,0000*5B
$GPGSA,A,3,22,17,09,12,26,18,15,28,,,,,1.7,0.9,1.4*37
$GPRMC,130028.000,A,5005.1705,N,01957.2910,E,11.18,23.77,080808,,,A*65
$GPGGA,130029.000,5005.1747,N,01957.2945,E,1,08,0.9,201.5,M,42.0,M,,0000*51
$GPGSA,A,3,22,17,09,12,26,18,15,28,,,,,1.7,0.9,1.4*37
$GPRMC,130029.000,A,5005.1747,N,01957.2945,E,13.05,29.72,080808,,,A*63
$GPGGA,130030.000,5005.1804,N,01957.2994,E,1,08,0.9,205.0,M,42.0,M,,0000*5C
$GPGSA,A,3,22,17,09,12,26,18,15,28,,,,,1.7,0.9,1.4*37
$GPRMC,130030.000,A,5005.1804,N,01957.2994,E,19.24,31.56,080808,,,A*69
$GPGGA,130031.000,5005.1863,N,01957.3049,E,1,08,0.9,208.2,M,42.0,M,,0000*5B
$GPGSA,A,3,22,17,09,12,26,18,15,28,,,,,1.7,0.9,1.4*37
$GPRMC,130031.000,A,5005.1863,N,01957.3049,E,21.62,32.85,080808,,,A*65
$GPGGA,130032.000,5005.1923,N,01957.3108,E,1,08,0.9,209.5,M,42.0,M,,0000*5F
$GPGSA,A,3,22,17,09,12,26,18,15,28,,,,,1.7,0.9,1.4*37
$GPGSV,3,1,12,09,70,299,37,17,47,070,37,12,41,249,35,15,32,188,36*78
$GPGSV,3,2,12,26,21,174,33,28,15,065,18,22,12,299,26,24,09,085,*7D
$GPGSV,3,3,12,18,09,263,27,02,04,116,,05,02,250,35,04,01,122,*7A
$GPRMC,130032.000,A,5005.1923,N,01957.3108,E,23.36,34.45,080808,,,A*6E
$GPGGA,130033.000,5005.1983,N,01957.3175,E,1,08,0.9,211.3,M,42.0,M,,0000*51
$GPGSA,A,3,22,17,09,12,26,18,15,28,,,,,1.7,0.9,1.4*37
$GPRMC,130033.000,A,5005.1983,N,01957.3175,E,25.46,38.18,080808,,,A*6A
$GPGGA,130034.000,5005.2047,N,01957.3252,E,1,08,0.9,212.1,M,42.0,M,,0000*53
$GPGSA,A,3,22,17,09,12,26,18,15,28,,,,,1.7,0.9,1.4*37
$GPRMC,130034.000,A,5005.2047,N,01957.3252,E,27.50,39.06,080808,,,A*62
$GPGGA,130035.000,5005.2111,N,01957.3327,E,1,08,0.9,213.4,M,42.0,M,,0000*57
$GPGSA,A,3,22,17,09,12,26,18,15,28,,,,,1.7,0.9,1.4*37
$GPRMC,130035.000,A,5005.2111,N,01957.3327,E,27.01,35.84,080808,,,A*60
$GPGGA,130036.000,5005.2176,N,01957.3395,E,1,08,0.9,214.1,M,42.0,M,,0000*5E
$GPGSA,A,3,22,17,09,12,26,18,15,28,,,,,1.7,0.9,1.4*37
$GPRMC,130036.000,A,5005.2176,N,01957.3395,E,26.89,34.16,080808,,,A*60
$GPGGA,130037.000,5005.2238,N,01957.3461,E,1,08,0.9,214.8,M,42.0,M,,0000*53
$GPGSA,A,3,22,17,09,12,26,18,15,28,,,,,1.7,0.9,1.4*37
$GPGSV,3,1,12,09,70,299,38,17,47,070,30,12,41,249,36,15,32,188,29*7D
$GPGSV,3,2,12,26,21,174,22,28,15,065,29,22,12,299,26,24,09,085,*7F
$GPGSV,3,3,12,18,09,263,27,02,04,116,,05,02,250,35,04,01,122,*7A
$GPRMC,130037.000,A,5005.2238,N,01957.3461,E,25.85,35.43,080808,,,A*6A
$GPGGA,130038.000,5005.2295,N,01957.3527,E,1,07,1.1,215.5,M,42.0,M,,0000*52
$GPGSA,A,3,17,09,12,26,18,15,28,,,,,,1.8,1.1,1.5*30
$GPRMC,130038.000,A,5005.2295,N,01957.3527,E,24.91,37.11,080808,,,A*60
$GPGGA,130039.000,5005.2353,N,01957.3593,E,1,08,0.9,216.3,M,42.0,M,,0000*54
$GPGSA,A,3,22,17,09,12,26,18,15,28,,,,,1.7,0.9,1.4*37
$GPRMC,130039.000,A,5005.2353,N,01957.3593,E,25.96,36.03,080808,,,A*61
$GPGGA,130040.000,5005.2413,N,01957.3659,E,1,08,0.9,216.6,M,42.0,M,,0000*59
$GPGSA,A,3,22,17,09,12,26,18,15,28,,,,,1.7,0.9,1.4*37
$GPRMC,130040.000,A,5005.2413,N,01957.3659,E,26.28,35.00,080808,,,A*6F
$GPGGA,130041.000,5005.2468,N,01957.3725,E,1,08,0.9,216.8,M,42.0,M,,0000*50
$GPGSA,A,3,22,17,09,12,26,18,15,28,,,,,1.7,0.9,1.4*37
$GPRMC,130041.000,A,5005.2468,N,01957.3725,E,24.89,35.96,080808,,,A*6E
$GPGGA,130042.000,5005.2523,N,01957.3788,E,1,08,0.9,217.0,M,42.0,M,,0000*53
$GPGSA,A,3,22,17,09,12,26,18,15,28,,,,,1.7,0.9,1.4*37
$GPGSV,3,1,12,09,70,299,37,17,47,070,37,12,41,249,36,15,32,188,26*7A
$GPGSV,3,2,12,26,21,174,21,28,15,065,34,22,12,299,26,24,09,085,*70
$GPGSV,3,3,12,18,09,263,26,02,04,116,,05,02,250,34,04,01,122,*7A
$GPRMC,130042.000,A,5005.2523,N,01957.3788,E,24.22,36.31,080808,,,A*6B
$GPGGA,130043.000,5005.2577,N,01957.3848,E,1,08,0.9,217.7,M,42.0,M,,0000*57
$GPGSA,A,3,22,17,09,12,26,18,15,28,,,,,1.7,0.9,1.4*37
$GPRMC,130043.000,A,5005.2577,N,01957.3848,E,23.26,36.14,080808,,,A*6C
$GPGGA,130044.000,5005.2630,N,01957.3903,E,1,08,0.9,218.0,M,42.0,M,,0000*56
$GPGSA,A,3,22,17,09,12,26,18,15,28,,,,,1.7,0.9,1.4*37
$GPRMC,130044.000,A,5005.2630,N,01957.3903,E,21.82,34.12,080808,,,A*6D
$GPGGA,130045.000,5005.2677,N,01957.3953,E,1,08,0.9,218.0,M,42.0,M,,0000*51
$GPGSA,A,3,22,17,09,12,26,18,15,28,,,,,1.7,0.9,1.4*37
$GPRMC,130045.000,A,5005.2677,N,01957.3953,E,19.09,35.75,080808,,,A*62
$GPGGA,130046.000,5005.2720,N,01957.3998,E,1,08,0.9,218.4,M,42.0,M,,0000*52
$GPGSA,A,3,22,17,09,12,26,18,15,28,,,,,1.7,0.9,1.4*37
$GPRMC,130046.000,A,5005.2720,N,01957.3998,E,17.87,35.10,080808,,,A*6E
$GPGGA,130047.000,5005.2762,N,01957.4037,E,1,08,0.9,218.9,M,42.0,M,,0000*53
$GPGSA,A,3,22,17,09,12,26,18,15,28,,,,,1.7,0.9,1.4*37
$GPGSV,3,1,12,09,70,299,37,17,47,070,37,12,41,249,35,15,32,188,34*7A
$GPGSV,3,2,12,26,21,174,29,28,15,065,19,22,12,299,27,24,09,085,*76
$GPGSV,3,3,12,18,09,263,27,02,04,116,,05,02,250,34,04,01,122,*7B
$GPRMC,130047.000,A,5005.2762,N,01957.4037,E,15.93,33.38,080808,,,A*69
$GPGGA,130048.000,5005.2798,N,01957.4072,E,1,08,0.9,219.1,M,42.0,M,,0000*51
$GPGSA,A,3,22,17,09,12,26,18,15,28,,,,,1.7,0.9,1.4*37
$GPRMC,130048.000,A,5005.2798,N,01957.4072,E,14.41,32.51,080808,,,A*62
$GPGGA,130049.000,5005.2832,N,01957.4103,E,1,08,0.9,219.4,M,42.0,M,,0000*5D
$GPGSA,A,3,22,17,09,12,26,18,15,28,,,,,1.7,0.9,1.4*37
$GPRMC,130049.000,A,5005.2832,N,01957.4103,E,13.20,33.13,080808,,,A*6C
$GPGGA,130050.000,5005.2861,N,01957.4132,E,1,08,0.9,219.7,M,42.0,M,,0000*52
$GPGSA,A,3,22,17,09,12,26,18,15,28,,,,,1.7,0.9,1.4*37
$GPRMC,130050.000,A,5005.2861,N,01957.4132,E,12.08,34.54,080808,,,A*6F
$GPGGA,130051.000,5005.2889,N,01957.4159,E,1,08,0.9,220.0,M,42.0,M,,0000*55
$GPGSA,A,3,22,17,09,12,26,18,15,28,,,,,1.7,0.9,1.4*37
$GPRMC,130051.000,A,5005.2889,N,01957.4159,E,11.04,32.90,080808,,,A*64
$GPGGA,130052.000,5005.2913,N,01957.4183,E,1,08,0.9,219.9,M,42.0,M,,0000*50
$GPGSA,A,3,22,17,09,12,26,18,15,28,,,,,1.7,0.9,1.4*37
$GPGSV,3,1,12,09,70,299,37,17,47,070,37,12,42,249,35,15,32,187,35*77
$GPGSV,3,2,12,26,21,174,23,28,15,065,20,22,12,299,27,24,09,085,*76
$GPGSV,3,3,12,18,09,262,27,02,04,116,,05,02,250,35,04,01,122,*7B
$GPRMC,130052.000,A,5005.2913,N,01957.4183,E,9.61,33.80,080808,,,A*58
$GPGGA,130053.000,5005.2933,N,01957.4202,E,1,08,0.9,219.9,M,42.0,M,,0000*59
$GPGSA,A,3,22,17,09,12,26,18,15,28,,,,,1.7,0.9,1.4*37
$GPRMC,130053.000,A,5005.2933,N,01957.4202,E,7.70,32.87,080808,,,A*59
$GPGGA,130054.000,5005.2950,N,01957.4217,E,1,08,0.9,220.1,M,42.0,M,,0000*5D
$GPGSA,A,3,22,17,09,12,26,18,15,28,,,,,1.7,0.9,1.4*37
$GPRMC,130054.000,A,5005.2950,N,01957.4217,E,6.13,32.91,080808,,,A*5C
$GPGGA,130055.000,5005.2963,N,01957.4229,E,1,08,0.9,220.3,M,42.0,M,,0000*53
$GPGSA,A,3,22,17,09,12,26,18,15,28,,,,,1.7,0.9,1.4*37
$GPRMC,130055.000,A,5005.2963,N,01957.4229,E,4.99,34.45,080808,,,A*5F
$GPGGA,130056.000,5005.2974,N,01957.4239,E,1,08,0.9,220.8,M,42.0,M,,0000*5C
$GPGSA,A,3,22,17,09,12,26,18,15,28,,,,,1.7,0.9,1.4*37
$GPRMC,130056.000,A,5005.2974,N,01957.4239,E,4.65,31.65,080808,,,A*5F
$GPGGA,130057.000,5005.2986,N,01957.4252,E,1,08,0.9,221.1,M,42.0,M,,0000*55
$GPGSA,A,3,22,17,09,12,26,18,15,28,,,,,1.7,0.9,1.4*37
$GPGSV,3,1,12,09,70,299,37,17,47,070,37,12,42,249,35,15,32,187,34*76
$GPGSV,3,2,12,26,21,174,20,28,15,065,22,22,12,299,19,24,09,085,*7A
$GPGSV,3,3,12,18,09,262,28,02,04,116,,05,02,250,32,04,01,122,*73
$GPRMC,130057.000,A,5005.2986,N,01957.4252,E,6.38,34.19,080808,,,A*5A
$GPGGA,130058.000,5005.3002,N,01957.4270,E,1,08,0.9,221.4,M,42.0,M,,0000*5B
$GPGSA,A,3,22,17,09,12,26,18,15,28,,,,,1.7,0.9,1.4*37
$GPRMC,130058.000,A,5005.3002,N,01957.4270,E,8.08,34.53,080808,,,A*52
$GPGGA,130059.000,5005.3021,N,01957.4290,E,1,08,0.9,221.7,M,42.0,M,,0000*56
$GPGSA,A,3,22,17,09,12,26,18,15,28,,,,,1.7,0.9,1.4*37
$GPRMC,130059.000,A,5005.3021,N,01957.4290,E,8.65,33.20,080808,,,A*54
$GPGGA,130100.000,5005.3041,N,01957.4311,E,1,08,0.9,221.9,M,42.0,M,,0000*5B
$GPGSA,A,3,22,17,09,12,26,18,15,28,,,,,1.7,0.9,1.4*37
$GPRMC,130100.000,A,5005.3041,N,01957.4311,E,8.91,33.42,080808,,,A*58
$GPGGA,130101.000,5005.3064,N,01957.4333,E,1,08,0.9,221.9,M,42.0,M,,0000*5D
$GPGSA,A,3,22,17,09,12,26,18,15,28,,,,,1.7,0.9,1.4*37
$GPRMC,130101.000,A,5005.3064,N,01957.4333,E,10.05,33.05,080808,,,A*69
$GPGGA,130102.000,5005.3088,N,01957.4360,E,1,08,0.9,221.8,M,42.0,M,,0000*5B
$GPGSA,A,3,22,17,09,12,26,18,15,28,,,,,1.7,0.9,1.4*37
$GPGSV,3,1,12,09,70,299,37,17,47,070,31,12,42,249,35,15,32,187,36*72
$GPGSV,3,2,12,26,21,174,27,28,15,065,29,22,12,299,28,24,09,085,*74
$GPGSV,3,3,12,18,09,262,26,02,04,116,,05,02,250,34,04,01,122,*7B
$GPRMC,130102.000,A,5005.3088,N,01957.4360,E,11.07,37.72,080808,,,A*69
$GPGGA,130103.000,5005.3111,N,01957.4389,E,1,08,0.9,222.1,M,42.0,M,,0000*56
$GPGSA,A,3,22,17,09,12,26,18,15,28,,,,,1.7,0.9,1.4*37
$GPRMC,130103.000,A,5005.3111,N,01957.4389,E,10.23,39.92,080808,,,A*69
$GPGGA,130104.000,5005.3135,N,01957.4417,E,1,08,0.9,222.5,M,42.0,M,,0000*53
$GPGSA,A,3,22,17,09,12,26,18,15,28,,,,,1.7,0.9,1.4*37
$GPRMC,130104.000,A,5005.3135,N,01957.4417,E,11.37,35.55,080808,,,A*6B
$GPGGA,130105.000,5005.3163,N,01957.4447,E,1,08,0.9,222.5,M,42.0,M,,0000*54
$GPGSA,A,3,22,17,09,12,26,18,15,28,,,,,1.7,0.9,1.4*37
$GPRMC,130105.000,A,5005.3163,N,01957.4447,E,12.53,33.90,080808,,,A*62
$GPGGA,130106.000,5005.3193,N,01957.4477,E,1,08,0.9,222.7,M,42.0,M,,0000*59
$GPGSA,A,3,22,17,09,12,26,18,15,28,,,,,1.7,0.9,1.4*37
$GPRMC,130106.000,A,5005.3193,N,01957.4477,E,13.40,33.44,080808,,,A*67
$GPGGA,130107.000,5005.3224,N,01957.4508,E,1,08,0.9,223.0,M,42.0,M,,0000*58
$GPGSA,A,3,22,17,09,12,26,18,15,28,,,,,1.7,0.9,1.4*37
$GPGSV,3,1,12,09,70,299,37,17,47,070,37,12,42,249,35,15,32,187,34*76
$GPGSV,3,2,12,26,21,174,30,28,15,065,29,22,12,299,20,24,09,085,*7A
$GPGSV,3,3,12,18,09,262,19,02,04,116,,05,02,250,33,04,01,122,*70
$GPRMC,130107.000,A,5005.3224,N,01957.4508,E,13.10,33.46,080808,,,A*67
$GPGGA,130108.000,5005.3254,N,01957.4537,E,1,08,0.9,223.1,M,42.0,M,,0000*5D
$GPGSA,A,3,22,17,09,12,26,18,15,28,,,,,1.6,0.9,1.4*36
$GPRMC,130108.000,A,5005.3254,N,01957.4537,E,12.17,31.95,080808,,,A*69
$GPGGA,130109.000,5005.3282,N,01957.4564,E,1,08,0.9,223.2,M,42.0,M,,0000*52
$GPGSA,A,3,22,17,09,12,26,18,15,28,,,,,1.6,0.9,1.4*36
$GPRMC,130109.000,A,5005.3282,N,01957.4564,E,11.63,33.22,080808,,,A*6B
$GPGGA,130110.000,5005.3309,N,01957.4593,E,1,08,0.9,223.4,M,42.0,M,,0000*56
$GPGSA,A,3,22,17,09,12,26,18,15,28,,,,,1.6,0.9,1.4*36
$GPRMC,130110.000,A,5005.3309,N,01957.4593,E,12.33,35.05,080808,,,A*6C
$GPGGA,130111.000,5005.3339,N,01957.4625,E,1,07,1.1,223.7,M,42.0,M,,0000*5F
$GPGSA,A,3,17,09,12,26,18,15,28,,,,,,1.8,1.1,1.5*30
$GPRMC,130111.000,A,5005.3339,N,01957.4625,E,13.54,36.04,080808,,,A*62
$GPGGA,130112.000,5005.3370,N,01957.4661,E,1,07,1.1,224.1,M,42.0,M,,0000*50
$GPGSA,A,3,17,09,12,26,18,15,28,,,,,,1.8,1.1,1.5*30
$GPGSV,3,1,12,09,70,299,37,17,47,070,37,12,42,249,35,15,32,187,35*77
$GPGSV,3,2,12,26,21,174,27,28,15,065,29,22,12,299,10,24,09,085,*7F
$GPGSV,3,3,12,18,09,262,24,02,04,116,,05,02,250,34,04,01,122,*79
$GPRMC,130112.000,A,5005.3370,N,01957.4661,E,14.34,36.87,080808,,,A*66
$GPGGA,130113.000,5005.3402,N,01957.4698,E,1,07,1.1,224.3,M,42.0,M,,0000*57
$GPGSA,A,3,17,09,12,26,18,15,28,,,,,,1.8,1.1,1.5*30
$GPRMC,130113.000,A,5005.3402,N,01957.4698,E,13.99,36.38,080808,,,A*67
$GPGGA,130114.000,5005.3433,N,01957.4734,E,1,07,1.1,224.6,M,42.0,M,,0000*50
$GPGSA,A,3,17,09,12,26,18,15,28,,,,,,1.8,1.1,1.5*30
$GPRMC,130114.000,A,5005.3433,N,01957.4734,E,14.02,37.82,080808,,,A*60
$GPGGA,130115.000,5005.3464,N,01957.4771,E,1,06,1.7,225.0,M,42.0,M,,0000*52
$GPGSA,A,3,17,09,12,26,15,28,,,,,,,3.1,1.7,2.7*35
$GPRMC,130115.000,A,5005.3464,N,01957.4771,E,13.96,37.74,080808,,,A*61
$GPGGA,130116.000,5005.3497,N,01957.4807,E,1,07,1.0,224.8,M,42.0,M,,0000*5C
$GPGSA,A,3,22,17,09,12,26,15,28,,,,,,1.8,1.0,1.5*38
$GPRMC,130116.000,A,5005.3497,N,01957.4807,E,14.38,36.33,080808,,,A*61
$GPGGA,130117.000,5005.3532,N,01957.4845,E,1,06,1.7,225.0,M,42.0,M,,0000*5A
$GPGSA,A,3,17,09,12,26,15,28,,,,,,,3.1,1.7,2.7*35
$GPGSV,3,1,12,09,70,299,37,17,47,070,37,12,42,249,35,15,32,187,35*77
$GPGSV,3,2,12,26,21,174,29,28,15,065,29,22,12,299,17,24,09,085,*76
$GPGSV,3,3,12,18,09,262,11,02,04,116,,05,02,250,24,04,01,122,*7E
$GPRMC,130117.000,A,5005.3532,N,01957.4845,E,15.99,35.21,080808,,,A*62
$GPGGA,130118.000,5005.3570,N,01957.4887,E,1,06,1.7,225.2,M,42.0,M,,0000*5F
$GPGSA,A,3,17,09,12,26,15,28,,,,,,,3.1,1.7,2.7*35
$GPRMC,130118.000,A,5005.3570,N,01957.4887,E,17.17,34.84,080808,,,A*6F
$GPGGA,130119.000,5005.3612,N,01957.4925,E,1,07,1.0,224.3,M,42.0,M,,0000*56
$GPGSA,A,3,22,17,09,12,26,15,28,,,,,,1.8,1.0,1.5*38
$GPRMC,130119.000,A,5005.3612,N,01957.4925,E,16.96,33.04,080808,,,A*67
$GPGGA,130120.000,5005.3651,N,01957.4965,E,1,06,1.7,224.2,M,42.0,M,,0000*58
$GPGSA,A,3,17,09,12,26,15,28,,,,,,,3.1,1.7,2.7*35
$GPRMC,130120.000,A,5005.3651,N,01957.4965,E,16.65,33.41,080808,,,A*63
$GPGGA,130121.000,5005.3690,N,01957.5002,E,1,07,1.0,223.8,M,42.0,M,,0000*56
$GPGSA,A,3,22,17,09,12,26,15,28,,,,,,1.8,1.0,1.5*38
$GPRMC,130121.000,A,5005.3690,N,01957.5002,E,15.56,32.90,080808,,,A*68
$GPGGA,130122.000,5005.3727,N,01957.5036,E,1,07,1.0,223.1,M,42.0,M,,0000*56
$GPGSA,A,3,22,17,09,12,26,15,28,,,,,,1.8,1.0,1.5*38
$GPGSV,3,1,12,09,71,299,37,17,46,070,37,12,42,249,35,15,31,187,35*74
$GPGSV,3,2,12,26,20,174,30,28,15,065,28,22,12,299,16,24,09,084,*7E
$GPGSV,3,3,12,18,09,262,,02,04,116,,05,02,250,35,04,01,122,*7E
$GPRMC,130122.000,A,5005.3727,N,01957.5036,E,14.76,32.58,080808,,,A*66
$GPGGA,130123.000,5005.3762,N,01957.5071,E,1,07,1.0,222.8,M,42.0,M,,0000*5D
$GPGSA,A,3,22,17,09,12,26,15,28,,,,,,1.8,1.0,1.5*38
$GPRMC,130123.000,A,5005.3762,N,01957.5071,E,15.06,33.63,080808,,,A*6A
$GPGGA,130124.000,5005.3796,N,01957.5107,E,1,07,1.0,222.8,M,42.0,M,,0000*51
$GPGSA,A,3,22,17,09,12,26,15,28,,,,,,1.8,1.0,1.5*38
$GPRMC,130124.000,A,5005.3796,N,01957.5107,E,14.86,33.88,080808,,,A*6A
$GPGGA,130125.000,5005.3831,N,01957.5140,E,1,08,0.9,222.2,M,42.0,M,,0000*5C
$GPGSA,A,3,22,17,09,12,26,18,15,28,,,,,1.6,0.9,1.4*36
$GPRMC,130125.000,A,5005.3831,N,01957.5140,E,14.01,32.24,080808,,,A*62
$GPGGA,130126.000,5005.3862,N,01957.5172,E,1,08,0.9,222.1,M,42.0,M,,0000*5B
$GPGSA,A,3,22,17,09,12,26,18,15,28,,,,,1.6,0.9,1.4*36
$GPRMC,130126.000,A,5005.3862,N,01957.5172,E,12.90,35.06,080808,,,A*6F
$GPGGA,130127.000,5005.3891,N,01957.5203,E,1,08,0.9,221.8,M,42.0,M,,0000*59
$GPGSA,A,3,22,17,09,12,26,18,15,28,,,,,1.6,0.9,1.4*36
$GPGSV,3,1,12,09,71,299,37,17,46,070,37,12,42,249,35,15,31,187,35*74
$GPGSV,3,2,12,26,20,174,30,28,15,065,22,22,12,299,28,24,09,084,*79
$GPGSV,3,3,12,18,09,262,15,02,04,116,,05,02,250,35,04,01,122,*7A
$GPRMC,130127.000,A,5005.3891,N,01957.5203,E,12.45,33.82,080808,,,A*65
$GPGGA,130128.000,5005.3921,N,01957.5234,E,1,08,0.9,221.6,M,42.0,M,,0000*56
$GPGSA,A,3,22,17,09,12,26,18,15,28,,,,,1.6,0.9,1.4*36
$GPRMC,130128.000,A,5005.3921,N,01957.5234,E,13.18,32.68,080808,,,A*68
$GPGGA,130129.000,5005.3951,N,01957.5265,E,1,08,0.9,221.7,M,42.0,M,,0000*55
$GPGSA,A,3,22,17,09,12,26,18,15,28,,,,,1.6,0.9,1.4*36
$GPRMC,130129.000,A,5005.3951,N,01957.5265,E,12.92,34.57,080808,,,A*63
$GPGGA,130130.000,5005.3980,N,01957.5294,E,1,08,0.9,221.3,M,42.0,M,,0000*5B
$GPGSA,A,3,22,17,09,12,26,18,15,28,,,,,1.6,0.9,1.4*36
$GPRMC,130130.000,A,5005.3980,N,01957.5294,E,12.13,33.20,080808,,,A*67
$GPGGA,130131.000,5005.4008,N,01957.5321,E,1,08,0.9,221.0,M,42.0,M,,0000*58
$GPGSA,A,3,22,17,09,12,26,18,15,28,,,,,1.6,0.9,1.4*36
$GPRMC,130131.000,A,5005.4008,N,01957.5321,E,11.35,32.21,080808,,,A*60
$GPGGA,130132.000,5005.4033,N,01957.5346,E,1,08,0.9,220.7,M,42.0,M,,0000*54
$GPGSA,A,3,22,17,09,12,26,18,15,28,,,,,1.6,0.9,1.4*36
$GPGSV,3,1,12,09,71,299,37,17,46,070,37,12,42,249,35,15,31,187,35*74
$GPGSV,3,2,12,26,20,174,27,28,15,065,30,22,12,299,25,24,09,084,*71
$GPGSV,3,3,12,18,09,262,24,02,04,116,,05,02,250,35,04,01,122,*78
$GPRMC,130132.000,A,5005.4033,N,01957.5346,E,10.55,32.79,080808,,,A*60
$GPGGA,130133.000,5005.4059,N,01957.5372,E,1,08,0.9,220.6,M,42.0,M,,0000*5F
$GPGSA,A,3,22,17,09,12,26,18,15,28,,,,,1.6,0.9,1.4*36
$GPRMC,130133.000,A,5005.4059,N,01957.5372,E,11.43,33.60,080808,,,A*65
$GPGGA,130134.000,5005.4086,N,01957.5399,E,1,08,0.9,220.2,M,42.0,M,,0000*5B
$GPGSA,A,3,22,17,09,12,26,18,15,28,,,,,1.6,0.9,1.4*36
$GPRMC,130134.000,A,5005.4086,N,01957.5399,E,11.66,33.39,080808,,,A*6E
$GPGGA,130135.000,5005.4113,N,01957.5427,E,1,08,0.9,220.0,M,42.0,M,,0000*57
$GPGSA,A,3,22,17,09,12,26,18,15,28,,,,,1.6,0.9,1.4*36
$GPRMC,130135.000,A,5005.4113,N,01957.5427,E,11.91,33.10,080808,,,A*63
$GPGGA,130136.000,5005.4139,N,01957.5453,E,1,08,0.9,219.7,M,42.0,M,,0000*52
$GPGSA,A,3,22,17,09,12,26,18,15,28,,,,,1.6,0.9,1.4*36
$GPRMC,130136.000,A,5005.4139,N,01957.5453,E,10.33,32.47,080808,,,A*61
$GPGGA,130137.000,5005.4159,N,01957.5473,E,1,08,0.9,219.6,M,42.0,M,,0000*56
$GPGSA,A,3,22,17,09,12,26,18,15,28,,,,,1.6,0.9,1.4*36
$GPGSV,3,1,12,09,71,299,38,17,46,070,37,12,42,249,35,15,31,187,35*7B
$GPGSV,3,2,12,26,20,174,30,28,15,065,31,22,12,299,25,24,09,084,*76
$GPGSV,3,3,12,18,09,262,25,02,04,116,,05,02,250,35,04,01,122,*79
$GPRMC,130137.000,A,5005.4159,N,01957.5473,E,7.49,31.24,080808,,,A*59
$GPGGA,130138.000,5005.4174,N,01957.5489,E,1,08,0.9,219.7,M,42.0,M,,0000*52
$GPGSA,A,3,22,17,09,12,26,18,15,28,,,,,1.6,0.9,1.4*36
$GPRMC,130138.000,A,5005.4174,N,01957.5489,E,6.05,30.88,080808,,,A*52
$GPGGA,130139.000,5005.4185,N,01957.5501,E,1,08,0.9,220.0,M,42.0,M,,0000*51
$GPGSA,A,3,22,17,09,12,26,18,15,28,,,,,1.6,0.9,1.4*36
$GPRMC,130139.000,A,5005.4185,N,01957.5501,E,4.75,34.07,080808,,,A*5A
$GPGGA,130140.000,5005.4194,N,01957.5511,E,1,08,0.9,220.0,M,42.0,M,,0000*5E
$GPGSA,A,3,22,17,09,12,26,18,15,28,,,,,1.6,0.9,1.4*36
$GPRMC,130140.000,A,5005.4194,N,01957.5511,E,3.83,32.65,080808,,,A*59
$GPGGA,130141.000,5005.4203,N,01957.5518,E,1,08,0.9,219.4,M,42.0,M,,0000*55
$GPGSA,A,3,22,17,09,12,26,18,15,28,,,,,1.6,0.9,1.4*36
$GPRMC,130141.000,A,5005.4203,N,01957.5518,E,3.62,24.55,080808,,,A*57
$GPGGA,130142.000,5005.4211,N,01957.5527,E,1,08,0.9,219.4,M,42.0,M,,0000*59
$GPGSA,A,3,22,17,09,12,26,18,15,28,,,,,1.6,0.9,1.4*36
$GPGSV,3,1,12,09,71,299,38,17,46,070,37,12,42,249,35,15,31,187,35*7B
$GPGSV,3,2,12,26,20,174,30,28,15,065,30,22,12,299,21,24,09,084,*73
$GPGSV,3,3,12,18,09,262,25,02,04,116,,05,02,250,35,04,01,122,*79
$GPRMC,130142.000,A,5005.4211,N,01957.5527,E,4.08,34.22,080808,,,A*51
$GPGGA,130143.000,5005.4220,N,01957.5535,E,1,08,0.9,219.3,M,42.0,M,,0000*5E
$GPGSA,A,3,22,17,09,12,26,18,15,28,,,,,1.6,0.9,1.4*36
$GPRMC,130143.000,A,5005.4220,N,01957.5535,E,3.63,29.11,080808,,,A*57
$GPGGA,130144.000,5005.4227,N,01957.5541,E,1,08,0.9,219.2,M,42.0,M,,0000*5C
$GPGSA,A,3,22,17,09,12,26,18,15,28,,,,,1.6,0.9,1.4*36
$GPRMC,130144.000,A,5005.4227,N,01957.5541,E,,29.11,080808,,,A*4C
$GPGGA,130145.000,5005.4232,N,01957.5547,E,1,08,0.9,219.1,M,42.0,M,,0000*5C
$GPGSA,A,3,22,17,09,12,26,18,15,28,,,,,1.6,0.9,1.4*36
$GPRMC,130145.000,A,5005.4232,N,01957.5547,E,,29.11,080808,,,A*4F
$GPGGA,130146.000,5005.4235,N,01957.5552,E,1,08,0.9,219.2,M,42.0,M,,0000*5F
$GPGSA,A,3,22,17,09,12,26,18,15,28,,,,,1.6,0.9,1.4*36
$GPRMC,130146.000,A,5005.4235,N,01957.5552,E,,29.11,080808,,,A*4F
$GPGGA,130147.000,5005.4237,N,01957.5556,E,1,08,0.9,219.7,M,42.0,M,,0000*5D
$GPGSA,A,3,22,17,09,12,26,18,15,28,,,,,1.6,0.9,1.4*36
$GPGSV,3,1,12,09,71,299,38,17,46,070,37,12,42,249,35,15,31,187,35*7B
$GPGSV,3,2,12,26,20,174,31,28,15,065,25,22,12,299,19,24,09,084,*7D
$GPGSV,3,3,12,18,09,262,22,02,04,116,,05,02,250,26,04,01,122,*7C
$GPRMC,130147.000,A,5005.4237,N,01957.5556,E,,29.11,080808,,,A*48
$GPGGA,130148.000,5005.4239,N,01957.5560,E,1,08,0.9,220.1,M,42.0,M,,0000*55
$GPGSA,A,3,22,17,09,12,26,18,15,28,,,,,1.6,0.9,1.4*36
$GPRMC,130148.000,A,5005.4239,N,01957.5560,E,,29.11,080808,,,A*4C
$GPGGA,130149.000,5005.4241,N,01957.5564,E,1,08,0.9,220.7,M,42.0,M,,0000*59
$GPGSA,A,3,22,17,09,12,26,18,15,28,,,,,1.6,0.9,1.4*36
$GPRMC,130149.000,A,5005.4241,N,01957.5564,E,,29.11,080808,,,A*46
$GPGGA,130150.000,5005.4248,N,01957.5573,E,1,08,0.9,221.3,M,42.0,M,,0000*5B
$GPGSA,A,3,22,17,09,12,26,18,15,28,,,,,1.6,0.9,1.4*36
$GPRMC,130150.000,A,5005.4248,N,01957.5573,E,4.42,35.97,080808,,,A*5E
$GPGGA,130151.000,5005.4257,N,01957.5585,E,1,08,0.9,221.7,M,42.0,M,,0000*59
$GPGSA,A,3,22,17,09,12,26,18,15,28,,,,,1.6,0.9,1.4*36
$GPRMC,130151.000,A,5005.4257,N,01957.5585,E,4.61,33.99,080808,,,A*51
$GPGGA,130152.000,5005.4270,N,01957.5600,E,1,08,0.9,222.0,M,42.0,M,,0000*55
$GPGSA,A,3,22,17,09,12,26,18,15,28,,,,,1.6,0.9,1.4*36
$GPGSV,3,1,12,09,71,299,38,17,46,069,37,12,42,249,35,15,31,187,35*73
$GPGSV,3,2,12,26,20,174,31,28,15,065,30,22,12,299,19,24,10,084,*71
$GPGSV,3,3,12,18,08,262,26,14,07,326,,02,05,116,,05,02,250,33*7D
$GPRMC,130152.000,A,5005.4270,N,01957.5600,E,6.80,36.91,080808,,,A*59
$GPGGA,130153.000,5005.4284,N,01957.5619,E,1,08,0.9,222.8,M,42.0,M,,0000*5F
$GPGSA,A,3,22,17,09,12,26,18,15,28,,,,,1.6,0.9,1.4*36
$GPRMC,130153.000,A,5005.4284,N,01957.5619,E,7.58,34.88,080808,,,A*55
$GPGGA,130154.000,5005.4301,N,01957.5638,E,1,07,1.2,223.0,M,42.0,M,,0000*5B
$GPGSA,A,3,22,17,09,12,26,18,15,,,,,,2.1,1.2,1.7*31
$GPRMC,130154.000,A,5005.4301,N,01957.5638,E,7.45,33.48,080808,,,A*5A
$GPGGA,130155.000,5005.4316,N,01957.5655,E,1,08,0.9,223.3,M,42.0,M,,0000*51
$GPGSA,A,3,22,17,09,12,26,18,15,28,,,,,1.6,0.9,1.4*36
$GPRMC,130155.000,A,5005.4316,N,01957.5655,E,6.34,33.64,080808,,,A*5F
$GPGGA,130156.000,5005.4329,N,01957.5671,E,1,08,0.9,224.2,M,42.0,M,,0000*5E
$GPGSA,A,3,22,17,09,12,26,18,15,28,,,,,1.6,0.9,1.4*36
$GPRMC,130156.000,A,5005.4329,N,01957.5671,E,6.24,35.21,080808,,,A*50
$GPGGA,130157.000,5005.4345,N,01957.5689,E,1,08,0.9,225.1,M,42.0,M,,0000*50
$GPGSA,A,3,22,17,09,12,26,18,15,28,,,,,1.6,0.9,1.4*36
$GPGSV,3,1,12,09,71,299,38,17,46,069,37,12,42,249,36,15,31,187,35*70
$GPGSV,3,2,12,26,20,174,27,28,15,065,26,22,12,299,21,24,10,084,*7A
$GPGSV,3,3,12,18,08,262,18,14,07,326,,02,05,116,,05,02,250,35*76
$GPRMC,130157.000,A,5005.4345,N,01957.5689,E,8.43,32.49,080808,,,A*5A
$GPGGA,130158.000,5005.4367,N,01957.5713,E,1,08,0.9,225.7,M,42.0,M,,0000*5B
$GPGSA,A,3,22,17,09,12,26,18,15,28,,,,,1.6,0.9,1.4*36
$GPRMC,130158.000,A,5005.4367,N,01957.5713,E,11.08,30.43,080808,,,A*68
