$GPGGA,130832.000,5006.6156,N,01959.4951,E,1,08,0.9,248.2,M,42.0,M,,0000*56
$GPGSA,A,3,22,17,09,12,26,18,15,28,,,,,1.6,0.9,1.3*31
$GPRMC,130832.000,A,5006.6156,N,01959.4951,E,16.34,48.10,080808,,,A*6A
$GPGGA,130833.000,5006.6180,N,01959.4992,E,1,08,0.9,248.9,M,42.0,M,,0000*58
$GPGSA,A,3,22,17,09,12,26,18,15,28,,,,,1.6,0.9,1.3*31
$GPRMC,130833.000,A,5006.6180,N,01959.4992,E,12.15,49.47,080808,,,A*6B
$GPGGA,130834.000,5006.6198,N,01959.5024,E,1,08,0.9,249.8,M,42.0,M,,0000*53
$GPGSA,A,3,22,17,09,12,26,18,15,28,,,,,1.6,0.9,1.3*31
$GPRMC,130834.000,A,5006.6198,N,01959.5024,E,10.06,49.93,080808,,,A*69
$GPGGA,130835.000,5006.6215,N,01959.5051,E,1,08,0.9,250.2,M,42.0,M,,0000*54
$GPGSA,A,3,22,17,09,12,26,18,15,28,,,,,1.6,0.9,1.3*31
$GPGSV,3,1,11,09,74,298,37,17,45,066,37,12,45,251,37,15,28,187,36*70
$GPGSV,3,2,11,26,17,174,28,28,12,066,32,22,11,296,18,14,10,326,13*7F
$GPGSV,3,3,11,18,07,260,21,30,04,251,16,04,03,120,22*42
$GPRMC,130835.000,A,5006.6215,N,01959.5051,E,9.27,48.61,080808,,,A*5B
$GPGGA,130836.000,5006.6232,N,01959.5077,E,1,08,0.9,250.5,M,42.0,M,,0000*51
$GPGSA,A,3,22,17,09,12,26,18,15,28,,,,,1.6,0.9,1.3*31
$GPRMC,130836.000,A,5006.6232,N,01959.5077,E,8.95,48.90,080808,,,A*5F
$GPGGA,130837.000,5006.6247,N,01959.5102,E,1,07,1.1,250.8,M,42.0,M,,0000*5A
$GPGSA,A,3,17,09,12,26,18,15,28,,,,,,1.8,1.1,1.4*31
$GPRMC,130837.000,A,5006.6247,N,01959.5102,E,8.44,50.15,080808,,,A*57
$GPGGA,130838.000,5006.6260,N,01959.5125,E,1,07,1.1,251.1,M,42.0,M,,0000*5D
$GPGSA,A,3,17,09,12,26,18,15,28,,,,,,1.8,1.1,1.4*31
$GPRMC,130838.000,A,5006.6260,N,01959.5125,E,7.47,52.48,080808,,,A*5E
$GPGGA,130839.000,5006.6272,N,01959.5148,E,1,07,1.1,251.3,M,42.0,M,,0000*56
$GPGSA,A,3,17,09,12,26,18,15,28,,,,,,1.8,1.1,1.4*31
$GPRMC,130839.000,A,5006.6272,N,01959.5148,E,7.36,53.23,080808,,,A*5D
$GPGGA,130840.000,5006.6283,N,01959.5174,E,1,08,0.9,251.2,M,42.0,M,,0000*5E
$GPGSA,A,3,22,17,09,12,26,18,15,28,,,,,1.6,0.9,1.3*31
$GPGSV,3,1,11,09,74,298,38,12,45,251,37,17,45,066,37,15,28,187,36*7F
$GPGSV,3,2,11,26,17,174,34,28,12,066,32,22,11,296,17,14,10,325,*7C
$GPGSV,3,3,11,18,06,260,19,30,04,251,16,04,04,120,32*4E
$GPRMC,130840.000,A,5006.6283,N,01959.5174,E,8.25,62.25,080808,,,A*5B
$GPGGA,130841.000,5006.6291,N,01959.5206,E,1,08,0.9,251.1,M,42.0,M,,0000*59
$GPGSA,A,3,22,17,09,12,26,18,15,28,,,,,1.6,0.9,1.3*31
$GPRMC,130841.000,A,5006.6291,N,01959.5206,E,8.66,76.70,080808,,,A*5D
$GPGGA,130842.000,5006.6291,N,01959.5247,E,1,08,0.9,251.2,M,42.0,M,,0000*5C
$GPGSA,A,3,22,17,09,12,26,18,15,28,,,,,1.6,0.9,1.3*31
$GPRMC,130842.000,A,5006.6291,N,01959.5247,E,10.72,94.91,080808,,,A*64
$GPGGA,130843.000,5006.6283,N,01959.5292,E,1,08,0.9,250.5,M,42.0,M,,0000*50
$GPGSA,A,3,22,17,09,12,26,18,15,28,,,,,1.6,0.9,1.3*31
$GPRMC,130843.000,A,5006.6283,N,01959.5292,E,11.63,111.03,080808,,,A*58
$GPGGA,130844.000,5006.6265,N,01959.5336,E,1,08,0.9,250.0,M,42.0,M,,0000*55
$GPGSA,A,3,22,17,09,12,26,18,15,28,,,,,1.6,0.9,1.3*31
$GPRMC,130844.000,A,5006.6265,N,01959.5336,E,12.86,127.24,080808,,,A*50
$GPGGA,130845.000,5006.6239,N,01959.5377,E,1,08,0.9,249.5,M,42.0,M,,0000*55
$GPGSA,A,3,22,17,09,12,26,18,15,28,,,,,1.6,0.9,1.3*31
$GPGSV,3,1,11,09,74,298,37,12,45,251,38,17,45,066,36,15,28,187,36*7E
$GPGSV,3,2,11,26,17,174,29,28,12,066,27,22,11,296,26,14,10,325,*76
$GPGSV,3,3,11,18,06,260,18,30,04,251,15,04,04,120,28*47
$GPRMC,130845.000,A,5006.6239,N,01959.5377,E,13.92,136.94,080808,,,A*52
$GPGGA,130846.000,5006.6209,N,01959.5417,E,1,08,0.9,248.7,M,42.0,M,,0000*57
$GPGSA,A,3,22,17,09,12,26,18,15,28,,,,,1.6,0.9,1.3*31
$GPRMC,130846.000,A,5006.6209,N,01959.5417,E,14.41,137.46,080808,,,A*54
$GPGGA,130847.000,5006.6177,N,01959.5456,E,1,08,0.9,247.8,M,42.0,M,,0000*59
$GPGSA,A,3,22,17,09,12,26,18,15,28,,,,,1.6,0.9,1.3*31
$GPRMC,130847.000,A,5006.6177,N,01959.5456,E,15.51,142.15,080808,,,A*5E
$GPGGA,130848.000,5006.6139,N,01959.5498,E,1,08,0.9,246.7,M,42.0,M,,0000*50
$GPGSA,A,3,22,17,09,12,26,18,15,28,,,,,1.6,0.9,1.3*31
$GPRMC,130848.000,A,5006.6139,N,01959.5498,E,17.98,144.39,080808,,,A*56
$GPGGA,130849.000,5006.6093,N,01959.5545,E,1,08,0.9,245.7,M,42.0,M,,0000*52
$GPGSA,A,3,22,17,09,12,26,18,15,28,,,,,1.6,0.9,1.3*31
$GPRMC,130849.000,A,5006.6093,N,01959.5545,E,20.75,145.07,080808,,,A*5C
$GPGGA,130850.000,5006.6041,N,01959.5599,E,1,07,1.0,244.9,M,42.0,M,,0000*5C
$GPGSA,A,3,22,17,09,12,26,15,28,,,,,,1.7,1.0,1.4*36
$GPGSV,3,1,11,09,74,298,38,12,45,251,35,17,45,066,36,15,28,187,32*78
$GPGSV,3,2,11,26,17,174,26,28,12,066,27,22,11,296,19,14,10,325,21*76
$GPGSV,3,3,11,18,06,260,14,30,04,251,13,04,04,120,31*45
$GPRMC,130850.000,A,5006.6041,N,01959.5599,E,23.17,145.85,080808,,,A*57
$GPGGA,130851.000,5006.5985,N,01959.5657,E,1,07,1.0,244.4,M,42.0,M,,0000*53
$GPGSA,A,3,22,17,09,12,26,15,28,,,,,,1.7,1.0,1.4*36
$GPRMC,130851.000,A,5006.5985,N,01959.5657,E,24.29,145.38,080808,,,A*59
$GPGGA,130852.000,5006.5927,N,01959.5717,E,1,07,1.0,243.7,M,42.0,M,,0000*59
$GPGSA,A,3,22,17,09,12,26,15,28,,,,,,1.7,1.0,1.4*36
$GPRMC,130852.000,A,5006.5927,N,01959.5717,E,24.83,146.30,080808,,,A*5C
$GPGGA,130853.000,5006.5869,N,01959.5776,E,1,07,1.0,242.7,M,42.0,M,,0000*55
$GPGSA,A,3,22,17,09,12,26,15,28,,,,,,1.7,1.0,1.4*36
$GPRMC,130853.000,A,5006.5869,N,01959.5776,E,25.12,146.56,080808,,,A*58
$GPGGA,130854.000,5006.5809,N,01959.5833,E,1,07,1.0,241.9,M,42.0,M,,0000*57
$GPGSA,A,3,22,17,09,12,26,15,28,,,,,,1.7,1.0,1.4*36
$GPRMC,130854.000,A,5006.5809,N,01959.5833,E,24.85,148.42,080808,,,A*53
$GPGGA,130855.000,5006.5751,N,01959.5883,E,1,08,0.9,240.4,M,42.0,M,,0000*54
$GPGSA,A,3,22,17,09,12,26,18,15,28,,,,,1.6,0.9,1.3*31
$GPGSV,3,1,11,09,74,298,38,12,45,251,37,17,45,066,36,15,28,187,33*7B
$GPGSV,3,2,11,26,17,174,33,28,12,066,23,22,11,296,18,14,10,325,29*7F
$GPGSV,3,3,11,18,06,260,20,30,04,251,,04,04,120,19*4A
$GPRMC,130855.000,A,5006.5751,N,01959.5883,E,24.05,151.60,080808,,,A*5B
$GPGGA,130856.000,5006.5692,N,01959.5931,E,1,08,0.9,239.2,M,42.0,M,,0000*59
$GPGSA,A,3,22,17,09,12,26,18,15,28,,,,,1.5,0.9,1.3*32
$GPRMC,130856.000,A,5006.5692,N,01959.5931,E,23.75,151.74,080808,,,A*5B
$GPGGA,130857.000,5006.5631,N,01959.5976,E,1,08,0.9,238.5,M,42.0,M,,0000*54
$GPGSA,A,3,22,17,09,12,26,18,15,28,,,,,1.5,0.9,1.3*32
$GPRMC,130857.000,A,5006.5631,N,01959.5976,E,24.62,155.13,080808,,,A*54
$GPGGA,130858.000,5006.5565,N,01959.6021,E,1,08,0.9,238.1,M,42.0,M,,0000*55
$GPGSA,A,3,22,17,09,12,26,18,15,28,,,,,1.5,0.9,1.3*32
$GPRMC,130858.000,A,5006.5565,N,01959.6021,E,25.97,156.20,080808,,,A*59
$GPGGA,130859.000,5006.5498,N,01959.6066,E,1,08,0.9,237.8,M,42.0,M,,0000*52
$GPGSA,A,3,22,17,09,12,26,18,15,28,,,,,1.5,0.9,1.3*32
$GPRMC,130859.000,A,5006.5498,N,01959.6066,E,25.79,155.62,080808,,,A*5D
$GPGGA,130900.000,5006.5432,N,01959.6111,E,1,08,0.9,237.4,M,42.0,M,,0000*52
$GPGSA,A,3,22,17,09,12,26,18,15,28,,,,,1.5,0.9,1.3*32
$GPGSV,3,1,11,09,74,298,37,12,45,251,38,17,45,066,37,15,28,187,34*7D
$GPGSV,3,2,11,26,17,174,34,28,12,066,20,22,11,296,28,14,10,325,29*78
$GPGSV,3,3,11,18,06,260,31,30,04,251,27,04,04,120,21*44
$GPRMC,130900.000,A,5006.5432,N,01959.6111,E,25.17,155.69,080808,,,A*52
$GPGGA,130901.000,5006.5368,N,01959.6154,E,1,08,0.9,237.1,M,42.0,M,,0000*5F
$GPGSA,A,3,22,17,09,12,26,18,15,28,,,,,1.5,0.9,1.3*32
$GPRMC,130901.000,A,5006.5368,N,01959.6154,E,24.87,156.25,080808,,,A*59
$GPGGA,130902.000,5006.5305,N,01959.6196,E,1,08,0.9,236.6,M,42.0,M,,0000*5F
$GPGSA,A,3,22,17,09,12,26,18,15,28,,,,,1.5,0.9,1.3*32
$GPRMC,130902.000,A,5006.5305,N,01959.6196,E,24.43,156.18,080808,,,A*59
$GPGGA,130903.000,5006.5243,N,01959.6238,E,1,08,0.9,236.1,M,42.0,M,,0000*5D
$GPGSA,A,3,22,17,09,12,26,18,15,28,,,,,1.5,0.9,1.3*32
$GPRMC,130903.000,A,5006.5243,N,01959.6238,E,23.98,155.54,080808,,,A*56
$GPGGA,130904.000,5006.5184,N,01959.6280,E,1,08,0.9,235.6,M,42.0,M,,0000*55
$GPGSA,A,3,22,17,09,12,26,18,15,28,,,,,1.5,0.9,1.3*32
$GPRMC,130904.000,A,5006.5184,N,01959.6280,E,23.62,154.65,080808,,,A*5C
$GPGGA,130905.000,5006.5124,N,01959.6323,E,1,08,0.9,235.1,M,42.0,M,,0000*51
$GPGSA,A,3,22,17,09,12,26,18,15,28,,,,,1.5,0.9,1.3*32
$GPGSV,3,1,11,09,74,298,37,12,45,251,38,17,45,066,37,15,28,187,33*7A
$GPGSV,3,2,11,26,17,174,16,28,12,066,25,22,11,296,29,14,10,325,29*7C
$GPGSV,3,3,11,18,06,260,30,30,04,251,22,04,04,120,22*43
$GPRMC,130905.000,A,5006.5124,N,01959.6323,E,24.20,154.72,080808,,,A*58
$GPGGA,130906.000,5006.5060,N,01959.6369,E,1,07,1.0,234.5,M,42.0,M,,0000*5F
$GPGSA,A,3,22,17,09,12,26,15,28,,,,,,1.7,1.0,1.4*36
$GPRMC,130906.000,A,5006.5060,N,01959.6369,E,26.02,155.39,080808,,,A*58
$GPGGA,130907.000,5006.4996,N,01959.6413,E,1,07,1.0,234.3,M,42.0,M,,0000*53
$GPGSA,A,3,22,17,09,12,26,15,28,,,,,,1.7,1.0,1.4*36
$GPRMC,130907.000,A,5006.4996,N,01959.6413,E,24.85,155.94,080808,,,A*58
$GPGGA,130908.000,5006.4933,N,01959.6455,E,1,08,0.9,234.3,M,42.0,M,,0000*56
$GPGSA,A,3,22,17,09,12,26,18,15,28,,,,,1.5,0.9,1.3*32
$GPRMC,130908.000,A,5006.4933,N,01959.6455,E,23.85,156.39,080808,,,A*59
$GPGGA,130909.000,5006.4875,N,01959.6495,E,1,08,0.9,234.3,M,42.0,M,,0000*58
$GPGSA,A,3,22,17,09,12,26,18,15,28,,,,,1.5,0.9,1.3*32
$GPRMC,130909.000,A,5006.4875,N,01959.6495,E,22.13,155.08,080808,,,A*58
$GPGGA,130910.000,5006.4822,N,01959.6534,E,1,08,0.9,234.5,M,42.0,M,,0000*5E
$GPGSA,A,3,22,17,09,12,26,18,15,28,,,,,1.5,0.9,1.3*32
$GPGSV,3,1,11,09,75,297,36,12,45,252,36,17,45,065,37,15,28,187,31*79
$GPGSV,3,2,11,26,17,174,20,28,12,066,15,22,11,296,14,14,10,325,*7F
$GPGSV,3,3,11,18,06,260,21,30,04,251,12,04,04,119,17*4C
$GPRMC,130910.000,A,5006.4822,N,01959.6534,E,21.08,154.72,080808,,,A*5D
$GPGGA,130911.000,5006.4771,N,01959.6572,E,1,08,0.9,234.6,M,42.0,M,,0000*57
$GPGSA,A,3,22,17,09,12,26,18,15,28,,,,,1.5,0.9,1.3*32
$GPRMC,130911.000,A,5006.4771,N,01959.6572,E,20.05,153.87,080808,,,A*56
$GPGGA,130912.000,5006.4728,N,01959.6609,E,1,08,0.9,234.9,M,42.0,M,,0000*58
$GPGSA,A,3,22,17,09,12,26,18,15,28,,,,,1.5,0.9,1.3*32
$GPRMC,130912.000,A,5006.4728,N,01959.6609,E,17.69,149.24,080808,,,A*5A
$GPGGA,130913.000,5006.4695,N,01959.6651,E,1,08,0.9,234.9,M,42.0,M,,0000*53
$GPGSA,A,3,22,17,09,12,26,18,15,28,,,,,1.5,0.9,1.3*32
$GPRMC,130913.000,A,5006.4695,N,01959.6651,E,16.52,139.69,080808,,,A*56
$GPGGA,130914.000,5006.4670,N,01959.6707,E,1,07,1.1,234.4,M,42.0,M,,0000*56
$GPGSA,A,3,22,17,09,12,18,15,28,,,,,,1.7,1.1,1.3*3D
$GPRMC,130914.000,A,5006.4670,N,01959.6707,E,17.12,122.65,080808,,,A*5B
$GPGGA,130915.000,5006.4652,N,01959.6779,E,1,07,1.1,234.2,M,42.0,M,,0000*58
$GPGSA,A,3,22,17,09,12,18,15,28,,,,,,1.7,1.1,1.3*3D
$GPGSV,3,1,11,09,75,297,37,12,45,252,37,17,45,065,36,15,28,187,13*78
$GPGSV,3,2,11,26,17,174,08,28,12,066,31,22,11,296,27,14,10,325,25*74
$GPGSV,3,3,11,18,06,260,17,30,04,251,,04,04,119,22*4C
$GPRMC,130915.000,A,5006.4652,N,01959.6779,E,19.12,111.27,080808,,,A*5B
$GPGGA,130916.000,5006.4654,N,01959.6858,E,1,08,0.9,234.4,M,42.0,M,,0000*51
$GPGSA,A,3,22,17,09,12,26,18,15,28,,,,,1.5,0.9,1.3*32
$GPRMC,130916.000,A,5006.4654,N,01959.6858,E,19.77,95.72,080808,,,A*6C
$GPGGA,130917.000,5006.4678,N,01959.6938,E,1,08,0.9,234.6,M,42.0,M,,0000*5B
$GPGSA,A,3,22,17,09,12,26,18,15,28,,,,,1.5,0.9,1.3*32
$GPRMC,130917.000,A,5006.4678,N,01959.6938,E,20.83,80.07,080808,,,A*63
$GPGGA,130918.000,5006.4691,N,01959.7033,E,1,08,0.9,234.6,M,42.0,M,,0000*50
$GPGSA,A,3,22,17,09,12,26,18,15,28,,,,,1.5,0.9,1.3*32
$GPRMC,130918.000,A,5006.4691,N,01959.7033,E,23.05,82.97,080808,,,A*6E
$GPGGA,130919.000,5006.4704,N,01959.7138,E,1,08,0.9,234.9,M,42.0,M,,0000*59
$GPGSA,A,3,22,17,09,12,26,18,15,28,,,,,1.5,0.9,1.3*32
$GPRMC,130919.000,A,5006.4704,N,01959.7138,E,25.33,84.41,080808,,,A*66
$GPGGA,130920.000,5006.4713,N,01959.7251,E,1,07,1.1,235.0,M,42.0,M,,0000*57
$GPGSA,A,3,22,17,09,12,18,15,28,,,,,,1.7,1.1,1.3*3D
$GPGSV,3,1,11,09,75,297,37,12,45,252,38,17,45,065,36,15,28,187,23*74
$GPGSV,3,2,11,26,17,174,13,28,12,066,24,22,11,296,27,14,10,325,26*79
$GPGSV,3,3,11,04,06,117,13,18,06,260,25,30,04,251,*43
$GPRMC,130920.000,A,5006.4713,N,01959.7251,E,26.65,83.99,080808,,,A*64
$GPGGA,130921.000,5006.4719,N,01959.7369,E,1,08,0.9,235.3,M,42.0,M,,0000*53
$GPGSA,A,3,22,17,09,12,26,18,15,28,,,,,1.5,0.9,1.3*32
$GPRMC,130921.000,A,5006.4719,N,01959.7369,E,27.09,87.56,080808,,,A*69
$GPGGA,130922.000,5006.4719,N,01959.7491,E,1,07,1.1,235.2,M,42.0,M,,0000*57
$GPGSA,A,3,17,09,12,26,18,15,28,,,,,,1.7,1.1,1.4*3E
$GPRMC,130922.000,A,5006.4719,N,01959.7491,E,28.18,92.25,080808,,,A*65
$GPGGA,130923.000,5006.4713,N,01959.7618,E,1,08,0.9,235.4,M,42.0,M,,0000*5F
$GPGSA,A,3,22,17,09,12,26,18,15,28,,,,,1.5,0.9,1.3*32
$GPRMC,130923.000,A,5006.4713,N,01959.7618,E,29.74,96.05,080808,,,A*60
$GPGGA,130924.000,5006.4704,N,01959.7750,E,1,08,0.9,235.6,M,42.0,M,,0000*51
$GPGSA,A,3,22,17,09,12,26,18,15,28,,,,,1.5,0.9,1.3*32
$GPRMC,130924.000,A,5006.4704,N,01959.7750,E,31.06,97.54,080808,,,A*65
$GPGGA,130925.000,5006.4695,N,01959.7887,E,1,08,0.9,235.9,M,42.0,M,,0000*53
$GPGSA,A,3,22,17,09,12,26,18,15,28,,,,,1.5,0.9,1.3*32
$GPGSV,3,1,11,09,75,297,37,12,45,252,38,17,45,065,36,15,28,187,37*71
$GPGSV,3,2,11,26,17,174,35,28,12,066,34,22,11,296,31,14,10,325,26*7B
$GPGSV,3,3,11,04,06,117,34,18,06,260,13,30,04,251,*43
$GPRMC,130925.000,A,5006.4695,N,01959.7887,E,32.46,96.66,080808,,,A*6F
$GPGGA,130926.000,5006.4687,N,01959.8032,E,1,08,0.9,236.3,M,42.0,M,,0000*53
$GPGSA,A,3,22,17,09,12,26,18,15,28,,,,,1.5,0.9,1.3*32
$GPRMC,130926.000,A,5006.4687,N,01959.8032,E,34.11,95.45,080808,,,A*60
$GPGGA,130927.000,5006.4681,N,01959.8181,E,1,08,0.9,236.5,M,42.0,M,,0000*5B
$GPGSA,A,3,22,17,09,12,26,18,15,28,,,,,1.5,0.9,1.3*32
$GPRMC,130927.000,A,5006.4681,N,01959.8181,E,34.83,93.83,080808,,,A*69
$GPGGA,130928.000,5006.4677,N,01959.8331,E,1,08,0.9,236.8,M,42.0,M,,0000*59
$GPGSA,A,3,22,17,09,12,26,18,15,28,,,,,1.5,0.9,1.3*32
$GPRMC,130928.000,A,5006.4677,N,01959.8331,E,34.13,92.43,080808,,,A*62
$GPGGA,130929.000,5006.4675,N,01959.8476,E,1,08,0.9,236.8,M,42.0,M,,0000*5E
$GPGSA,A,3,22,17,09,12,26,18,15,28,,,,,1.5,0.9,1.3*32
$GPRMC,130929.000,A,5006.4675,N,01959.8476,E,33.03,91.71,080808,,,A*61
$GPGGA,130930.000,5006.4674,N,01959.8618,E,1,08,0.9,236.8,M,42.0,M,,0000*5D
$GPGSA,A,3,22,17,09,12,26,18,15,28,,,,,1.5,0.9,1.3*32
$GPGSV,3,1,11,09,75,297,37,12,45,252,39,17,45,065,36,15,28,187,38*7F
$GPGSV,3,2,11,26,17,174,35,28,12,066,34,22,11,296,32,14,10,325,28*76
$GPGSV,3,3,11,04,06,117,31,18,06,260,27,30,04,251,29*4A
$GPRMC,130930.000,A,5006.4674,N,01959.8618,E,32.12,91.71,080808,,,A*63
$GPGGA,130931.000,5006.4672,N,01959.8754,E,1,08,0.9,236.8,M,42.0,M,,0000*53
$GPGSA,A,3,22,17,09,12,26,18,15,28,,,,,1.5,0.9,1.3*32
$GPRMC,130931.000,A,5006.4672,N,01959.8754,E,31.07,91.50,080808,,,A*69
$GPGGA,130932.000,5006.4672,N,01959.8882,E,1,08,0.9,236.8,M,42.0,M,,0000*54
$GPGSA,A,3,22,17,09,12,26,18,15,28,,,,,1.5,0.9,1.3*32
$GPRMC,130932.000,A,5006.4672,N,01959.8882,E,28.36,91.08,080808,,,A*69
$GPGGA,130933.000,5006.4671,N,01959.8997,E,1,08,0.9,236.8,M,42.0,M,,0000*53
$GPGSA,A,3,22,17,09,12,26,18,15,28,,,,,1.5,0.9,1.3*32
$GPRMC,130933.000,A,5006.4671,N,01959.8997,E,25.36,91.30,080808,,,A*68
$GPGGA,130934.000,5006.4670,N,01959.9104,E,1,08,0.9,236.8,M,42.0,M,,0000*56
$GPGSA,A,3,22,17,09,12,26,18,15,28,,,,,1.5,0.9,1.3*32
$GPRMC,130934.000,A,5006.4670,N,01959.9104,E,24.34,90.66,080808,,,A*6C
$GPGGA,130935.000,5006.4671,N,01959.9210,E,1,08,0.9,236.7,M,42.0,M,,0000*5F
$GPGSA,A,3,22,17,09,12,26,18,15,28,,,,,1.5,0.9,1.3*32
$GPGSV,3,1,11,09,75,297,37,12,45,252,39,17,45,065,36,15,28,187,38*7F
$GPGSV,3,2,11,26,17,174,35,28,12,066,34,22,11,296,32,14,10,325,28*76
$GPGSV,3,3,11,04,06,117,30,18,06,260,28,30,04,251,26*4B
$GPRMC,130935.000,A,5006.4671,N,01959.9210,E,25.03,89.85,080808,,,A*6A
$GPGGA,130936.000,5006.4672,N,01959.9320,E,1,08,0.9,236.8,M,42.0,M,,0000*52
$GPGSA,A,3,22,17,09,12,26,18,15,28,,,,,1.5,0.9,1.3*32
$GPRMC,130936.000,A,5006.4672,N,01959.9320,E,25.81,89.58,080808,,,A*62
$GPGGA,130937.000,5006.4672,N,01959.9434,E,1,08,0.9,236.8,M,42.0,M,,0000*51
$GPGSA,A,3,22,17,09,12,26,18,15,28,,,,,1.5,0.9,1.3*32
$GPRMC,130937.000,A,5006.4672,N,01959.9434,E,26.85,90.92,080808,,,A*68
$GPGGA,130938.000,5006.4670,N,01959.9553,E,1,08,0.9,236.8,M,42.0,M,,0000*5C
$GPGSA,A,3,22,17,09,12,26,18,15,28,,,,,1.5,0.9,1.3*32
$GPRMC,130938.000,A,5006.4670,N,01959.9553,E,28.14,92.05,080808,,,A*6F
$GPGGA,130939.000,5006.4665,N,01959.9678,E,1,08,0.9,236.8,M,42.0,M,,0000*53
$GPGSA,A,3,22,17,09,12,26,18,15,28,,,,,1.5,0.9,1.3*32
$GPRMC,130939.000,A,5006.4665,N,01959.9678,E,29.90,94.77,080808,,,A*6E
$GPGGA,130940.000,5006.4656,N,01959.9811,E,1,08,0.9,236.9,M,42.0,M,,0000*5D
$GPGSA,A,3,22,17,09,12,26,18,15,28,,,,,1.5,0.9,1.3*32
$GPGSV,3,1,11,09,75,297,37,12,45,252,39,17,45,065,36,15,27,187,38*70
$GPGSV,3,2,11,26,17,174,35,28,12,067,34,22,11,296,32,14,10,325,29*76
$GPGSV,3,3,11,04,06,117,30,18,06,259,28,30,04,251,28*4F
$GPRMC,130940.000,A,5006.4656,N,01959.9811,E,31.88,97.09,080808,,,A*6B
$GPGGA,130941.000,5006.4644,N,01959.9953,E,1,08,0.9,236.9,M,42.0,M,,0000*58
$GPGSA,A,3,22,17,09,12,26,18,15,28,,,,,1.5,0.9,1.3*32
$GPRMC,130941.000,A,5006.4644,N,01959.9953,E,33.97,97.61,080808,,,A*6C
$GPGGA,130942.000,5006.4631,N,02000.0103,E,1,08,0.9,237.0,M,42.0,M,,0000*53
$GPGSA,A,3,22,17,09,12,26,18,15,28,,,,,1.5,0.9,1.3*32
$GPRMC,130942.000,A,5006.4631,N,02000.0103,E,35.59,97.86,080808,,,A*62
$GPGGA,130943.000,5006.4617,N,02000.0256,E,1,08,0.9,237.0,M,42.0,M,,0000*55
$GPGSA,A,3,22,17,09,12,26,18,15,28,,,,,1.5,0.9,1.3*32
$GPRMC,130943.000,A,5006.4617,N,02000.0256,E,35.37,98.26,080808,,,A*69
$GPGGA,130944.000,5006.4603,N,02000.0407,E,1,06,2.1,237.1,M,42.0,M,,0000*50
$GPGSA,A,3,22,17,09,12,18,28,,,,,,,2.5,2.1,1.4*3C
$GPRMC,130944.000,A,5006.4603,N,02000.0407,E,35.41,97.88,080808,,,A*63
$GPGGA,130945.000,5006.4588,N,02000.0562,E,1,07,1.0,237.0,M,42.0,M,,0000*51
$GPGSA,A,3,22,17,09,12,26,15,28,,,,,,1.7,1.0,1.4*36
$GPGSV,3,1,11,09,75,297,37,12,45,252,39,17,45,065,36,15,27,187,22*7B
$GPGSV,3,2,11,26,17,174,23,28,12,067,34,22,11,296,29,14,10,325,28*7A
$GPGSV,3,3,11,04,06,117,26,18,06,259,20,30,04,251,16*4D
$GPRMC,130945.000,A,5006.4588,N,02000.0562,E,36.33,98.36,080808,,,A*6C
$GPGGA,130946.000,5006.4575,N,02000.0716,E,1,08,0.9,237.1,M,42.0,M,,0000*57
$GPGSA,A,3,22,17,09,12,26,18,15,28,,,,,1.5,0.9,1.3*32
$GPRMC,130946.000,A,5006.4575,N,02000.0716,E,35.50,97.33,080808,,,A*60
$GPGGA,130947.000,5006.4563,N,02000.0866,E,1,08,0.9,237.2,M,42.0,M,,0000*5A
$GPGSA,A,3,22,17,09,12,26,18,15,28,,,,,1.5,0.9,1.3*32
$GPRMC,130947.000,A,5006.4563,N,02000.0866,E,34.61,96.65,080808,,,A*6F
$GPGGA,130948.000,5006.4554,N,02000.1013,E,1,08,0.9,237.3,M,42.0,M,,0000*5B
$GPGSA,A,3,22,17,09,12,26,18,15,28,,,,,1.5,0.9,1.3*32
$GPRMC,130948.000,A,5006.4554,N,02000.1013,E,33.67,95.15,080808,,,A*6A
$GPGGA,130949.000,5006.4546,N,02000.1156,E,1,08,0.9,237.5,M,42.0,M,,0000*5F
$GPGSA,A,3,22,17,09,12,26,18,15,28,,,,,1.5,0.9,1.3*32
$GPRMC,130949.000,A,5006.4546,N,02000.1156,E,32.78,94.54,080808,,,A*63
$GPGGA,130950.000,5006.4541,N,02000.1295,E,1,08,0.9,237.6,M,42.0,M,,0000*5F
$GPGSA,A,3,22,17,09,12,26,18,15,28,,,,,1.5,0.9,1.3*32
$GPGSV,3,1,11,09,75,297,37,12,45,252,39,17,45,065,36,15,27,187,37*7F
$GPGSV,3,2,11,26,17,174,34,28,12,067,24,22,11,296,29,14,10,325,28*7D
$GPGSV,3,3,11,04,06,117,30,18,06,259,29,30,04,251,22*44
$GPRMC,130950.000,A,5006.4541,N,02000.1295,E,31.93,93.06,080808,,,A*66
$GPGGA,130951.000,5006.4536,N,02000.1429,E,1,08,0.9,237.8,M,42.0,M,,0000*51
$GPGSA,A,3,22,17,09,12,26,18,15,28,,,,,1.5,0.9,1.3*32
$GPRMC,130951.000,A,5006.4536,N,02000.1429,E,30.32,93.48,080808,,,A*66
$GPGGA,130952.000,5006.4532,N,02000.1556,E,1,08,0.9,238.0,M,42.0,M,,0000*58
$GPGSA,A,3,22,17,09,12,26,18,15,28,,,,,1.5,0.9,1.2*33
$GPRMC,130952.000,A,5006.4532,N,02000.1556,E,29.07,93.27,080808,,,A*6F
$GPGGA,130953.000,5006.4527,N,02000.1678,E,1,08,0.9,238.3,M,42.0,M,,0000*51
$GPGSA,A,3,22,17,09,12,26,18,15,28,,,,,1.5,0.9,1.2*33
$GPRMC,130953.000,A,5006.4527,N,02000.1678,E,27.67,93.27,080808,,,A*6D
$GPGGA,130954.000,5006.4524,N,02000.1794,E,1,08,0.9,238.5,M,42.0,M,,0000*50
$GPGSA,A,3,22,17,09,12,26,18,15,28,,,,,1.5,0.9,1.2*33
$GPRMC,130954.000,A,5006.4524,N,02000.1794,E,26.36,91.67,080808,,,A*69
$GPGGA,130955.000,5006.4523,N,02000.1905,E,1,08,0.9,238.5,M,42.0,M,,0000*50
$GPGSA,A,3,22,17,09,12,26,18,15,28,,,,,1.5,0.9,1.2*33
$GPGSV,3,1,11,09,75,297,37,12,45,252,39,17,45,065,36,15,27,187,37*7F
$GPGSV,3,2,11,26,17,174,34,28,12,067,32,22,11,296,27,14,10,325,26*7A
$GPGSV,3,3,11,04,06,117,30,18,06,259,28,30,04,251,24*43
$GPRMC,130955.000,A,5006.4523,N,02000.1905,E,25.52,90.40,080808,,,A*6C
$GPGGA,130956.000,5006.4525,N,02000.2012,E,1,08,0.9,238.6,M,42.0,M,,0000*5A
$GPGSA,A,3,22,17,09,12,26,18,15,28,,,,,1.5,0.9,1.2*33
$GPRMC,130956.000,A,5006.4525,N,02000.2012,E,24.76,87.79,080808,,,A*6E
$GPGGA,130957.000,5006.4531,N,02000.2118,E,1,08,0.9,238.8,M,42.0,M,,0000*5B
$GPGSA,A,3,22,17,09,12,26,18,15,28,,,,,1.5,0.9,1.2*33
$GPRMC,130957.000,A,5006.4531,N,02000.2118,E,24.58,83.75,080808,,,A*65
$GPGGA,130958.000,5006.4545,N,02000.2221,E,1,08,0.9,239.0,M,42.0,M,,0000*57
$GPGSA,A,3,22,17,09,12,26,18,15,28,,,,,1.5,0.9,1.2*33
$GPRMC,130958.000,A,5006.4545,N,02000.2221,E,24.84,74.75,080808,,,A*69
$GPGGA,130959.000,5006.4567,N,02000.2319,E,1,08,0.9,239.3,M,42.0,M,,0000*5F
$GPGSA,A,3,22,17,09,12,26,18,15,28,,,,,1.5,0.9,1.2*33
$GPRMC,130959.000,A,5006.4567,N,02000.2319,E,23.88,68.25,080808,,,A*61
$GPGGA,131000.000,5006.4594,N,02000.2410,E,1,08,0.9,239.6,M,42.0,M,,0000*5C
$GPGSA,A,3,22,17,09,12,26,18,15,28,,,,,1.5,0.9,1.2*33
$GPGSV,3,1,11,09,75,297,37,12,45,252,39,17,45,065,36,15,27,187,37*7F
$GPGSV,3,2,11,26,17,174,34,28,12,067,33,22,11,296,34,14,10,325,29*76
$GPGSV,3,3,11,04,06,117,27,18,06,259,29,30,04,251,30*41
$GPRMC,131000.000,A,5006.4594,N,02000.2410,E,22.48,65.28,080808,,,A*6A
$GPGGA,131001.000,5006.4619,N,02000.2494,E,1,08,0.9,239.9,M,42.0,M,,0000*58
$GPGSA,A,3,22,17,09,12,26,18,15,28,,,,,1.5,0.9,1.2*33
$GPRMC,131001.000,A,5006.4619,N,02000.2494,E,20.89,65.43,080808,,,A*63
$GPGGA,131002.000,5006.4641,N,02000.2571,E,1,08,0.9,240.2,M,42.0,M,,0000*59
$GPGSA,A,3,22,17,09,12,26,18,15,28,,,,,1.5,0.9,1.2*33
$GPRMC,131002.000,A,5006.4641,N,02000.2571,E,18.83,69.76,080808,,,A*6C
$GPGGA,131003.000,5006.4654,N,02000.2640,E,1,08,0.9,240.5,M,42.0,M,,0000*5A
$GPGSA,A,3,22,17,09,12,26,18,15,28,,,,,1.5,0.9,1.2*33
$GPRMC,131003.000,A,5006.4654,N,02000.2640,E,15.53,77.55,080808,,,A*66
$GPGGA,131004.000,5006.4658,N,02000.2697,E,1,08,0.9,240.8,M,42.0,M,,0000*56
$GPGSA,A,3,22,17,09,12,26,18,15,28,,,,,1.5,0.9,1.2*33
$GPRMC,131004.000,A,5006.4658,N,02000.2697,E,12.31,87.13,080808,,,A*69
$GPGGA,131005.000,5006.4656,N,02000.2742,E,1,08,0.9,241.0,M,42.0,M,,0000*59
$GPGSA,A,3,22,17,09,12,26,18,15,28,,,,,1.5,0.9,1.2*33
$GPGSV,3,1,11,09,75,297,37,12,45,252,39,17,45,065,36,15,27,187,36*7E
$GPGSV,3,2,11,26,17,174,33,28,12,067,34,22,11,296,33,14,10,325,26*7E
$GPGSV,3,3,11,04,06,117,32,18,06,259,29,30,04,251,21*45
$GPRMC,131005.000,A,5006.4656,N,02000.2742,E,10.16,99.40,080808,,,A*61
$GPGGA,131006.000,5006.4648,N,02000.2779,E,1,08,0.9,241.1,M,42.0,M,,0000*5C
$GPGSA,A,3,22,17,09,12,26,18,15,28,,,,,1.5,0.9,1.2*33
$GPRMC,131006.000,A,5006.4648,N,02000.2779,E,8.62,111.55,080808,,,A*6A
$GPGGA,131007.000,5006.4638,N,02000.2806,E,1,08,0.9,241.3,M,42.0,M,,0000*5F
$GPGSA,A,3,22,17,09,12,26,18,15,28,,,,,1.5,0.9,1.2*33
$GPRMC,131007.000,A,5006.4638,N,02000.2806,E,6.90,120.36,080808,,,A*6F
$GPGGA,131008.000,5006.4627,N,02000.2828,E,1,08,0.9,241.5,M,42.0,M,,0000*54
$GPGSA,A,3,22,17,09,12,26,18,15,28,,,,,1.5,0.9,1.2*33
$GPRMC,131008.000,A,5006.4627,N,02000.2828,E,6.62,128.07,080808,,,A*65
$GPGGA,131009.000,5006.4613,N,02000.2847,E,1,08,0.9,241.8,M,42.0,M,,0000*56
$GPGSA,A,3,22,17,09,12,26,18,15,28,,,,,1.5,0.9,1.2*33
$GPRMC,131009.000,A,5006.4613,N,02000.2847,E,7.10,138.34,080808,,,A*6F
$GPGGA,131010.000,5006.4594,N,02000.2863,E,1,08,0.9,241.9,M,42.0,M,,0000*55
$GPGSA,A,3,22,17,09,12,26,18,15,28,,,,,1.5,0.9,1.2*33
$GPGSV,3,1,11,09,75,297,37,12,45,252,40,17,45,065,36,15,27,187,37*71
$GPGSV,3,2,11,26,17,174,34,28,12,067,29,22,11,296,33,14,10,325,28*7B
$GPGSV,3,3,11,04,06,117,31,18,06,259,27,30,04,251,31*49
$GPRMC,131010.000,A,5006.4594,N,02000.2863,E,8.50,154.11,080808,,,A*6B
$GPGGA,131011.000,5006.4567,N,02000.2871,E,1,08,0.9,242.1,M,42.0,M,,0000*50
$GPGSA,A,3,22,17,09,12,26,18,15,28,,,,,1.5,0.9,1.2*33
$GPRMC,131011.000,A,5006.4567,N,02000.2871,E,10.76,173.51,080808,,,A*59
$GPGGA,131012.000,5006.4533,N,02000.2866,E,1,08,0.9,242.3,M,42.0,M,,0000*56
$GPGSA,A,3,22,17,09,12,26,18,15,28,,,,,1.5,0.9,1.2*33
$GPRMC,131012.000,A,5006.4533,N,02000.2866,E,13.27,190.26,080808,,,A*57
$GPGGA,131013.000,5006.4494,N,02000.2848,E,1,08,0.9,242.3,M,42.0,M,,0000*57
$GPGSA,A,3,22,17,09,12,26,18,15,28,,,,,1.5,0.9,1.2*33
$GPRMC,131013.000,A,5006.4494,N,02000.2848,E,14.48,197.07,080808,,,A*5C
$GPGGA,131014.000,5006.4453,N,02000.2825,E,1,08,0.9,242.3,M,42.0,M,,0000*50
$GPGSA,A,3,22,17,09,12,26,18,15,28,,,,,1.5,0.9,1.2*33
$GPRMC,131014.000,A,5006.4453,N,02000.2825,E,15.53,199.52,080808,,,A*5E
$GPGGA,131015.000,5006.4412,N,02000.2799,E,1,08,0.9,242.4,M,42.0,M,,0000*5B
$GPGSA,A,3,22,17,09,12,26,18,15,28,,,,,1.5,0.9,1.2*33
$GPGSV,3,1,11,09,75,297,37,12,45,252,39,17,45,065,36,15,27,187,36*7E
$GPGSV,3,2,11,26,17,174,35,28,12,067,30,22,11,296,33,14,10,325,29*73
$GPGSV,3,3,11,04,06,117,25,18,06,259,24,30,04,251,26*49
$GPRMC,131015.000,A,5006.4412,N,02000.2799,E,15.59,200.00,080808,,,A*5C
$GPGGA,131016.000,5006.4374,N,02000.2775,E,1,08,0.9,242.3,M,42.0,M,,0000*5A
$GPGSA,A,3,22,17,09,12,26,18,15,28,,,,,1.5,0.9,1.2*33
$GPRMC,131016.000,A,5006.4374,N,02000.2775,E,12.96,201.56,080808,,,A*5C
$GPGGA,131017.000,5006.4341,N,02000.2755,E,1,08,0.9,242.3,M,42.0,M,,0000*5F
$GPGSA,A,3,22,17,09,12,26,18,15,28,,,,,1.5,0.9,1.2*33
$GPRMC,131017.000,A,5006.4341,N,02000.2755,E,11.58,199.17,080808,,,A*5F
$GPGGA,131018.000,5006.4309,N,02000.2734,E,1,08,0.9,242.2,M,42.0,M,,0000*5A
$GPGSA,A,3,22,17,09,12,26,18,15,28,,,,,1.5,0.9,1.2*33
$GPRMC,131018.000,A,5006.4309,N,02000.2734,E,12.91,202.44,080808,,,A*5A
$GPGGA,131019.000,5006.4275,N,02000.2701,E,1,08,0.9,242.0,M,42.0,M,,0000*55
$GPGSA,A,3,22,17,09,12,26,18,15,28,,,,,1.5,0.9,1.2*33
$GPRMC,131019.000,A,5006.4275,N,02000.2701,E,15.05,216.63,080808,,,A*5D
$GPGGA,131020.000,5006.4240,N,02000.2653,E,1,08,0.9,241.6,M,42.0,M,,0000*5A
$GPGSA,A,3,22,17,09,12,26,18,15,28,,,,,1.5,0.9,1.2*33
$GPGSV,3,1,11,09,75,297,37,12,46,252,39,17,44,065,36,15,27,187,36*7C
$GPGSV,3,2,11,26,16,174,35,28,11,067,30,22,11,295,33,14,10,325,29*72
$GPGSV,3,3,11,04,07,117,23,18,06,259,28,30,04,252,18*4C
$GPRMC,131020.000,A,5006.4240,N,02000.2653,E,17.11,222.89,080808,,,A*53
$GPGGA,131021.000,5006.4205,N,02000.2594,E,1,08,0.9,241.3,M,42.0,M,,0000*57
$GPGSA,A,3,22,17,09,12,26,18,15,28,,,,,1.5,0.9,1.2*33
$GPRMC,131021.000,A,5006.4205,N,02000.2594,E,18.43,229.55,080808,,,A*59
$GPGGA,131022.000,5006.4175,N,02000.2528,E,1,08,0.9,241.2,M,42.0,M,,0000*56
$GPGSA,A,3,22,17,09,12,26,18,15,28,,,,,1.5,0.9,1.2*33
$GPRMC,131022.000,A,5006.4175,N,02000.2528,E,18.36,237.79,080808,,,A*5A
$GPGGA,131023.000,5006.4152,N,02000.2455,E,1,08,0.9,241.0,M,42.0,M,,0000*5B
$GPGSA,A,3,22,17,09,12,26,18,15,28,,,,,1.5,0.9,1.2*33
$GPRMC,131023.000,A,5006.4152,N,02000.2455,E,17.86,248.35,080808,,,A*51
$GPGGA,131024.000,5006.4139,N,02000.2381,E,1,08,0.9,240.9,M,42.0,M,,0000*57
$GPGSA,A,3,22,17,09,12,26,18,15,28,,,,,1.5,0.9,1.2*33
$GPRMC,131024.000,A,5006.4139,N,02000.2381,E,17.11,257.19,080808,,,A*5B
$GPGGA,131025.000,5006.4129,N,02000.2307,E,1,08,0.9,241.0,M,42.0,M,,0000*51
$GPGSA,A,3,22,17,09,12,26,18,15,28,,,,,1.5,0.9,1.2*33
$GPGSV,3,1,11,09,75,297,37,12,46,252,38,17,44,065,37,15,27,187,36*7C
$GPGSV,3,2,11,26,16,174,25,28,11,067,31,22,11,295,23,14,10,325,22*78
$GPGSV,3,3,11,04,07,117,26,18,06,259,32,30,04,252,32*4A
$GPRMC,131025.000,A,5006.4129,N,02000.2307,E,16.54,260.08,080808,,,A*51
$GPGGA,131026.000,5006.4121,N,02000.2233,E,1,08,0.9,241.0,M,42.0,M,,0000*5C
$GPGSA,A,3,22,17,09,12,26,18,15,28,,,,,1.5,0.9,1.2*33
$GPRMC,131026.000,A,5006.4121,N,02000.2233,E,17.16,259.89,080808,,,A*58
$GPGGA,131027.000,5006.4114,N,02000.2156,E,1,08,0.9,241.0,M,42.0,M,,0000*5B
$GPGSA,A,3,22,17,09,12,26,18,15,28,,,,,1.5,0.9,1.2*33
$GPRMC,131027.000,A,5006.4114,N,02000.2156,E,18.16,262.25,080808,,,A*5E
$GPGGA,131028.000,5006.4107,N,02000.2077,E,1,08,0.9,241.0,M,42.0,M,,0000*54
$GPGSA,A,3,22,17,09,12,26,18,15,28,,,,,1.5,0.9,1.2*33
$GPRMC,131028.000,A,5006.4107,N,02000.2077,E,17.83,260.68,080808,,,A*59
$GPGGA,131029.000,5006.4098,N,02000.1998,E,1,08,0.9,240.8,M,42.0,M,,0000*50
$GPGSA,A,3,22,17,09,12,26,18,15,28,,,,,1.5,0.9,1.2*33
$GPRMC,131029.000,A,5006.4098,N,02000.1998,E,18.39,258.81,080808,,,A*56
$GPGGA,131030.000,5006.4087,N,02000.1917,E,1,08,0.9,240.6,M,42.0,M,,0000*5F
$GPGSA,A,3,22,17,09,12,26,18,15,28,,,,,1.5,0.9,1.2*33
$GPGSV,3,1,11,09,75,297,37,12,46,252,37,17,44,065,36,15,27,187,36*72
$GPGSV,3,2,11,26,16,174,25,28,11,067,19,22,11,295,34,14,10,325,32*75
$GPGSV,3,3,11,04,07,117,25,18,06,259,33,30,04,252,31*4B
$GPRMC,131030.000,A,5006.4087,N,02000.1917,E,18.83,256.00,080808,,,A*51
$GPGGA,131031.000,5006.4074,N,02000.1839,E,1,08,0.9,240.4,M,42.0,M,,0000*5D
$GPGSA,A,3,22,17,09,12,26,18,15,28,,,,,1.5,0.9,1.2*33
$GPRMC,131031.000,A,5006.4074,N,02000.1839,E,18.11,251.99,080808,,,A*5D
$GPGGA,131032.000,5006.4057,N,02000.1766,E,1,08,0.9,240.3,M,42.0,M,,0000*5D
$GPGSA,A,3,22,17,09,12,26,18,15,28,,,,,1.5,0.9,1.2*33
$GPRMC,131032.000,A,5006.4057,N,02000.1766,E,17.32,246.88,080808,,,A*52
$GPGGA,131033.000,5006.4037,N,02000.1699,E,1,08,0.9,240.1,M,42.0,M,,0000*59
$GPGSA,A,3,22,17,09,12,26,18,15,28,,,,,1.5,0.9,1.2*33
$GPRMC,131033.000,A,5006.4037,N,02000.1699,E,16.34,242.44,080808,,,A*57
$GPGGA,131034.000,5006.4016,N,02000.1637,E,1,08,0.9,240.2,M,42.0,M,,0000*5A
$GPGSA,A,3,22,17,09,12,26,18,15,28,,,,,1.5,0.9,1.2*33
$GPRMC,131034.000,A,5006.4016,N,02000.1637,E,15.55,239.70,080808,,,A*58
$GPGGA,131035.000,5006.3994,N,02000.1581,E,1,08,0.9,240.1,M,42.0,M,,0000*52
$GPGSA,A,3,22,17,09,12,26,18,15,28,,,,,1.5,0.9,1.2*33
$GPGSV,3,1,11,09,75,297,37,12,46,252,37,17,44,065,37,15,27,187,36*73
$GPGSV,3,2,11,26,16,174,33,28,11,067,28,22,11,295,34,14,10,325,32*70
$GPGSV,3,3,11,04,07,117,31,18,06,259,33,30,04,252,20*4E
$GPRMC,131035.000,A,5006.3994,N,02000.1581,E,14.59,237.25,080808,,,A*50
$GPGGA,131036.000,5006.3972,N,02000.1529,E,1,08,0.9,239.9,M,42.0,M,,0000*5D
$GPGSA,A,3,22,17,09,12,26,18,15,28,,,,,1.5,0.9,1.2*33
$GPRMC,131036.000,A,5006.3972,N,02000.1529,E,13.74,235.10,080808,,,A*55
$GPGGA,131037.000,5006.3950,N,02000.1480,E,1,08,0.9,240.0,M,42.0,M,,0000*59
$GPGSA,A,3,22,17,09,12,26,18,15,28,,,,,1.5,0.9,1.2*33
$GPRMC,131037.000,A,5006.3950,N,02000.1480,E,13.70,234.92,080808,,,A*59
$GPGGA,131038.000,5006.3928,N,02000.1431,E,1,08,0.9,239.9,M,42.0,M,,0000*54
$GPGSA,A,3,22,17,09,12,26,18,15,28,,,,,1.5,0.9,1.2*33
$GPRMC,131038.000,A,5006.3928,N,02000.1431,E,13.58,234.81,080808,,,A*5B
$GPGGA,131039.000,5006.3907,N,02000.1384,E,1,08,0.9,239.9,M,42.0,M,,0000*51
$GPGSA,A,3,22,17,09,12,26,18,15,28,,,,,1.5,0.9,1.2*33
$GPRMC,131039.000,A,5006.3907,N,02000.1384,E,12.81,234.62,080808,,,A*56
$GPGGA,131040.000,5006.3888,N,02000.1340,E,1,08,0.9,239.8,M,42.0,M,,0000*50
$GPGSA,A,3,22,17,09,12,26,18,15,28,,,,,1.5,0.9,1.2*33
$GPGSV,3,1,11,09,75,297,37,12,46,252,37,17,44,065,38,15,27,187,36*7C
$GPGSV,3,2,11,26,16,174,34,28,11,067,29,14,11,325,32,22,10,295,34*76
$GPGSV,3,3,11,04,07,117,30,18,06,259,24,30,04,252,18*42
$GPRMC,131040.000,A,5006.3888,N,02000.1340,E,11.69,234.52,080808,,,A*50
$GPGGA,131041.000,5006.3868,N,02000.1296,E,1,08,0.9,239.9,M,42.0,M,,0000*54
$GPGSA,A,3,22,17,09,12,26,18,15,28,,,,,1.5,0.9,1.2*33
$GPRMC,131041.000,A,5006.3868,N,02000.1296,E,12.70,234.78,080808,,,A*56
$GPGGA,131042.000,5006.3847,N,02000.1247,E,1,07,1.0,240.1,M,42.0,M,,0000*57
$GPGSA,A,3,22,17,09,12,26,15,28,,,,,,1.7,1.0,1.4*36
$GPRMC,131042.000,A,5006.3847,N,02000.1247,E,14.19,237.07,080808,,,A*56
$GPGGA,131043.000,5006.3824,N,02000.1190,E,1,08,0.9,240.2,M,42.0,M,,0000*5E
$GPGSA,A,3,22,17,09,12,26,18,15,28,,,,,1.5,0.9,1.2*33
$GPRMC,131043.000,A,5006.3824,N,02000.1190,E,15.93,238.74,080808,,,A*53
$GPGGA,131044.000,5006.3800,N,02000.1126,E,1,08,0.9,240.6,M,42.0,M,,0000*56
$GPGSA,A,3,22,17,09,12,26,18,15,28,,,,,1.5,0.9,1.2*33
$GPRMC,131044.000,A,5006.3800,N,02000.1126,E,17.75,239.20,080808,,,A*55
$GPGGA,131045.000,5006.3773,N,02000.1055,E,1,08,0.9,240.7,M,42.0,M,,0000*58
$GPGSA,A,3,22,17,09,12,26,18,15,28,,,,,1.5,0.9,1.2*33
$GPGSV,3,1,11,09,75,297,37,12,46,252,37,17,44,065,38,15,27,187,36*7C
$GPGSV,3,2,11,26,16,174,34,28,11,067,30,14,11,325,27,22,10,295,27*78
$GPGSV,3,3,11,04,07,117,13,18,06,259,14,30,04,252,18*40
$GPRMC,131045.000,A,5006.3773,N,02000.1055,E,19.65,239.18,080808,,,A*5E
$GPGGA,131046.000,5006.3742,N,02000.0976,E,1,08,0.9,241.0,M,42.0,M,,0000*56
$GPGSA,A,3,22,17,09,12,26,18,15,28,,,,,1.5,0.9,1.2*33
$GPRMC,131046.000,A,5006.3742,N,02000.0976,E,21.75,239.05,080808,,,A*50
$GPGGA,131047.000,5006.3708,N,02000.0888,E,1,08,0.9,241.3,M,42.0,M,,0000*5A
$GPGSA,A,3,22,17,09,12,26,18,15,28,,,,,1.5,0.9,1.2*33
$GPRMC,131047.000,A,5006.3708,N,02000.0888,E,24.52,239.00,080808,,,A*5A
$GPGGA,131048.000,5006.3671,N,02000.0791,E,1,07,1.1,241.6,M,42.0,M,,0000*5E
$GPGSA,A,3,17,09,12,26,18,15,28,,,,,,1.7,1.1,1.4*3E
$GPRMC,131048.000,A,5006.3671,N,02000.0791,E,26.61,239.01,080808,,,A*5E
$GPGGA,131049.000,5006.3632,N,02000.0691,E,1,08,0.9,242.2,M,42.0,M,,0000*58
$GPGSA,A,3,22,17,09,12,26,18,15,28,,,,,1.5,0.9,1.2*33
$GPRMC,131049.000,A,5006.3632,N,02000.0691,E,26.55,239.53,080808,,,A*59
$GPGGA,131050.000,5006.3593,N,02000.0590,E,1,08,0.9,242.7,M,42.0,M,,0000*5F
$GPGSA,A,3,22,17,09,12,26,18,15,28,,,,,1.5,0.9,1.2*33
$GPGSV,3,1,11,09,75,297,37,12,46,252,37,17,44,064,38,15,27,187,35*7E
$GPGSV,3,2,11,26,16,174,31,28,11,067,31,14,11,325,23,22,10,295,32*7C
$GPGSV,3,3,11,04,07,117,14,18,06,259,26,30,04,252,21*4C
$GPRMC,131050.000,A,5006.3593,N,02000.0590,E,27.27,238.38,080808,,,A*53
$GPGGA,131051.000,5006.3552,N,02000.0490,E,1,08,0.9,243.1,M,42.0,M,,0000*55
$GPGSA,A,3,22,17,09,12,26,18,15,28,,,,,1.5,0.9,1.2*33
$GPRMC,131051.000,A,5006.3552,N,02000.0490,E,26.55,237.17,080808,,,A*58
$GPGGA,131052.000,5006.3514,N,02000.0392,E,1,08,0.9,243.3,M,42.0,M,,0000*53
$GPGSA,A,3,22,17,09,12,26,18,15,28,,,,,1.5,0.9,1.2*33
$GPRMC,131052.000,A,5006.3514,N,02000.0392,E,25.66,239.27,080808,,,A*52
$GPGGA,131053.000,5006.3478,N,02000.0295,E,1,08,0.9,243.8,M,42.0,M,,0000*54
$GPGSA,A,3,22,17,09,12,26,18,15,28,,,,,1.5,0.9,1.2*33
$GPRMC,131053.000,A,5006.3478,N,02000.0295,E,25.57,241.08,080808,,,A*5E
$GPGGA,131054.000,5006.3442,N,02000.0198,E,1,08,0.9,244.3,M,42.0,M,,0000*58
$GPGSA,A,3,22,17,09,12,26,18,15,28,,,,,1.5,0.9,1.2*33
$GPRMC,131054.000,A,5006.3442,N,02000.0198,E,25.85,239.03,080808,,,A*55
$GPGGA,131055.000,5006.3404,N,02000.0102,E,1,08,0.9,245.1,M,42.0,M,,0000*5B
$GPGSA,A,3,22,17,09,12,26,18,15,28,,,,,1.5,0.9,1.2*33
$GPGSV,3,1,11,09,75,297,37,12,46,252,34,17,44,064,33,15,27,187,33*70
$GPGSV,3,2,11,26,16,174,27,28,11,067,24,14,11,325,19,22,10,295,27*72
$GPGSV,3,3,11,04,07,117,12,18,06,259,15,30,04,252,20*4B
$GPRMC,131055.000,A,5006.3404,N,02000.0102,E,26.05,238.97,080808,,,A*52
$GPGGA,131056.000,5006.3367,N,02000.0005,E,1,08,0.9,245.9,M,42.0,M,,0000*54
$GPGSA,A,3,22,17,09,12,26,18,15,28,,,,,1.5,0.9,1.2*33
$GPRMC,131056.000,A,5006.3367,N,02000.0005,E,25.93,239.83,080808,,,A*5D
$GPGGA,131057.000,5006.3332,N,01959.9905,E,1,08,0.9,246.5,M,42.0,M,,0000*5C
$GPGSA,A,3,22,17,09,12,26,18,15,28,,,,,1.5,0.9,1.2*33
$GPRMC,131057.000,A,5006.3332,N,01959.9905,E,26.34,241.39,080808,,,A*5A
$GPGGA,131058.000,5006.3297,N,01959.9804,E,1,08,0.9,247.2,M,42.0,M,,0000*5B
$GPGSA,A,3,22,17,09,12,26,18,15,28,,,,,1.5,0.9,1.2*33
$GPRMC,131058.000,A,5006.3297,N,01959.9804,E,26.27,242.38,080808,,,A*5B
$GPGGA,131059.000,5006.3263,N,01959.9703,E,1,08,0.9,247.9,M,42.0,M,,0000*52
$GPGSA,A,3,22,17,09,12,26,18,15,28,,,,,1.5,0.9,1.2*33
$GPRMC,131059.000,A,5006.3263,N,01959.9703,E,26.36,242.87,080808,,,A*5D
$GPGGA,131100.000,5006.3230,N,01959.9600,E,1,08,0.9,248.8,M,42.0,M,,0000*55
$GPGSA,A,3,22,17,09,12,26,18,15,28,,,,,1.5,0.9,1.2*33
$GPGSV,3,1,11,09,75,297,35,12,46,252,35,17,44,064,39,15,27,187,35*7F
$GPGSV,3,2,11,26,16,174,31,28,11,067,20,14,11,325,19,22,10,295,25*73
$GPGSV,3,3,11,04,07,117,24,18,06,259,16,30,04,252,14*4A
$GPRMC,131100.000,A,5006.3230,N,01959.9600,E,26.44,243.57,080808,,,A*5D
$GPGGA,131101.000,5006.3199,N,01959.9495,E,1,08,0.9,249.0,M,42.0,M,,0000*53
$GPGSA,A,3,22,17,09,12,26,18,15,28,,,,,1.5,0.9,1.2*33
$GPRMC,131101.000,A,5006.3199,N,01959.9495,E,26.41,245.64,080808,,,A*51
$GPGGA,131102.000,5006.3169,N,01959.9389,E,1,08,0.9,249.4,M,42.0,M,,0000*51
$GPGSA,A,3,22,17,09,12,26,18,15,28,,,,,1.5,0.9,1.2*33
$GPRMC,131102.000,A,5006.3169,N,01959.9389,E,26.52,246.20,080808,,,A*56
$GPGGA,131103.000,5006.3140,N,01959.9284,E,1,08,0.9,250.2,M,42.0,M,,0000*59
$GPGSA,A,3,22,17,09,12,26,18,15,28,,,,,1.5,0.9,1.2*33
$GPRMC,131103.000,A,5006.3140,N,01959.9284,E,26.16,247.26,080808,,,A*57
$GPGGA,131104.000,5006.3113,N,01959.9178,E,1,08,0.9,250.9,M,42.0,M,,0000*53
$GPGSA,A,3,22,17,09,12,26,18,15,28,,,,,1.5,0.9,1.2*33
$GPRMC,131104.000,A,5006.3113,N,01959.9178,E,26.30,248.80,080808,,,A*51
$GPGGA,131105.000,5006.3087,N,01959.9074,E,1,08,0.9,251.8,M,42.0,M,,0000*53
$GPGSA,A,3,22,17,09,12,26,18,15,28,,,,,1.5,0.9,1.2*33
$GPGSV,3,1,11,09,75,297,35,12,46,252,35,17,44,064,39,15,27,187,35*7F
$GPGSV,3,2,11,26,16,174,30,28,11,067,32,14,11,325,30,22,10,295,34*7A
$GPGSV,3,3,11,04,07,117,27,18,06,259,29,30,04,252,26*44
$GPRMC,131105.000,A,5006.3087,N,01959.9074,E,24.97,249.13,080808,,,A*55
$GPGGA,131106.000,5006.3065,N,01959.8975,E,1,08,0.9,252.5,M,42.0,M,,0000*5B
$GPGSA,A,3,22,17,09,12,26,18,15,28,,,,,1.5,0.9,1.2*33
$GPRMC,131106.000,A,5006.3065,N,01959.8975,E,23.57,250.90,080808,,,A*5B
$GPGGA,131107.000,5006.3046,N,01959.8880,E,1,08,0.9,253.0,M,42.0,M,,0000*54
$GPGSA,A,3,22,17,09,12,26,18,15,28,,,,,1.5,0.9,1.2*33
$GPRMC,131107.000,A,5006.3046,N,01959.8880,E,22.45,252.91,080808,,,A*51
$GPGGA,131108.000,5006.3027,N,01959.8786,E,1,08,0.9,253.0,M,42.0,M,,0000*55
$GPGSA,A,3,22,17,09,12,26,18,15,28,,,,,1.5,0.9,1.2*33
$GPRMC,131108.000,A,5006.3027,N,01959.8786,E,22.93,251.02,080808,,,A*52
$GPGGA,131109.000,5006.3005,N,01959.8689,E,1,08,0.9,253.0,M,42.0,M,,0000*5A
$GPGSA,A,3,22,17,09,12,26,18,15,28,,,,,1.5,0.9,1.2*33
$GPRMC,131109.000,A,5006.3005,N,01959.8689,E,24.11,250.41,080808,,,A*57
$GPGGA,131110.000,5006.2983,N,01959.8590,E,1,08,0.9,253.1,M,42.0,M,,0000*5E
$GPGSA,A,3,22,17,09,12,26,18,15,28,,,,,1.5,0.9,1.2*33
$GPGSV,3,1,11,09,76,297,36,12,46,252,36,17,44,064,39,15,27,187,32*7B
$GPGSV,3,2,11,26,16,174,28,28,11,067,32,14,11,325,15,22,10,295,26*77
$GPGSV,3,3,11,04,07,117,23,18,06,259,25,30,05,252,26*4D
$GPRMC,131110.000,A,5006.2983,N,01959.8590,E,24.29,251.49,080808,,,A*50
$GPGGA,131111.000,5006.2961,N,01959.8489,E,1,08,0.9,253.1,M,42.0,M,,0000*5A
$GPGSA,A,3,22,17,09,12,26,18,15,28,,,,,1.5,0.9,1.2*33
$GPRMC,131111.000,A,5006.2961,N,01959.8489,E,24.53,251.02,080808,,,A*56
$GPGGA,131112.000,5006.2939,N,01959.8385,E,1,08,0.9,253.0,M,42.0,M,,0000*5E
$GPGSA,A,3,22,17,09,12,26,18,15,28,,,,,1.5,0.9,1.2*33
$GPRMC,131112.000,A,5006.2939,N,01959.8385,E,25.62,251.40,080808,,,A*56
$GPGGA,131113.000,5006.2918,N,01959.8274,E,1,08,0.9,252.3,M,42.0,M,,0000*51
$GPGSA,A,3,22,17,09,12,26,18,15,28,,,,,1.5,0.9,1.2*33
$GPRMC,131113.000,A,5006.2918,N,01959.8274,E,27.17,253.93,080808,,,A*57
$GPGGA,131114.000,5006.2900,N,01959.8156,E,1,08,0.9,251.8,M,42.0,M,,0000*54
$GPGSA,A,3,22,17,09,12,26,18,15,28,,,,,1.5,0.9,1.2*33
$GPRMC,131114.000,A,5006.2900,N,01959.8156,E,28.33,257.00,080808,,,A*5D
$GPGGA,131115.000,5006.2884,N,01959.8034,E,1,08,0.9,251.3,M,42.0,M,,0000*56
$GPGSA,A,3,22,17,09,12,26,18,15,28,,,,,1.5,0.9,1.2*33
$GPGSV,3,1,11,09,76,297,35,12,46,252,36,17,44,064,35,15,27,187,32*74
$GPGSV,3,2,11,26,16,174,25,28,11,067,22,14,11,325,21,22,10,295,24*7E
$GPGSV,3,3,11,04,07,117,24,18,06,259,22,30,05,252,25*4E
$GPRMC,131115.000,A,5006.2884,N,01959.8034,E,28.54,258.77,080808,,,A*5A
$GPGGA,131116.000,5006.2870,N,01959.7913,E,1,08,0.9,250.5,M,42.0,M,,0000*5A
$GPGSA,A,3,22,17,09,12,26,18,15,28,,,,,1.5,0.9,1.2*33
$GPRMC,131116.000,A,5006.2870,N,01959.7913,E,27.98,258.66,080808,,,A*5E
$GPGGA,131117.000,5006.2856,N,01959.7798,E,1,08,0.9,249.6,M,42.0,M,,0000*59
$GPGSA,A,3,22,17,09,12,26,18,15,28,,,,,1.5,0.9,1.2*33
$GPRMC,131117.000,A,5006.2856,N,01959.7798,E,26.20,258.03,080808,,,A*57
$GPGGA,131118.000,5006.2842,N,01959.7689,E,1,08,0.9,248.7,M,42.0,M,,0000*52
$GPGSA,A,3,22,17,09,12,26,18,15,28,,,,,1.5,0.9,1.2*33
$GPRMC,131118.000,A,5006.2842,N,01959.7689,E,25.22,258.90,080808,,,A*57
$GPGGA,131119.000,5006.2828,N,01959.7582,E,1,08,0.9,248.2,M,42.0,M,,0000*52
$GPGSA,A,3,22,17,09,12,26,18,15,28,,,,,1.5,0.9,1.2*33
$GPRMC,131119.000,A,5006.2828,N,01959.7582,E,25.04,257.88,080808,,,A*50
$GPGGA,131120.000,5006.2815,N,01959.7473,E,1,08,0.9,246.8,M,42.0,M,,0000*5D
$GPGSA,A,3,22,17,09,12,26,18,15,28,,,,,1.5,0.9,1.2*33
$GPGSV,3,1,11,09,76,297,34,12,46,252,36,17,44,064,32,15,27,187,33*73
$GPGSV,3,2,11,26,16,174,24,28,11,067,18,14,11,325,20,22,10,295,26*75
$GPGSV,3,3,11,04,07,117,17,18,06,259,32,30,05,252,27*4D
$GPRMC,131120.000,A,5006.2815,N,01959.7473,E,25.76,259.41,080808,,,A*55
$GPGGA,131121.000,5006.2803,N,01959.7361,E,1,08,0.9,245.5,M,42.0,M,,0000*51
$GPGSA,A,3,22,17,09,12,26,18,15,28,,,,,1.5,0.9,1.2*33
$GPRMC,131121.000,A,5006.2803,N,01959.7361,E,26.31,259.52,080808,,,A*55
$GPGGA,131122.000,5006.2792,N,01959.7246,E,1,08,0.9,244.2,M,42.0,M,,0000*57
$GPGSA,A,3,22,17,09,12,26,18,15,28,,,,,1.5,0.9,1.2*33
$GPRMC,131122.000,A,5006.2792,N,01959.7246,E,27.13,261.46,080808,,,A*5A
$GPGGA,131123.000,5006.2784,N,01959.7125,E,1,08,0.9,242.9,M,42.0,M,,0000*5A
$GPGSA,A,3,22,17,09,12,26,18,15,28,,,,,1.5,0.9,1.2*33
$GPRMC,131123.000,A,5006.2784,N,01959.7125,E,28.85,263.58,080808,,,A*57
$GPGGA,131124.000,5006.2777,N,01959.6994,E,1,08,0.9,241.5,M,42.0,M,,0000*5D
$GPGSA,A,3,22,17,09,12,26,18,15,28,,,,,1.5,0.9,1.2*33
$GPRMC,131124.000,A,5006.2777,N,01959.6994,E,30.71,264.57,080808,,,A*55
$GPGGA,131125.000,5006.2771,N,01959.6858,E,1,08,0.9,240.3,M,42.0,M,,0000*5C
$GPGSA,A,3,22,17,09,12,26,18,15,28,,,,,1.5,0.9,1.2*33
$GPGSV,3,1,11,09,76,297,34,12,46,252,36,17,44,064,32,15,27,187,32*72
$GPGSV,3,2,11,26,16,174,24,28,11,067,16,14,11,325,11,22,10,295,17*7B
$GPGSV,3,3,11,04,07,117,24,18,06,259,23,30,05,252,33*48
$GPRMC,131125.000,A,5006.2771,N,01959.6858,E,31.31,266.20,080808,,,A*54
$GPGGA,131126.000,5006.2767,N,01959.6724,E,1,08,0.9,239.2,M,42.0,M,,0000*53
$GPGSA,A,3,22,17,09,12,26,18,15,28,,,,,1.5,0.9,1.2*33
$GPRMC,131126.000,A,5006.2767,N,01959.6724,E,30.58,266.68,080808,,,A*56
$GPGGA,131127.000,5006.2762,N,01959.6595,E,1,08,0.9,238.4,M,42.0,M,,0000*58
$GPGSA,A,3,22,17,09,12,26,18,15,28,,,,,1.5,0.9,1.2*33
$GPRMC,131127.000,A,5006.2762,N,01959.6595,E,28.92,267.05,080808,,,A*5F
$GPGGA,131128.000,5006.2759,N,01959.6472,E,1,08,0.9,237.4,M,42.0,M,,0000*58
$GPGSA,A,3,22,17,09,12,26,18,15,28,,,,,1.5,0.9,1.2*33
$GPRMC,131128.000,A,5006.2759,N,01959.6472,E,27.77,267.95,080808,,,A*5D
$GPGGA,131129.000,5006.2755,N,01959.6350,E,1,08,0.9,236.6,M,42.0,M,,0000*51
$GPGSA,A,3,22,17,09,12,26,18,15,28,,,,,1.5,0.9,1.2*33
$GPRMC,131129.000,A,5006.2755,N,01959.6350,E,27.81,266.11,080808,,,A*53
$GPGGA,131130.000,5006.2749,N,01959.6231,E,1,08,0.9,236.0,M,42.0,M,,0000*54
$GPGSA,A,3,22,17,09,12,26,18,15,28,,,,,1.5,0.9,1.2*33
$GPGSV,3,1,11,09,76,297,34,12,46,252,34,17,44,064,33,15,27,187,33*70
$GPGSV,3,2,11,26,16,174,25,28,11,067,16,14,11,325,,22,10,295,24*7A
$GPGSV,3,3,11,04,07,117,21,18,06,259,30,30,05,252,18*46
$GPRMC,131130.000,A,5006.2749,N,01959.6231,E,26.91,265.58,080808,,,A*5E
$GPGGA,131131.000,5006.2745,N,01959.6116,E,1,08,0.9,235.2,M,42.0,M,,0000*5E
$GPGSA,A,3,22,17,09,12,26,18,15,28,,,,,1.5,0.9,1.2*33
$GPRMC,131131.000,A,5006.2745,N,01959.6116,E,25.62,266.63,080808,,,A*51
$GPGGA,131132.000,5006.2739,N,01959.6004,E,1,08,0.9,235.0,M,42.0,M,,0000*56
$GPGSA,A,3,22,17,09,12,26,18,15,28,,,,,1.5,0.9,1.2*33
$GPRMC,131132.000,A,5006.2739,N,01959.6004,E,25.45,265.39,080808,,,A*52
$GPGGA,131133.000,5006.2731,N,01959.5899,E,1,08,0.9,235.0,M,42.0,M,,0000*50
$GPGSA,A,3,22,17,09,12,26,18,15,28,,,,,1.5,0.9,1.2*33
$GPRMC,131133.000,A,5006.2731,N,01959.5899,E,23.07,263.15,080808,,,A*5C
$GPGGA,131134.000,5006.2720,N,01959.5801,E,1,08,0.9,234.8,M,42.0,M,,0000*5F
$GPGSA,A,3,22,17,09,12,26,18,15,28,,,,,1.5,0.9,1.2*33
$GPRMC,131134.000,A,5006.2720,N,01959.5801,E,22.52,259.45,080808,,,A*57
$GPGGA,131135.000,5006.2704,N,01959.5705,E,1,08,0.9,234.5,M,42.0,M,,0000*5E
$GPGSA,A,3,22,17,09,12,26,18,15,28,,,,,1.5,0.9,1.2*33
$GPGSV,3,1,11,09,76,297,35,12,46,252,35,17,44,064,37,15,27,187,33*74
$GPGSV,3,2,11,26,16,174,24,28,11,067,22,14,11,325,20,22,10,295,24*7E
$GPGSV,3,3,11,04,07,117,27,18,06,259,33,30,05,252,29*41
$GPRMC,131135.000,A,5006.2704,N,01959.5705,E,22.76,253.75,080808,,,A*54
$GPGGA,131136.000,5006.2680,N,01959.5611,E,1,08,0.9,234.5,M,42.0,M,,0000*54
$GPGSA,A,3,22,17,09,12,26,18,15,28,,,,,1.5,0.9,1.2*33
$GPRMC,131136.000,A,5006.2680,N,01959.5611,E,23.44,247.96,080808,,,A*56
$GPGGA,131137.000,5006.2645,N,01959.5521,E,1,08,0.9,234.5,M,42.0,M,,0000*5C
$GPGSA,A,3,22,17,09,12,26,18,15,28,,,,,1.5,0.9,1.2*33
$GPRMC,131137.000,A,5006.2645,N,01959.5521,E,23.96,239.95,080808,,,A*5B
$GPGGA,131138.000,5006.2595,N,01959.5440,E,1,08,0.9,234.3,M,42.0,M,,0000*5D
$GPGSA,A,3,22,17,09,12,26,18,15,28,,,,,1.5,0.9,1.2*33
$GPRMC,131138.000,A,5006.2595,N,01959.5440,E,25.33,228.01,080808,,,A*58
$GPGGA,131139.000,5006.2542,N,01959.5358,E,1,08,0.9,234.3,M,42.0,M,,0000*58
$GPGSA,A,3,22,17,09,12,26,18,15,28,,,,,1.5,0.9,1.2*33
$GPRMC,131139.000,A,5006.2542,N,01959.5358,E,26.98,225.95,080808,,,A*5F
$GPGGA,131140.000,5006.2486,N,01959.5274,E,1,08,0.9,234.3,M,42.0,M,,0000*50
$GPGSA,A,3,22,17,09,12,26,18,15,28,,,,,1.5,0.9,1.2*33
$GPGSV,3,1,11,09,76,297,36,12,46,252,36,17,44,064,38,15,27,186,29*71
$GPGSV,3,2,11,26,16,174,24,14,11,325,27,28,11,067,24,22,10,295,33*79
$GPGSV,3,3,11,04,07,117,14,18,06,259,19,30,05,252,20*40
$GPRMC,131140.000,A,5006.2486,N,01959.5274,E,27.71,225.07,080808,,,A*5A
$GPGGA,131141.000,5006.2432,N,01959.5189,E,1,08,0.9,234.6,M,42.0,M,,0000*5A
$GPGSA,A,3,22,17,09,12,26,18,15,28,,,,,1.5,0.9,1.2*33
$GPRMC,131141.000,A,5006.2432,N,01959.5189,E,27.09,225.22,080808,,,A*5D
$GPGGA,131142.000,5006.2380,N,01959.5106,E,1,08,0.9,234.3,M,42.0,M,,0000*55
$GPGSA,A,3,22,17,09,12,26,18,15,28,,,,,1.5,0.9,1.2*33
$GPRMC,131142.000,A,5006.2380,N,01959.5106,E,26.28,226.16,080808,,,A*51
$GPGGA,131143.000,5006.2329,N,01959.5024,E,1,08,0.9,234.0,M,42.0,M,,0000*55
$GPGSA,A,3,22,17,09,12,26,18,15,28,,,,,1.5,0.9,1.2*33
$GPRMC,131143.000,A,5006.2329,N,01959.5024,E,25.89,226.41,080808,,,A*58
$GPGGA,131144.000,5006.2279,N,01959.4942,E,1,08,0.9,233.9,M,42.0,M,,0000*50
$GPGSA,A,3,22,17,09,12,26,18,15,28,,,,,1.5,0.9,1.2*33
$GPRMC,131144.000,A,5006.2279,N,01959.4942,E,25.92,227.36,080808,,,A*58
$GPGGA,131145.000,5006.2231,N,01959.4856,E,1,08,0.9,233.7,M,42.0,M,,0000*57
$GPGSA,A,3,22,17,09,12,26,18,15,28,,,,,1.5,0.9,1.2*33
$GPGSV,3,1,11,09,76,297,36,12,46,252,36,17,44,064,38,15,27,186,37*7E
$GPGSV,3,2,11,26,16,174,35,14,11,325,22,28,11,067,22,22,10,295,27*7F
$GPGSV,3,3,11,04,07,117,14,18,06,259,21,30,05,252,28*43
$GPRMC,131145.000,A,5006.2231,N,01959.4856,E,26.53,231.44,080808,,,A*5D
$GPGGA,131146.000,5006.2186,N,01959.4761,E,1,08,0.9,233.5,M,42.0,M,,0000*52
$GPGSA,A,3,22,17,09,12,26,18,15,28,,,,,1.5,0.9,1.2*33
$GPRMC,131146.000,A,5006.2186,N,01959.4761,E,27.51,235.24,080808,,,A*5B
$GPGGA,131147.000,5006.2145,N,01959.4657,E,1,08,0.9,232.9,M,42.0,M,,0000*55
$GPGSA,A,3,22,17,09,12,26,18,15,28,,,,,1.5,0.9,1.2*33
$GPRMC,131147.000,A,5006.2145,N,01959.4657,E,28.15,240.05,080808,,,A*5F
$GPGGA,131148.000,5006.2109,N,01959.4551,E,1,08,0.9,232.8,M,42.0,M,,0000*56
$GPGSA,A,3,22,17,09,12,26,18,15,28,,,,,1.5,0.9,1.2*33
$GPRMC,131148.000,A,5006.2109,N,01959.4551,E,27.43,243.23,080808,,,A*56
$GPGGA,131149.000,5006.2077,N,01959.4446,E,1,08,0.9,232.7,M,42.0,M,,0000*57
$GPGSA,A,3,22,17,09,12,26,18,15,28,,,,,1.5,0.9,1.2*33
$GPRMC,131149.000,A,5006.2077,N,01959.4446,E,25.81,245.97,080808,,,A*5D
$GPGGA,131150.000,5006.2050,N,01959.4350,E,1,08,0.9,232.6,M,42.0,M,,0000*5B
$GPGSA,A,3,22,17,09,12,26,18,15,28,,,,,1.5,0.9,1.2*33
$GPGSV,3,1,11,09,76,297,36,12,46,252,36,17,44,064,38,15,27,186,34*7D
$GPGSV,3,2,11,26,16,174,28,14,11,325,32,28,11,067,29,22,10,295,36*79
$GPGSV,3,3,11,04,07,117,14,18,05,259,33,30,05,252,32*48
$GPRMC,131150.000,A,5006.2050,N,01959.4350,E,23.13,245.73,080808,,,A*57
$GPGGA,131151.000,5006.2026,N,01959.4265,E,1,08,0.9,232.6,M,42.0,M,,0000*5C
$GPGSA,A,3,22,17,09,12,26,18,15,28,,,,,1.5,0.9,1.2*33
$GPRMC,131151.000,A,5006.2026,N,01959.4265,E,20.37,246.05,080808,,,A*57
$GPGGA,131152.000,5006.2004,N,01959.4186,E,1,08,0.9,232.6,M,42.0,M,,0000*51
$GPGSA,A,3,22,17,09,12,26,18,15,28,,,,,1.5,0.9,1.2*33
$GPRMC,131152.000,A,5006.2004,N,01959.4186,E,19.73,245.53,080808,,,A*50
$GPGGA,131153.000,5006.1981,N,01959.4105,E,1,08,0.9,232.6,M,42.0,M,,0000*5C
$GPGSA,A,3,22,17,09,12,26,18,15,28,,,,,1.5,0.9,1.2*33
$GPRMC,131153.000,A,5006.1981,N,01959.4105,E,20.98,245.90,080808,,,A*5D
$GPGGA,131154.000,5006.1956,N,01959.4017,E,1,08,0.9,232.6,M,42.0,M,,0000*53
$GPGSA,A,3,22,17,09,12,26,18,15,28,,,,,1.5,0.9,1.2*33
$GPRMC,131154.000,A,5006.1956,N,01959.4017,E,23.24,246.05,080808,,,A*59
$GPGGA,131155.000,5006.1929,N,01959.3920,E,1,08,0.9,232.8,M,42.0,M,,0000*5E
$GPGSA,A,3,22,17,09,12,26,18,15,28,,,,,1.5,0.9,1.2*33
$GPGSV,3,1,11,09,76,297,36,12,46,252,36,17,44,064,38,15,27,186,35*7C
$GPGSV,3,2,11,26,16,174,28,14,11,325,33,28,11,067,31,22,10,295,36*71
$GPGSV,3,3,11,04,07,117,17,18,05,259,27,30,05,252,27*4A
$GPRMC,131155.000,A,5006.1929,N,01959.3920,E,24.93,246.69,080808,,,A*5B
$GPGGA,131156.000,5006.1902,N,01959.3820,E,1,08,0.9,232.9,M,42.0,M,,0000*54
$GPGSA,A,3,22,17,09,12,26,18,15,28,,,,,1.5,0.9,1.2*33
$GPRMC,131156.000,A,5006.1902,N,01959.3820,E,25.43,246.54,080808,,,A*52
$GPGGA,131157.000,5006.1872,N,01959.3716,E,1,09,0.8,233.1,M,42.0,M,,0000*50
$GPGSA,A,3,22,17,09,12,26,18,15,14,28,,,,1.4,0.8,1.2*36
$GPRMC,131157.000,A,5006.1872,N,01959.3716,E,26.82,245.50,080808,,,A*56
$GPGGA,131158.000,5006.1840,N,01959.3606,E,1,09,0.8,233.3,M,42.0,M,,0000*5C
$GPGSA,A,3,22,17,09,12,26,18,15,14,28,,,,1.4,0.8,1.2*36
$GPRMC,131158.000,A,5006.1840,N,01959.3606,E,28.25,245.39,080808,,,A*54
$GPGGA,131159.000,5006.1807,N,01959.3491,E,1,08,0.9,233.7,M,42.0,M,,0000*56
$GPGSA,A,3,22,17,09,12,26,15,14,28,,,,,1.5,0.9,1.3*3E
$GPRMC,131159.000,A,5006.1807,N,01959.3491,E,29.69,246.17,080808,,,A*5C
$GPGGA,131200.000,5006.1773,N,01959.3369,E,1,08,0.9,234.0,M,42.0,M,,0000*55
$GPGSA,A,3,22,17,09,12,26,15,14,28,,,,,1.5,0.9,1.3*3E
$GPGSV,3,1,11,09,76,297,36,12,46,253,36,17,44,064,39,15,26,186,35*7D
$GPGSV,3,2,11,26,16,174,29,14,11,325,32,28,11,067,31,22,10,295,33*74
$GPGSV,3,3,11,04,07,117,27,18,05,259,,30,05,252,20*4B
$GPRMC,131200.000,A,5006.1773,N,01959.3369,E,31.02,247.25,080808,,,A*5B
$GPGGA,131201.000,5006.1740,N,01959.3241,E,1,08,0.9,234.5,M,42.0,M,,0000*5A
$GPGSA,A,3,22,17,09,12,26,15,14,28,,,,,1.5,0.9,1.3*3E
$GPRMC,131201.000,A,5006.1740,N,01959.3241,E,32.38,248.11,080808,,,A*53
$GPGGA,131202.000,5006.1707,N,01959.3106,E,1,08,0.9,234.9,M,42.0,M,,0000*56
$GPGSA,A,3,22,17,09,12,26,15,14,28,,,,,1.5,0.9,1.3*3E
$GPRMC,131202.000,A,5006.1707,N,01959.3106,E,33.76,249.99,080808,,,A*59
$GPGGA,131203.000,5006.1674,N,01959.2965,E,1,08,0.9,235.6,M,42.0,M,,0000*50
$GPGSA,A,3,22,17,09,12,26,15,14,28,,,,,1.5,0.9,1.3*3E
$GPRMC,131203.000,A,5006.1674,N,01959.2965,E,34.85,250.82,080808,,,A*58
$GPGGA,131204.000,5006.1643,N,01959.2820,E,1,08,0.9,236.4,M,42.0,M,,0000*52
$GPGSA,A,3,22,17,09,12,26,15,14,28,,,,,1.5,0.9,1.3*3E
$GPRMC,131204.000,A,5006.1643,N,01959.2820,E,35.74,251.90,080808,,,A*56
$GPGGA,131205.000,5006.1612,N,01959.2670,E,1,08,0.9,237.5,M,42.0,M,,0000*5C
$GPGSA,A,3,22,17,09,12,26,15,14,28,,,,,1.5,0.9,1.3*3E
$GPGSV,3,1,11,09,76,297,36,12,46,253,36,17,44,064,39,15,26,186,36*7E
$GPGSV,3,2,11,26,16,174,30,14,11,325,27,28,11,067,32,22,10,295,25*7C
$GPGSV,3,3,11,04,07,117,28,18,05,259,10,30,05,252,20*45
$GPRMC,131205.000,A,5006.1612,N,01959.2670,E,36.22,252.34,080808,,,A*55
$GPGGA,131206.000,5006.1582,N,01959.2524,E,1,08,0.9,238.5,M,42.0,M,,0000*58
$GPGSA,A,3,22,17,09,12,26,15,14,28,,,,,1.5,0.9,1.3*3E
$GPRMC,131206.000,A,5006.1582,N,01959.2524,E,34.88,252.29,080808,,,A*50
$GPGGA,131207.000,5006.1552,N,01959.2383,E,1,07,1.0,239.8,M,42.0,M,,0000*54
$GPGSA,A,3,17,09,12,26,15,14,28,,,,,,1.7,1.0,1.4*33
$GPRMC,131207.000,A,5006.1552,N,01959.2383,E,33.57,252.00,080808,,,A*59
$GPGGA,131208.000,5006.1523,N,01959.2245,E,1,07,1.0,240.7,M,42.0,M,,0000*57
$GPGSA,A,3,17,09,12,26,15,14,28,,,,,,1.7,1.0,1.4*33
$GPRMC,131208.000,A,5006.1523,N,01959.2245,E,33.20,252.02,080808,,,A*59
$GPGGA,131209.000,5006.1494,N,01959.2108,E,1,07,1.0,241.6,M,42.0,M,,0000*51
$GPGSA,A,3,17,09,12,26,15,14,28,,,,,,1.7,1.0,1.4*33
$GPRMC,131209.000,A,5006.1494,N,01959.2108,E,33.41,251.86,080808,,,A*57
$GPGGA,131210.000,5006.1464,N,01959.1971,E,1,08,0.9,242.3,M,42.0,M,,0000*52
$GPGSA,A,3,18,17,09,12,26,15,14,28,,,,,1.5,0.9,1.2*36
$GPGSV,3,1,11,09,76,297,35,12,46,253,36,17,44,064,32,15,26,186,36*76
$GPGSV,3,2,11,26,16,174,30,14,11,325,19,28,11,067,23,22,10,295,13*74
$GPGSV,3,3,11,04,07,117,29,18,05,259,20,30,05,252,26*41
$GPRMC,131210.000,A,5006.1464,N,01959.1971,E,33.21,250.21,080808,,,A*5F
$GPGGA,131211.000,5006.1433,N,01959.1834,E,1,09,0.8,242.8,M,42.0,M,,0000*5A
$GPGSA,A,3,18,17,09,12,26,22,15,14,28,,,,1.4,0.8,1.2*36
$GPRMC,131211.000,A,5006.1433,N,01959.1834,E,33.46,249.85,080808,,,A*5B
$GPGGA,131212.000,5006.1401,N,01959.1700,E,1,09,0.8,243.6,M,42.0,M,,0000*5F
$GPGSA,A,3,18,17,09,12,26,22,15,14,28,,,,1.4,0.8,1.2*36
$GPRMC,131212.000,A,5006.1401,N,01959.1700,E,32.33,250.08,080808,,,A*5F
$GPGGA,131213.000,5006.1373,N,01959.1571,E,1,09,0.8,244.3,M,42.0,M,,0000*5A
$GPGSA,A,3,18,17,09,12,26,22,15,14,28,,,,1.4,0.8,1.2*36
$GPRMC,131213.000,A,5006.1373,N,01959.1571,E,31.15,251.57,080808,,,A*54
$GPGGA,131214.000,5006.1347,N,01959.1443,E,1,09,0.8,245.0,M,42.0,M,,0000*58
$GPGSA,A,3,18,17,09,12,26,22,15,14,28,,,,1.4,0.8,1.2*36
$GPRMC,131214.000,A,5006.1347,N,01959.1443,E,30.65,253.62,080808,,,A*56
$GPGGA,131215.000,5006.1324,N,01959.1323,E,1,09,0.8,245.8,M,42.0,M,,0000*55
$GPGSA,A,3,18,17,09,12,26,22,15,14,28,,,,1.4,0.8,1.2*36
$GPGSV,3,1,11,09,76,297,30,12,46,253,32,17,44,064,31,15,26,186,36*74
$GPGSV,3,2,11,26,16,174,29,14,11,325,18,28,11,067,16,22,10,295,34*7E
$GPGSV,3,3,11,04,07,117,29,18,05,259,35,30,05,252,35*47
$GPRMC,131215.000,A,5006.1324,N,01959.1323,E,27.84,252.83,080808,,,A*54
$GPGGA,131216.000,5006.1303,N,01959.1220,E,1,09,0.8,246.6,M,42.0,M,,0000*5C
$GPGSA,A,3,18,17,09,12,26,22,15,14,28,,,,1.4,0.8,1.2*36
$GPRMC,131216.000,A,5006.1303,N,01959.1220,E,23.19,251.22,080808,,,A*58
$GPGGA,131217.000,5006.1289,N,01959.1142,E,1,09,0.8,247.1,M,42.0,M,,0000*5F
$GPGSA,A,3,18,17,09,12,26,22,15,14,28,,,,1.4,0.8,1.2*36
$GPRMC,131217.000,A,5006.1289,N,01959.1142,E,18.13,253.85,080808,,,A*50
$GPGGA,131218.000,5006.1285,N,01959.1088,E,1,09,0.8,247.1,M,42.0,M,,0000*5B
$GPGSA,A,3,18,17,09,12,26,22,15,14,28,,,,1.4,0.8,1.2*36
$GPRMC,131218.000,A,5006.1285,N,01959.1088,E,12.99,261.80,080808,,,A*58
$GPGGA,131219.000,5006.1292,N,01959.1052,E,1,09,0.8,247.0,M,42.0,M,,0000*5A
$GPGSA,A,3,18,17,09,12,26,22,15,14,28,,,,1.4,0.8,1.2*36
$GPRMC,131219.000,A,5006.1292,N,01959.1052,E,9.43,284.48,080808,,,A*6A
$GPGGA,131220.000,5006.1310,N,01959.1028,E,1,09,0.8,246.3,M,42.0,M,,0000*54
$GPGSA,A,3,18,17,09,12,26,22,15,14,28,,,,1.4,0.8,1.2*36
$GPGSV,3,1,11,09,76,297,35,12,46,253,34,17,44,064,37,15,26,186,35*72
$GPGSV,3,2,11,26,16,174,31,14,11,325,31,28,11,067,28,22,10,295,35*70
$GPGSV,3,3,11,04,07,117,28,18,05,259,30,30,05,252,31*47
$GPRMC,131220.000,A,5006.1310,N,01959.1028,E,8.80,311.23,080808,,,A*68
$GPGGA,131221.000,5006.1330,N,01959.1000,E,1,09,0.8,245.8,M,42.0,M,,0000*55
$GPGSA,A,3,18,17,09,12,26,22,15,14,28,,,,1.4,0.8,1.2*36
$GPRMC,131221.000,A,5006.1330,N,01959.1000,E,9.99,308.59,080808,,,A*6D
$GPGGA,131222.000,5006.1344,N,01959.0963,E,1,09,0.8,245.4,M,42.0,M,,0000*54
$GPGSA,A,3,18,17,09,12,26,22,15,14,28,,,,1.4,0.8,1.2*36
$GPRMC,131222.000,A,5006.1344,N,01959.0963,E,10.42,286.31,080808,,,A*57
$GPGGA,131223.000,5006.1347,N,01959.0917,E,1,09,0.8,244.9,M,42.0,M,,0000*59
$GPGSA,A,3,18,17,09,12,26,22,15,14,28,,,,1.4,0.8,1.2*36
$GPRMC,131223.000,A,5006.1347,N,01959.0917,E,11.56,264.78,080808,,,A*53
$GPGGA,131224.000,5006.1341,N,01959.0863,E,1,09,0.8,244.6,M,42.0,M,,0000*55
$GPGSA,A,3,18,17,09,12,26,22,15,14,28,,,,1.4,0.8,1.2*36
$GPRMC,131224.000,A,5006.1341,N,01959.0863,E,13.35,254.57,080808,,,A*59
$GPGGA,131225.000,5006.1330,N,01959.0807,E,1,09,0.8,244.1,M,42.0,M,,0000*57
$GPGSA,A,3,18,17,09,12,26,22,15,14,28,,,,1.4,0.8,1.2*36
$GPGSV,3,1,11,09,76,297,36,12,46,253,34,17,44,064,37,15,26,186,35*71
$GPGSV,3,2,11,26,16,174,31,14,11,325,31,28,11,067,19,22,10,295,35*72
$GPGSV,3,3,11,04,07,117,28,18,05,259,32,30,05,252,33*47
$GPRMC,131225.000,A,5006.1330,N,01959.0807,E,13.83,251.17,080808,,,A*50
$GPGGA,131226.000,5006.1318,N,01959.0754,E,1,09,0.8,243.9,M,42.0,M,,0000*58
$GPGSA,A,3,18,17,09,12,26,22,15,14,28,,,,1.4,0.8,1.2*36
$GPRMC,131226.000,A,5006.1318,N,01959.0754,E,12.49,248.93,080808,,,A*53
$GPGGA,131227.000,5006.1306,N,01959.0711,E,1,10,0.8,243.7,M,42.0,M,,0000*51
$GPGSA,A,3,18,17,09,12,26,22,15,14,28,30,,,1.4,0.8,1.1*36
$GPRMC,131227.000,A,5006.1306,N,01959.0711,E,9.88,243.45,080808,,,A*6B
$GPGGA,131228.000,5006.1293,N,01959.0681,E,1,10,0.8,243.5,M,42.0,M,,0000*59
$GPGSA,A,3,18,17,09,12,26,22,15,14,28,30,,,1.4,0.8,1.1*36
$GPRMC,131228.000,A,5006.1293,N,01959.0681,E,8.30,226.28,080808,,,A*6B
$GPGGA,131229.000,5006.1275,N,01959.0668,E,1,10,0.8,243.3,M,42.0,M,,0000*51
$GPGSA,A,3,18,17,09,12,26,22,15,14,28,30,,,1.4,0.8,1.1*36
$GPRMC,131229.000,A,5006.1275,N,01959.0668,E,7.02,194.16,080808,,,A*6C
$GPGGA,131230.000,5006.1260,N,01959.0673,E,1,10,0.8,243.1,M,42.0,M,,0000*55
$GPGSA,A,3,18,17,09,12,26,22,15,14,28,30,,,1.4,0.8,1.1*36
$GPGSV,3,1,11,09,76,296,36,12,47,253,35,17,44,064,37,15,26,186,35*70
$GPGSV,3,2,11,26,15,174,32,14,11,325,30,28,11,067,25,22,10,295,30*79
$GPGSV,3,3,11,04,07,116,28,18,05,259,33,30,05,252,34*40
$GPRMC,131230.000,A,5006.1260,N,01959.0673,E,5.61,163.86,080808,,,A*6C
$GPGGA,131231.000,5006.1250,N,01959.0682,E,1,10,0.8,242.9,M,42.0,M,,0000*50
$GPGSA,A,3,18,17,09,12,26,22,15,14,28,30,,,1.4,0.8,1.1*36
$GPRMC,131231.000,A,5006.1250,N,01959.0682,E,,163.86,080808,,,A*7C
$GPGGA,131232.000,5006.1247,N,01959.0689,E,1,10,0.8,242.9,M,42.0,M,,0000*5E
$GPGSA,A,3,18,17,09,12,26,22,15,14,28,30,,,1.4,0.8,1.1*36
$GPRMC,131232.000,A,5006.1247,N,01959.0689,E,,163.86,080808,,,A*72
$GPGGA,131233.000,5006.1246,N,01959.0692,E,1,10,0.8,242.8,M,42.0,M,,0000*55
$GPGSA,A,3,18,17,09,12,26,22,15,14,28,30,,,1.4,0.8,1.1*36
$GPRMC,131233.000,A,5006.1246,N,01959.0692,E,,163.86,080808,,,A*78
$GPGGA,131234.000,5006.1246,N,01959.0694,E,1,10,0.8,242.7,M,42.0,M,,0000*5B
$GPGSA,A,3,18,17,09,12,26,22,15,14,28,30,,,1.4,0.8,1.1*36
$GPRMC,131234.000,A,5006.1246,N,01959.0694,E,,163.86,080808,,,A*79
$GPGGA,131235.000,5006.1246,N,01959.0696,E,1,10,0.8,242.6,M,42.0,M,,0000*59
$GPGSA,A,3,18,17,09,12,26,22,15,14,28,30,,,1.4,0.8,1.1*36
$GPGSV,3,1,11,09,76,296,36,12,47,253,37,17,44,064,37,15,26,186,35*72
$GPGSV,3,2,11,26,15,174,32,14,11,325,30,28,11,067,26,22,10,295,23*78
$GPGSV,3,3,11,04,07,116,29,18,05,259,26,30,05,252,34*45
$GPRMC,131235.000,A,5006.1246,N,01959.0696,E,,163.86,080808,,,A*7A
$GPGGA,131236.000,5006.1245,N,01959.0698,E,1,10,0.8,242.6,M,42.0,M,,0000*57
$GPGSA,A,3,18,17,09,12,26,22,15,14,28,30,,,1.4,0.8,1.1*36
$GPRMC,131236.000,A,5006.1245,N,01959.0698,E,,163.86,080808,,,A*74
$GPGGA,131237.000,5006.1245,N,01959.0701,E,1,10,0.8,242.6,M,42.0,M,,0000*57
$GPGSA,A,3,18,17,09,12,26,22,15,14,28,30,,,1.4,0.8,1.1*36
$GPRMC,131237.000,A,5006.1245,N,01959.0701,E,,163.86,080808,,,A*74
$GPGGA,131238.000,5006.1245,N,01959.0702,E,1,10,0.8,242.6,M,42.0,M,,0000*5B
$GPGSA,A,3,18,17,09,12,26,22,15,14,28,30,,,1.4,0.8,1.1*36
$GPRMC,131238.000,A,5006.1245,N,01959.0702,E,,163.86,080808,,,A*78
$GPGGA,131239.000,5006.1245,N,01959.0702,E,1,10,0.8,242.5,M,42.0,M,,0000*59
$GPGSA,A,3,18,17,09,12,26,22,15,14,28,30,,,1.4,0.8,1.1*36
$GPRMC,131239.000,A,5006.1245,N,01959.0702,E,,163.86,080808,,,A*79
$GPGGA,131240.000,5006.1246,N,01959.0703,E,1,10,0.8,242.4,M,42.0,M,,0000*54
$GPGSA,A,3,18,17,09,12,26,22,15,14,28,30,,,1.4,0.8,1.1*36
$GPGSV,3,1,11,09,76,296,36,12,47,253,38,17,44,064,37,15,26,186,35*7D
$GPGSV,3,2,11,26,15,174,32,14,11,325,29,28,11,067,33,22,10,295,28*7F
$GPGSV,3,3,11,04,07,116,29,18,05,259,31,30,05,252,35*42
$GPRMC,131240.000,A,5006.1246,N,01959.0703,E,,163.86,080808,,,A*75
$GPGGA,131241.000,5006.1246,N,01959.0703,E,1,10,0.8,242.4,M,42.0,M,,0000*55
