$GPGSV,3,1,12,07,78,093,24,25,57,061,24,08,52,214,33,02,24,249,26*7F
$GPGSV,3,2,12,13,49,084,23,27,37,225,,15,26,299,,04,17,221,24*7A
$GPGSV,3,3,12,26,16,278,,23,16,093,23,21,12,325,,24,11,327,19*75
$GPRMC,151717.000,A,5005.5691,N,01956.7296,E,,359.15,010409,,,A*79
$GPGGA,151718.000,5005.5695,N,01956.7307,E,1,04,3.6,153.3,M,42.0,M,,0000*53
$GPGSA,A,3,07,25,08,02,,,,,,,,,3.7,3.6,1.0*38
$GPRMC,151718.000,A,5005.5695,N,01956.7307,E,,359.15,010409,,,A*7B
$GPGGA,151719.000,5005.5707,N,01956.7308,E,1,04,3.6,153.4,M,42.0,M,,0000*50
$GPGSA,A,3,07,25,08,02,,,,,,,,,3.7,3.6,1.0*38
$GPRMC,151719.000,A,5005.5707,N,01956.7308,E,,359.15,010409,,,A*7F
$GPGGA,151720.000,5005.5720,N,01956.7304,E,1,04,3.6,153.5,M,42.0,M,,0000*52
$GPGSA,A,3,07,25,08,02,,,,,,,,,3.7,3.6,1.0*38
$GPRMC,151720.000,A,5005.5720,N,01956.7304,E,3.49,356.64,010409,,,A*65
$GPGGA,151721.000,5005.5735,N,01956.7298,E,1,04,3.6,154.8,M,42.0,M,,0000*59
$GPGSA,A,3,07,25,08,02,,,,,,,,,3.7,3.6,1.0*38
$GPRMC,151721.000,A,5005.5735,N,01956.7298,E,,356.64,010409,,,A*74
$GPGGA,151722.000,5005.5739,N,01956.7308,E,1,04,3.6,154.3,M,42.0,M,,0000*55
$GPGSA,A,3,07,25,08,02,,,,,,,,,3.7,3.6,1.0*38
$GPGSV,3,1,12,07,78,093,24,25,57,061,26,08,52,214,33,02,24,249,26*7D
$GPGSV,3,2,12,13,49,084,22,27,37,225,,15,26,299,,04,17,221,33*7D
$GPGSV,3,3,12,26,16,278,,23,16,093,26,21,12,325,,24,11,327,21*7B
$GPRMC,151722.000,A,5005.5739,N,01956.7308,E,,356.64,010409,,,A*73
$GPGGA,151723.000,5005.5750,N,01956.7308,E,1,04,3.6,154.7,M,42.0,M,,0000*5F
$GPGSA,A,3,07,25,08,02,,,,,,,,,3.7,3.6,1.0*38
$GPRMC,151723.000,A,5005.5750,N,01956.7308,E,,356.64,010409,,,A*7D
$GPGGA,151724.000,5005.5751,N,01956.7320,E,1,04,3.6,154.7,M,42.0,M,,0000*53
$GPGSA,A,3,07,25,08,02,,,,,,,,,3.7,3.6,1.0*38
$GPRMC,151724.000,A,5005.5751,N,01956.7320,E,,356.64,010409,,,A*71
$GPGGA,151725.000,5005.5754,N,01956.7327,E,1,04,3.6,154.0,M,42.0,M,,0000*57
$GPGSA,A,3,07,25,08,02,,,,,,,,,3.7,3.6,1.0*38
$GPRMC,151725.000,A,5005.5754,N,01956.7327,E,,356.64,010409,,,A*72
$GPGGA,151726.000,5005.5757,N,01956.7334,E,1,04,3.6,153.3,M,42.0,M,,0000*51
$GPGSA,A,3,07,25,08,02,,,,,,,,,3.7,3.6,1.0*38
$GPRMC,151726.000,A,5005.5757,N,01956.7334,E,,356.64,010409,,,A*70
$GPGGA,151727.000,5005.5768,N,01956.7333,E,1,04,3.6,153.4,M,42.0,M,,0000*5C
$GPGSA,A,3,07,25,08,02,,,,,,,,,3.7,3.6,1.0*38
$GPGSV,3,1,12,07,78,093,24,25,57,061,26,08,52,214,34,02,24,249,27*7B
$GPGSV,3,2,12,13,49,084,21,27,37,225,,15,26,299,,04,17,221,30*7D
$GPGSV,3,3,12,26,16,278,,23,16,093,25,21,12,325,,24,11,327,22*7B
$GPRMC,151727.000,A,5005.5768,N,01956.7333,E,,356.64,010409,,,A*7A
$GPGGA,151728.000,5005.5777,N,01956.7332,E,1,04,3.6,153.7,M,42.0,M,,0000*5F
$GPGSA,A,3,07,25,08,02,,,,,,,,,3.7,3.6,1.0*38
$GPRMC,151728.000,A,5005.5777,N,01956.7332,E,,356.64,010409,,,A*7A
$GPGGA,151729.000,5005.5782,N,01956.7332,E,1,04,3.6,154.4,M,42.0,M,,0000*50
$GPGSA,A,3,07,25,08,02,,,,,,,,,3.7,3.6,1.0*38
$GPRMC,151729.000,A,5005.5782,N,01956.7332,E,,356.64,010409,,,A*71
$GPGGA,151730.000,5005.5787,N,01956.7336,E,1,04,3.6,154.5,M,42.0,M,,0000*58
$GPGSA,A,3,07,25,08,02,,,,,,,,,3.7,3.6,1.0*38
$GPRMC,151730.000,A,5005.5787,N,01956.7336,E,,356.64,010409,,,A*78
$GPGGA,151731.000,5005.5794,N,01956.7331,E,1,04,3.6,156.8,M,42.0,M,,0000*53
$GPGSA,A,3,07,25,08,02,,,,,,,,,3.7,3.6,1.0*38
$GPRMC,151731.000,A,5005.5794,N,01956.7331,E,,356.64,010409,,,A*7C
$GPGGA,151732.000,5005.5804,N,01956.7329,E,1,04,3.6,157.7,M,42.0,M,,0000*51
$GPGSA,A,3,07,25,08,02,,,,,,,,,3.7,3.6,1.0*38
$GPGSV,3,1,12,07,78,093,23,25,57,061,23,08,52,214,35,02,24,249,27*78
$GPGSV,3,2,12,13,49,084,21,27,37,225,,15,26,299,,04,17,221,31*7C
$GPGSV,3,3,12,26,16,278,,23,16,093,23,21,12,325,,24,11,327,19*75
$GPRMC,151732.000,A,5005.5804,N,01956.7329,E,,356.64,010409,,,A*70
$GPGGA,151733.000,5005.5810,N,01956.7336,E,1,04,3.6,156.8,M,42.0,M,,0000*55
$GPGSA,A,3,07,25,08,02,,,,,,,,,3.7,3.6,1.0*38
$GPRMC,151733.000,A,5005.5810,N,01956.7336,E,,356.64,010409,,,A*7A
$GPGGA,151734.000,5005.5820,N,01956.7335,E,1,04,3.6,157.8,M,42.0,M,,0000*53
$GPGSA,A,3,07,25,08,02,,,,,,,,,3.7,3.6,1.0*38
$GPRMC,151734.000,A,5005.5820,N,01956.7335,E,,356.64,010409,,,A*7D
$GPGGA,151735.000,5005.5826,N,01956.7336,E,1,04,3.6,159.4,M,42.0,M,,0000*55
$GPGSA,A,3,07,25,08,02,,,,,,,,,3.7,3.6,1.0*38
$GPRMC,151735.000,A,5005.5826,N,01956.7336,E,3.37,14.63,010409,,,A*52
$GPGGA,151736.000,5005.5834,N,01956.7337,E,1,04,3.6,160.6,M,42.0,M,,0000*5C
$GPGSA,A,3,07,25,08,02,,,,,,,,,3.7,3.6,1.0*38
$GPRMC,151736.000,A,5005.5834,N,01956.7337,E,3.66,17.66,010409,,,A*51
$GPGGA,151737.000,5005.5844,N,01956.7333,E,1,04,3.6,162.6,M,42.0,M,,0000*5C
$GPGSA,A,3,07,25,08,02,,,,,,,,,3.7,3.6,1.0*38
$GPGSV,3,1,12,07,78,093,23,25,57,061,24,08,52,214,28,02,24,249,28*7C
$GPGSV,3,2,12,13,49,084,21,27,37,225,,15,26,299,,04,17,221,31*7C
$GPGSV,3,3,12,26,16,278,,23,16,093,23,21,12,325,,24,11,327,20*7F
$GPRMC,151737.000,A,5005.5844,N,01956.7333,E,,17.66,010409,,,A*4E
$GPGGA,151738.000,5005.5851,N,01956.7334,E,1,04,3.6,162.8,M,42.0,M,,0000*5E
$GPGSA,A,3,07,25,08,02,,,,,,,,,3.7,3.6,1.0*38
$GPRMC,151738.000,A,5005.5851,N,01956.7334,E,,17.66,010409,,,A*42
$GPGGA,151739.000,5005.5856,N,01956.7340,E,1,04,3.6,161.5,M,42.0,M,,0000*55
$GPGSA,A,3,07,25,08,02,,,,,,,,,3.7,3.6,1.0*38
$GPRMC,151739.000,A,5005.5856,N,01956.7340,E,,17.66,010409,,,A*47
$GPGGA,151740.000,5005.5860,N,01956.7348,E,1,04,3.6,160.0,M,42.0,M,,0000*52
$GPGSA,A,3,07,25,08,02,,,,,,,,,3.7,3.6,1.0*38
$GPRMC,151740.000,A,5005.5860,N,01956.7348,E,,17.66,010409,,,A*44
$GPGGA,151741.000,5005.5868,N,01956.7357,E,1,04,3.6,158.7,M,42.0,M,,0000*59
$GPGSA,A,3,07,25,08,02,,,,,,,,,3.7,3.6,1.0*38
$GPRMC,151741.000,A,5005.5868,N,01956.7357,E,,17.66,010409,,,A*43
$GPGGA,151742.000,5005.5876,N,01956.7365,E,1,04,3.6,157.6,M,42.0,M,,0000*5A
$GPGSA,A,3,07,25,08,02,,,,,,,,,3.8,3.6,1.0*37
$GPGSV,3,1,12,07,78,093,23,25,57,061,29,08,52,214,35,02,24,249,28*7D
$GPGSV,3,2,12,13,49,084,21,27,37,225,,15,26,299,,04,17,221,25*79
$GPGSV,3,3,12,26,16,278,,23,16,093,23,21,12,325,,24,11,327,24*7B
$GPRMC,151742.000,A,5005.5876,N,01956.7365,E,,17.66,010409,,,A*4E
$GPGGA,151743.000,5005.5885,N,01956.7369,E,1,04,3.6,157.6,M,42.0,M,,0000*5B
$GPGSA,A,3,07,25,08,02,,,,,,,,,3.8,3.6,1.0*37
$GPRMC,151743.000,A,5005.5885,N,01956.7369,E,,17.66,010409,,,A*4F
$GPGGA,151744.000,5005.5894,N,01956.7370,E,1,04,3.6,157.7,M,42.0,M,,0000*55
$GPGSA,A,3,07,25,08,02,,,,,,,,,3.8,3.6,1.0*37
$GPRMC,151744.000,A,5005.5894,N,01956.7370,E,,17.66,010409,,,A*40
$GPGGA,151745.000,5005.5900,N,01956.7373,E,1,04,3.6,157.1,M,42.0,M,,0000*5D
$GPGSA,A,3,07,25,08,02,,,,,,,,,3.8,3.6,1.0*37
$GPRMC,151745.000,A,5005.5900,N,01956.7373,E,,17.66,010409,,,A*4E
$GPGGA,151746.000,5005.5906,N,01956.7371,E,1,04,3.6,157.6,M,42.0,M,,0000*5D
$GPGSA,A,3,07,25,08,02,,,,,,,,,3.8,3.6,1.0*37
$GPRMC,151746.000,A,5005.5906,N,01956.7371,E,,17.66,010409,,,A*49
$GPGGA,151747.000,5005.5909,N,01956.7369,E,1,04,3.6,157.5,M,42.0,M,,0000*59
$GPGSA,A,3,07,25,08,02,,,,,,,,,3.8,3.6,1.0*37
$GPGSV,3,1,12,07,78,093,23,25,57,061,27,08,52,214,35,02,24,249,28*73
$GPGSV,3,2,12,13,49,084,21,27,37,225,,15,26,299,,04,17,221,22*7E
$GPGSV,3,3,12,26,16,278,,23,16,093,23,21,12,325,,24,11,327,14*78
$GPRMC,151747.000,A,5005.5909,N,01956.7369,E,,17.66,010409,,,A*4E
$GPGGA,151748.000,5005.5911,N,01956.7376,E,1,04,3.6,156.2,M,42.0,M,,0000*57
$GPGSA,A,3,07,25,08,02,,,,,,,,,3.8,3.6,1.0*37
$GPRMC,151748.000,A,5005.5911,N,01956.7376,E,,17.66,010409,,,A*46
$GPGGA,151749.000,5005.5916,N,01956.7383,E,1,04,3.6,155.2,M,42.0,M,,0000*58
$GPGSA,A,3,07,25,08,02,,,,,,,,,3.8,3.6,1.0*37
$GPRMC,151749.000,A,5005.5916,N,01956.7383,E,,17.66,010409,,,A*4A
$GPGGA,151750.000,5005.5925,N,01956.7382,E,1,04,3.6,155.6,M,42.0,M,,0000*55
$GPGSA,A,3,07,25,08,02,,,,,,,,,3.8,3.6,1.0*37
$GPRMC,151750.000,A,5005.5925,N,01956.7382,E,,17.66,010409,,,A*43
$GPGGA,151751.000,5005.5937,N,01956.7380,E,1,04,3.6,156.2,M,42.0,M,,0000*52
$GPGSA,A,3,07,25,08,02,,,,,,,,,3.8,3.6,1.0*37
$GPRMC,151751.000,A,5005.5937,N,01956.7380,E,,17.66,010409,,,A*43
$GPGGA,151752.000,5005.5949,N,01956.7384,E,1,04,3.6,156.3,M,42.0,M,,0000*5D
$GPGSA,A,3,07,25,08,02,,,,,,,,,3.8,3.6,1.0*37
$GPGSV,3,1,12,07,78,093,23,25,57,061,27,08,52,214,35,02,24,249,28*73
$GPGSV,3,2,12,13,49,084,21,27,37,225,,15,26,299,,04,17,221,27*7B
$GPGSV,3,3,12,26,16,278,,23,16,093,23,21,12,325,,24,11,327,19*75
$GPRMC,151752.000,A,5005.5949,N,01956.7384,E,3.30,20.69,010409,,,A*58
$GPGGA,151753.000,5005.5957,N,01956.7392,E,1,04,3.6,155.4,M,42.0,M,,0000*50
$GPGSA,A,3,07,25,08,02,,,,,,,,,3.8,3.6,1.0*37
$GPRMC,151753.000,A,5005.5957,N,01956.7392,E,,20.69,010409,,,A*4F
$GPGGA,151754.000,5005.5967,N,01956.7394,E,1,04,3.6,155.8,M,42.0,M,,0000*5E
$GPGSA,A,3,07,25,08,02,,,,,,,,,3.8,3.6,1.0*37
$GPRMC,151754.000,A,5005.5967,N,01956.7394,E,,20.69,010409,,,A*4D
$GPGGA,151755.000,5005.5979,N,01956.7394,E,1,04,3.6,156.8,M,42.0,M,,0000*53
$GPGSA,A,3,07,25,08,02,,,,,,,,,3.8,3.6,1.0*37
$GPRMC,151755.000,A,5005.5979,N,01956.7394,E,,20.69,010409,,,A*43
$GPGGA,151756.000,5005.5986,N,01956.7397,E,1,04,3.6,156.4,M,42.0,M,,0000*5F
$GPGSA,A,3,07,25,08,02,,,,,,,,,3.8,3.6,1.0*37
$GPRMC,151756.000,A,5005.5986,N,01956.7397,E,,20.69,010409,,,A*43
$GPGGA,151757.000,5005.5996,N,01956.7396,E,1,04,3.6,157.1,M,42.0,M,,0000*5A
$GPGSA,A,3,07,25,08,02,,,,,,,,,3.8,3.6,1.0*37
$GPGSV,3,1,12,07,78,093,23,25,57,061,28,08,52,214,36,02,24,249,29*7E
$GPGSV,3,2,12,13,49,084,21,27,37,225,,15,26,299,,04,17,221,20*7C
$GPGSV,3,3,12,26,16,278,,23,16,093,23,21,12,325,,24,11,327,20*7F
$GPRMC,151757.000,A,5005.5996,N,01956.7396,E,,20.69,010409,,,A*42
$GPGGA,151758.000,5005.6006,N,01956.7399,E,1,04,3.6,157.0,M,42.0,M,,0000*58
$GPGSA,A,3,07,25,08,02,,,,,,,,,3.8,3.6,1.0*37
$GPRMC,151758.000,A,5005.6006,N,01956.7399,E,3.28,9.86,010409,,,A*6C
$GPGGA,151759.000,5005.6012,N,01956.7406,E,1,04,3.6,155.8,M,42.0,M,,0000*57
$GPGSA,A,3,07,25,08,02,,,,,,,,,3.8,3.6,1.0*37
$GPRMC,151759.000,A,5005.6012,N,01956.7406,E,,9.86,010409,,,A*7E
$GPGGA,151800.000,5005.6026,N,01956.7403,E,1,04,3.6,156.9,M,42.0,M,,0000*54
$GPGSA,A,3,07,25,08,02,,,,,,,,,3.8,3.6,1.0*37
$GPRMC,151800.000,A,5005.6026,N,01956.7403,E,3.92,11.70,010409,,,A*59
$GPGGA,151801.000,5005.6042,N,01956.7401,E,1,04,3.6,157.5,M,42.0,M,,0000*58
$GPGSA,A,3,07,25,08,02,,,,,,,,,3.8,3.6,1.0*37
$GPRMC,151801.000,A,5005.6042,N,01956.7401,E,3.82,13.13,010409,,,A*5E
$GPGGA,151802.000,5005.6055,N,01956.7401,E,1,04,3.6,157.4,M,42.0,M,,0000*5C
$GPGSA,A,3,07,25,08,02,,,,,,,,,3.8,3.6,1.0*37
$GPGSV,3,1,12,07,78,093,23,25,57,061,27,08,52,214,36,02,24,249,28*70
$GPGSV,3,2,12,13,49,084,22,27,37,225,,15,26,299,,04,17,221,27*78
$GPGSV,3,3,12,26,16,278,,23,16,093,23,21,12,325,,24,11,327,20*7F
$GPRMC,151802.000,A,5005.6055,N,01956.7401,E,3.78,11.40,010409,,,A*5A
$GPGGA,151803.000,5005.6069,N,01956.7400,E,1,04,3.6,157.7,M,42.0,M,,0000*50
$GPGSA,A,3,07,25,08,02,,,,,,,,,3.8,3.6,1.0*37
$GPRMC,151803.000,A,5005.6069,N,01956.7400,E,3.52,11.02,010409,,,A*5B
$GPGGA,151804.000,5005.6076,N,01956.7404,E,1,04,3.6,156.5,M,42.0,M,,0000*5E
$GPGSA,A,3,07,25,08,02,,,,,,,,,3.8,3.6,1.0*37
$GPRMC,151804.000,A,5005.6076,N,01956.7404,E,,11.02,010409,,,A*4C
$GPGGA,151805.000,5005.6079,N,01956.7407,E,1,04,3.6,155.7,M,42.0,M,,0000*52
$GPGSA,A,3,07,25,08,02,,,,,,,,,3.8,3.6,1.0*37
$GPRMC,151805.000,A,5005.6079,N,01956.7407,E,,11.02,010409,,,A*41
$GPGGA,151806.000,5005.6085,N,01956.7410,E,1,04,3.7,155.3,M,42.0,M,,0000*51
$GPGSA,A,3,07,25,08,02,,,,,,,,,3.8,3.7,1.0*36
$GPRMC,151806.000,A,5005.6085,N,01956.7410,E,,11.02,010409,,,A*47
$GPGGA,151807.000,5005.6093,N,01956.7418,E,1,04,3.7,154.6,M,42.0,M,,0000*5B
$GPGSA,A,3,07,25,08,02,,,,,,,,,3.8,3.7,1.0*36
$GPGSV,3,1,12,07,78,093,23,25,57,061,26,08,52,214,36,02,24,249,30*78
$GPGSV,3,2,12,13,49,084,23,27,37,225,,15,26,299,,04,17,221,26*78
$GPGSV,3,3,12,26,16,278,,23,16,093,23,21,12,325,,24,11,327,22*7D
$GPRMC,151807.000,A,5005.6093,N,01956.7418,E,,11.02,010409,,,A*49
$GPGGA,151808.000,5005.6101,N,01956.7424,E,1,04,3.7,154.8,M,42.0,M,,0000*5F
$GPGSA,A,3,07,25,08,02,,,,,,,,,3.8,3.7,1.0*36
$GPRMC,151808.000,A,5005.6101,N,01956.7424,E,,11.02,010409,,,A*43
$GPGGA,151809.000,5005.6112,N,01956.7426,E,1,04,3.7,155.9,M,42.0,M,,0000*5E
$GPGSA,A,3,07,25,08,02,,,,,,,,,3.8,3.7,1.0*36
$GPRMC,151809.000,A,5005.6112,N,01956.7426,E,,11.02,010409,,,A*42
$GPGGA,151810.000,5005.6122,N,01956.7429,E,1,04,3.7,156.1,M,42.0,M,,0000*51
$GPGSA,A,3,07,25,08,02,,,,,,,,,3.8,3.7,1.0*36
$GPRMC,151810.000,A,5005.6122,N,01956.7429,E,,11.02,010409,,,A*46
$GPGGA,151811.000,5005.6127,N,01956.7435,E,1,04,3.7,155.5,M,42.0,M,,0000*5F
$GPGSA,A,3,07,25,08,02,,,,,,,,,3.8,3.7,1.0*36
$GPRMC,151811.000,A,5005.6127,N,01956.7435,E,,11.02,010409,,,A*4F
$GPGGA,151812.000,5005.6132,N,01956.7444,E,1,04,3.7,154.3,M,42.0,M,,0000*59
$GPGSA,A,3,07,25,08,02,,,,,,,,,3.8,3.7,1.0*36
$GPGSV,3,1,12,07,78,091,23,25,57,061,29,08,53,214,34,13,48,085,24*7B
$GPGSV,3,2,12,27,37,225,,15,27,298,,02,23,248,30,26,17,279,*7D
$GPGSV,3,3,12,04,16,220,21,23,15,093,17,21,12,324,,24,11,327,21*75
$GPRMC,151812.000,A,5005.6132,N,01956.7444,E,3.27,16.15,010409,,,A*57
$GPGGA,151813.000,5005.6136,N,01956.7452,E,1,04,3.7,152.7,M,42.0,M,,0000*59
$GPGSA,A,3,07,25,08,02,,,,,,,,,3.8,3.7,1.0*36
$GPRMC,151813.000,A,5005.6136,N,01956.7452,E,,16.15,010409,,,A*4D
$GPGGA,151814.000,5005.6142,N,01956.7455,E,1,04,3.7,152.2,M,42.0,M,,0000*5F
$GPGSA,A,3,07,25,08,02,,,,,,,,,3.8,3.7,1.0*36
$GPRMC,151814.000,A,5005.6142,N,01956.7455,E,,16.15,010409,,,A*4E
$GPGGA,151815.000,5005.6148,N,01956.7455,E,1,04,3.7,152.1,M,42.0,M,,0000*57
$GPGSA,A,3,07,25,08,02,,,,,,,,,3.8,3.7,1.0*36
$GPRMC,151815.000,A,5005.6148,N,01956.7455,E,,16.15,010409,,,A*45
$GPGGA,151816.000,5005.6154,N,01956.7455,E,1,04,3.7,151.9,M,42.0,M,,0000*52
$GPGSA,A,3,07,25,08,02,,,,,,,,,3.8,3.7,1.0*36
$GPRMC,151816.000,A,5005.6154,N,01956.7455,E,,16.15,010409,,,A*4B
$GPGGA,151817.000,5005.6166,N,01956.7453,E,1,04,3.7,152.9,M,42.0,M,,0000*57
$GPGSA,A,3,07,25,08,02,,,,,,,,,3.8,3.7,1.0*36
$GPGSV,3,1,12,07,78,091,23,25,57,061,28,08,53,214,35,13,48,085,22*7D
$GPGSV,3,2,12,27,37,225,,15,27,298,,02,23,248,25,26,17,279,*79
$GPGSV,3,3,12,04,16,220,20,23,15,093,31,21,12,324,,24,11,327,20*71
$GPRMC,151817.000,A,5005.6166,N,01956.7453,E,,16.15,010409,,,A*4D
$GPGGA,151818.000,5005.6177,N,01956.7449,E,1,04,3.7,154.2,M,42.0,M,,0000*5E
$GPGSA,A,3,07,25,08,02,,,,,,,,,3.8,3.7,1.0*36
$GPRMC,151818.000,A,5005.6177,N,01956.7449,E,,16.15,010409,,,A*49
$GPGGA,151819.000,5005.6186,N,01956.7442,E,1,04,3.7,155.6,M,42.0,M,,0000*5F
$GPGSA,A,3,07,25,08,02,,,,,,,,,3.8,3.7,1.0*36
$GPRMC,151819.000,A,5005.6186,N,01956.7442,E,,16.15,010409,,,A*4D
$GPGGA,151820.000,5005.6193,N,01956.7448,E,1,04,3.7,154.9,M,42.0,M,,0000*55
$GPGSA,A,3,07,25,08,02,,,,,,,,,3.8,3.7,1.0*36
$GPRMC,151820.000,A,5005.6193,N,01956.7448,E,,16.15,010409,,,A*49
$GPGGA,151821.000,5005.6202,N,01956.7450,E,1,04,3.7,155.4,M,42.0,M,,0000*5A
$GPGSA,A,3,07,25,08,02,,,,,,,,,3.8,3.7,1.0*36
$GPRMC,151821.000,A,5005.6202,N,01956.7450,E,,16.15,010409,,,A*4A
$GPGGA,151822.000,5005.6209,N,01956.7454,E,1,04,3.7,155.2,M,42.0,M,,0000*50
$GPGSA,A,3,07,25,08,02,,,,,,,,,3.8,3.7,1.0*36
$GPGSV,3,1,12,07,78,091,23,25,57,061,28,08,53,214,35,13,48,085,18*74
$GPGSV,3,2,12,27,37,225,,15,27,298,,02,23,248,32,26,17,279,*7F
$GPGSV,3,3,12,04,16,220,22,23,15,093,25,21,12,324,,24,11,327,17*72
$GPRMC,151822.000,A,5005.6209,N,01956.7454,E,,16.15,010409,,,A*46
$GPGGA,151823.000,5005.6219,N,01956.7451,E,1,04,3.7,156.2,M,42.0,M,,0000*56
$GPGSA,A,3,07,25,08,02,,,,,,,,,3.8,3.7,1.0*36
$GPRMC,151823.000,A,5005.6219,N,01956.7451,E,,16.15,010409,,,A*43
$GPGGA,151824.000,5005.6224,N,01956.7456,E,1,04,3.7,155.5,M,42.0,M,,0000*5C
$GPGSA,A,3,07,25,08,02,,,,,,,,,3.8,3.7,1.0*36
$GPRMC,151824.000,A,5005.6224,N,01956.7456,E,,16.15,010409,,,A*4D
$GPGGA,151825.000,5005.6233,N,01956.7455,E,1,04,3.7,156.2,M,42.0,M,,0000*5C
$GPGSA,A,3,07,25,08,02,,,,,,,,,3.8,3.7,1.0*36
$GPRMC,151825.000,A,5005.6233,N,01956.7455,E,,16.15,010409,,,A*49
$GPGGA,151826.000,5005.6241,N,01956.7452,E,1,04,3.7,157.2,M,42.0,M,,0000*5C
$GPGSA,A,3,07,25,08,02,,,,,,,,,3.8,3.7,1.0*36
$GPRMC,151826.000,A,5005.6241,N,01956.7452,E,,16.15,010409,,,A*48
$GPGGA,151827.000,5005.6252,N,01956.7450,E,1,04,3.7,158.5,M,42.0,M,,0000*55
$GPGSA,A,3,07,25,08,02,,,,,,,,,3.8,3.7,1.0*36
$GPGSV,3,1,12,07,78,091,23,25,57,061,27,08,53,214,35,13,48,085,19*7A
$GPGSV,3,2,12,27,37,225,,15,27,298,,02,23,248,27,26,17,279,*7B
$GPGSV,3,3,12,04,16,220,21,23,15,093,24,21,12,324,,24,11,327,17*70
$GPRMC,151827.000,A,5005.6252,N,01956.7450,E,,16.15,010409,,,A*49
$GPGGA,151828.000,5005.6258,N,01956.7457,E,1,04,3.7,158.0,M,42.0,M,,0000*52
$GPGSA,A,3,07,25,08,02,,,,,,,,,3.8,3.7,1.0*36
$GPRMC,151828.000,A,5005.6258,N,01956.7457,E,,16.15,010409,,,A*4B
$GPGGA,151829.000,5005.6264,N,01956.7460,E,1,04,3.7,157.9,M,42.0,M,,0000*5E
$GPGSA,A,3,07,25,08,02,,,,,,,,,3.8,3.7,1.0*36
$GPRMC,151829.000,A,5005.6264,N,01956.7460,E,,16.15,010409,,,A*41
$GPGGA,151830.000,5005.6268,N,01956.7461,E,1,04,3.7,157.8,M,42.0,M,,0000*5A
$GPGSA,A,3,07,25,08,02,,,,,,,,,3.8,3.7,1.0*36
$GPRMC,151830.000,A,5005.6268,N,01956.7461,E,,16.15,010409,,,A*44
$GPGGA,151831.000,5005.6269,N,01956.7465,E,1,04,3.7,156.8,M,42.0,M,,0000*5F
$GPGSA,A,3,07,25,08,02,,,,,,,,,3.8,3.7,1.0*36
$GPRMC,151831.000,A,5005.6269,N,01956.7465,E,,16.15,010409,,,A*40
$GPGGA,151832.000,5005.6266,N,01956.7468,E,1,04,3.7,156.7,M,42.0,M,,0000*51
$GPGSA,A,3,07,25,08,02,,,,,,,,,3.8,3.7,1.0*36
$GPGSV,3,1,12,07,78,091,23,25,57,061,22,08,53,214,35,13,48,085,20*75
$GPGSV,3,2,12,27,37,225,,15,27,298,,02,23,248,33,26,17,279,*7E
$GPGSV,3,3,12,04,16,220,20,23,15,093,22,21,12,324,,24,11,327,17*77
$GPRMC,151832.000,A,5005.6266,N,01956.7468,E,,16.15,010409,,,A*41
$GPGGA,151833.000,5005.6262,N,01956.7466,E,1,04,3.7,157.3,M,42.0,M,,0000*5F
$GPGSA,A,3,07,25,08,02,,,,,,,,,3.8,3.7,1.0*36
$GPRMC,151833.000,A,5005.6262,N,01956.7466,E,,16.15,010409,,,A*4A
$GPGGA,151834.000,5005.6262,N,01956.7461,E,1,04,3.7,158.1,M,42.0,M,,0000*52
$GPGSA,A,3,07,25,08,02,,,,,,,,,3.8,3.7,1.0*36
$GPRMC,151834.000,A,5005.6262,N,01956.7461,E,,16.15,010409,,,A*4A
$GPGGA,151835.000,5005.6268,N,01956.7467,E,1,04,3.7,157.4,M,42.0,M,,0000*55
$GPGSA,A,3,07,25,08,02,,,,,,,,,3.8,3.7,1.0*36
$GPRMC,151835.000,A,5005.6268,N,01956.7467,E,,16.15,010409,,,A*47
$GPGGA,151836.000,5005.6278,N,01956.7470,E,1,04,3.7,157.8,M,42.0,M,,0000*5D
$GPGSA,A,3,07,25,08,02,,,,,,,,,3.8,3.7,1.0*36
$GPRMC,151836.000,A,5005.6278,N,01956.7470,E,,16.15,010409,,,A*43
$GPGGA,151837.000,5005.6288,N,01956.7474,E,1,04,3.7,157.7,M,42.0,M,,0000*58
$GPGSA,A,3,07,25,08,02,,,,,,,,,3.8,3.7,1.0*36
$GPGSV,3,1,12,07,78,091,23,25,57,061,24,08,53,214,35,13,48,085,20*73
$GPGSV,3,2,12,27,37,225,,15,27,298,,02,23,248,27,26,17,279,*7B
$GPGSV,3,3,12,04,16,220,19,23,15,093,23,21,12,324,,24,11,327,24*7C
$GPRMC,151837.000,A,5005.6288,N,01956.7474,E,,16.15,010409,,,A*49
$GPGGA,151838.000,5005.6297,N,01956.7475,E,1,04,3.7,158.2,M,42.0,M,,0000*52
$GPGSA,A,3,07,25,08,02,,,,,,,,,3.8,3.7,1.0*36
$GPRMC,151838.000,A,5005.6297,N,01956.7475,E,,16.15,010409,,,A*49
$GPGGA,151839.000,5005.6307,N,01956.7475,E,1,04,3.7,159.0,M,42.0,M,,0000*58
$GPGSA,A,3,07,25,08,02,,,,,,,,,3.8,3.7,1.0*36
$GPRMC,151839.000,A,5005.6307,N,01956.7475,E,,16.15,010409,,,A*40
$GPGGA,151840.000,5005.6318,N,01956.7476,E,1,04,3.7,159.1,M,42.0,M,,0000*5A
$GPGSA,A,3,07,25,08,02,,,,,,,,,3.8,3.7,1.0*36
$GPRMC,151840.000,A,5005.6318,N,01956.7476,E,,16.15,010409,,,A*43
$GPGGA,151841.000,5005.6332,N,01956.7481,E,1,04,3.7,159.1,M,42.0,M,,0000*5B
$GPGSA,A,3,07,25,08,02,,,,,,,,,3.8,3.7,1.0*36
$GPRMC,151841.000,A,5005.6332,N,01956.7481,E,3.53,12.10,010409,,,A*58
$GPGGA,151842.000,5005.6346,N,01956.7484,E,1,04,3.7,159.6,M,42.0,M,,0000*59
$GPGSA,A,3,07,25,08,02,,,,,,,,,3.8,3.7,1.0*36
$GPGSV,3,1,12,07,78,090,23,25,57,061,30,08,53,214,35,13,48,085,21*76
$GPGSV,3,2,12,27,37,225,,15,27,298,,02,23,248,29,04,16,220,19*70
$GPGSV,3,3,12,23,15,094,23,21,12,324,,24,11,327,23,28,11,163,*79
$GPRMC,151842.000,A,5005.6346,N,01956.7484,E,3.32,8.53,010409,,,A*66
$GPGGA,151843.000,5005.6354,N,01956.7484,E,1,04,3.7,160.0,M,42.0,M,,0000*57
$GPGSA,A,3,07,25,08,02,,,,,,,,,3.8,3.7,1.0*36
$GPRMC,151843.000,A,5005.6354,N,01956.7484,E,,8.53,010409,,,A*78
$GPGGA,151844.000,5005.6363,N,01956.7484,E,1,04,3.7,160.7,M,42.0,M,,0000*53
$GPGSA,A,3,07,25,08,02,,,,,,,,,3.8,3.7,1.0*36
$GPRMC,151844.000,A,5005.6363,N,01956.7484,E,,8.53,010409,,,A*7B
$GPGGA,151845.000,5005.6373,N,01956.7485,E,1,04,3.7,160.8,M,42.0,M,,0000*5D
$GPGSA,A,3,07,25,08,02,,,,,,,,,3.8,3.7,1.0*36
$GPRMC,151845.000,A,5005.6373,N,01956.7485,E,,8.53,010409,,,A*7A
$GPGGA,151846.000,5005.6385,N,01956.7485,E,1,04,3.7,161.2,M,42.0,M,,0000*5C
$GPGSA,A,3,07,25,08,02,,,,,,,,,3.8,3.7,1.0*36
$GPRMC,151846.000,A,5005.6385,N,01956.7485,E,,8.53,010409,,,A*70
$GPGGA,151847.000,5005.6397,N,01956.7484,E,1,04,3.7,161.6,M,42.0,M,,0000*5B
$GPGSA,A,3,07,25,08,02,,,,,,,,,3.8,3.7,1.0*36
$GPGSV,3,1,12,07,78,090,24,25,57,061,30,08,53,214,35,13,48,085,21*71
$GPGSV,3,2,12,27,37,225,,15,27,298,,02,23,248,27,04,16,220,18*7F
$GPGSV,3,3,12,23,15,094,24,21,12,324,,24,11,327,20,28,11,163,*7D
$GPRMC,151847.000,A,5005.6397,N,01956.7484,E,,8.53,010409,,,A*73
$GPGGA,151848.000,5005.6412,N,01956.7479,E,1,04,3.7,162.6,M,42.0,M,,0000*5F
$GPGSA,A,3,07,25,08,02,,,,,,,,,3.8,3.7,1.0*36
$GPRMC,151848.000,A,5005.6412,N,01956.7479,E,,8.53,010409,,,A*74
$GPGGA,151849.000,5005.6424,N,01956.7476,E,1,04,3.7,162.9,M,42.0,M,,0000*5B
$GPGSA,A,3,07,25,08,02,,,,,,,,,3.8,3.7,1.0*36
$GPRMC,151849.000,A,5005.6424,N,01956.7476,E,,8.53,010409,,,A*7F
$GPGGA,151850.000,5005.6436,N,01956.7474,E,1,04,3.7,163.5,M,42.0,M,,0000*5F
$GPGSA,A,3,07,25,08,02,,,,,,,,,3.8,3.7,1.0*36
$GPRMC,151850.000,A,5005.6436,N,01956.7474,E,3.25,359.77,010409,,,A*6D
$GPGGA,151851.000,5005.6446,N,01956.7475,E,1,04,3.7,163.7,M,42.0,M,,0000*5A
$GPGSA,A,3,07,25,08,02,,,,,,,,,3.8,3.7,1.0*36
$GPRMC,151851.000,A,5005.6446,N,01956.7475,E,,359.77,010409,,,A*70
$GPGGA,151852.000,5005.6457,N,01956.7475,E,1,04,3.7,164.1,M,42.0,M,,0000*58
$GPGSA,A,3,07,25,08,02,,,,,,,,,3.8,3.7,1.0*36
$GPGSV,3,1,12,07,77,090,24,25,57,061,30,08,53,214,35,13,48,085,21*7E
$GPGSV,3,2,12,27,37,225,,15,27,298,,02,23,248,28,04,16,220,18*70
$GPGSV,3,3,12,23,15,094,24,21,12,324,,24,11,327,18,28,11,163,*76
$GPRMC,151852.000,A,5005.6457,N,01956.7475,E,,359.77,010409,,,A*73
$GPGGA,151853.000,5005.6469,N,01956.7474,E,1,04,3.7,165.0,M,42.0,M,,0000*55
$GPGSA,A,3,07,25,08,02,,,,,,,,,3.9,3.7,1.0*37
$GPRMC,151853.000,A,5005.6469,N,01956.7474,E,,359.77,010409,,,A*7E
$GPGGA,151854.000,5005.6480,N,01956.7474,E,1,04,3.7,165.7,M,42.0,M,,0000*52
$GPGSA,A,3,07,25,08,02,,,,,,,,,3.9,3.7,1.0*37
$GPRMC,151854.000,A,5005.6480,N,01956.7474,E,,359.77,010409,,,A*7E
$GPGGA,151855.000,5005.6489,N,01956.7476,E,1,04,3.7,165.9,M,42.0,M,,0000*56
$GPGSA,A,3,07,25,08,02,,,,,,,,,3.9,3.7,1.0*37
$GPRMC,151855.000,A,5005.6489,N,01956.7476,E,,359.77,010409,,,A*74
$GPGGA,151856.000,5005.6499,N,01956.7477,E,1,04,3.7,166.3,M,42.0,M,,0000*5C
$GPGSA,A,3,07,25,08,02,,,,,,,,,3.9,3.7,1.0*37
$GPRMC,151856.000,A,5005.6499,N,01956.7477,E,,359.77,010409,,,A*77
$GPGGA,151857.000,5005.6507,N,01956.7478,E,1,04,3.7,166.7,M,42.0,M,,0000*50
$GPGSA,A,3,07,25,08,02,,,,,,,,,3.9,3.7,1.0*37
$GPGSV,3,1,12,07,77,090,24,25,57,061,29,08,53,214,35,13,48,085,21*76
$GPGSV,3,2,12,27,37,225,,15,27,298,,02,23,248,23,04,16,220,18*7B
$GPGSV,3,3,12,23,15,094,24,21,12,324,,24,11,327,17,28,11,163,23*78
$GPRMC,151857.000,A,5005.6507,N,01956.7478,E,,359.77,010409,,,A*7F
$GPGGA,151858.000,5005.6512,N,01956.7484,E,1,04,3.7,166.4,M,42.0,M,,0000*5B
$GPGSA,A,3,07,25,08,02,,,,,,,,,3.9,3.7,1.0*37
$GPRMC,151858.000,A,5005.6512,N,01956.7484,E,,359.77,010409,,,A*77
$GPGGA,151859.000,5005.6520,N,01956.7487,E,1,04,3.7,166.6,M,42.0,M,,0000*5A
$GPGSA,A,3,07,25,08,02,,,,,,,,,3.9,3.7,1.0*37
$GPRMC,151859.000,A,5005.6520,N,01956.7487,E,,359.77,010409,,,A*74
$GPGGA,151900.000,5005.6525,N,01956.7494,E,1,04,3.7,166.5,M,42.0,M,,0000*53
$GPGSA,A,3,07,25,08,02,,,,,,,,,3.9,3.7,1.0*37
$GPRMC,151900.000,A,5005.6525,N,01956.7494,E,,359.77,010409,,,A*7E
$GPGGA,151901.000,5005.6535,N,01956.7493,E,1,04,3.7,167.4,M,42.0,M,,0000*54
$GPGSA,A,3,07,25,08,02,,,,,,,,,3.9,3.7,1.0*37
$GPRMC,151901.000,A,5005.6535,N,01956.7493,E,,359.77,010409,,,A*79
$GPGGA,151902.000,5005.6544,N,01956.7495,E,1,04,3.7,167.7,M,42.0,M,,0000*54
$GPGSA,A,3,07,25,08,02,,,,,,,,,3.9,3.7,1.0*37
$GPGSV,3,1,12,07,77,090,24,25,57,061,29,08,53,214,35,13,48,085,21*76
$GPGSV,3,2,12,27,37,225,,15,27,298,,02,23,248,34,04,16,220,17*72
$GPGSV,3,3,12,23,15,094,23,21,12,324,,24,11,327,29,28,11,163,21*70
$GPRMC,151902.000,A,5005.6544,N,01956.7495,E,,359.77,010409,,,A*7A
$GPGGA,151903.000,5005.6551,N,01956.7499,E,1,04,3.7,167.3,M,42.0,M,,0000*59
$GPGSA,A,3,07,25,08,02,,,,,,,,,3.9,3.7,1.0*37
$GPRMC,151903.000,A,5005.6551,N,01956.7499,E,,359.77,010409,,,A*73
$GPGGA,151904.000,5005.6562,N,01956.7497,E,1,04,3.7,168.3,M,42.0,M,,0000*5F
$GPGSA,A,3,07,25,08,02,,,,,,,,,3.9,3.7,1.0*37
$GPRMC,151904.000,A,5005.6562,N,01956.7497,E,,359.77,010409,,,A*7A
$GPGGA,151905.000,5005.6574,N,01956.7494,E,1,04,3.7,169.2,M,42.0,M,,0000*5A
$GPGSA,A,3,07,25,08,02,,,,,,,,,3.9,3.7,1.0*37
$GPRMC,151905.000,A,5005.6574,N,01956.7494,E,,359.77,010409,,,A*7F
$GPGGA,151906.000,5005.6583,N,01956.7493,E,1,04,3.7,169.8,M,42.0,M,,0000*5C
$GPGSA,A,3,07,25,08,02,,,,,,,,,3.9,3.7,1.0*37
$GPRMC,151906.000,A,5005.6583,N,01956.7493,E,,359.77,010409,,,A*73
$GPGGA,151907.000,5005.6594,N,01956.7491,E,1,04,3.7,170.8,M,42.0,M,,0000*51
$GPGSA,A,3,07,25,08,02,,,,,,,,,3.9,3.7,1.0*37
$GPGSV,3,1,12,07,77,090,24,25,57,061,29,08,53,214,35,13,48,085,21*76
$GPGSV,3,2,12,27,37,225,,15,27,298,,02,23,248,34,04,16,220,17*72
$GPGSV,3,3,12,23,15,094,24,21,12,324,,24,11,327,26,28,11,163,27*7E
$GPRMC,151907.000,A,5005.6594,N,01956.7491,E,,359.77,010409,,,A*76
$GPGGA,151908.000,5005.6603,N,01956.7492,E,1,04,3.7,171.1,M,42.0,M,,0000*58
$GPGSA,A,3,07,25,08,02,,,,,,,,,3.9,3.7,1.0*37
$GPRMC,151908.000,A,5005.6603,N,01956.7492,E,,359.77,010409,,,A*77
$GPGGA,151909.000,5005.6614,N,01956.7491,E,1,04,3.7,171.9,M,42.0,M,,0000*54
$GPGSA,A,3,07,25,08,02,,,,,,,,,3.9,3.7,1.0*37
$GPRMC,151909.000,A,5005.6614,N,01956.7491,E,,359.77,010409,,,A*73
$GPGGA,151910.000,5005.6625,N,01956.7490,E,1,04,3.7,172.6,M,42.0,M,,0000*53
$GPGSA,A,3,07,25,08,02,,,,,,,,,3.9,3.7,1.0*37
$GPRMC,151910.000,A,5005.6625,N,01956.7490,E,,359.77,010409,,,A*78
$GPGGA,151911.000,5005.6633,N,01956.7493,E,1,04,3.7,172.5,M,42.0,M,,0000*55
$GPGSA,A,3,07,25,08,02,,,,,,,,,3.9,3.7,1.0*37
$GPRMC,151911.000,A,5005.6633,N,01956.7493,E,,359.77,010409,,,A*7D
$GPGGA,151912.000,5005.6644,N,01956.7490,E,1,04,3.7,173.6,M,42.0,M,,0000*57
$GPGSA,A,3,07,25,08,02,,,,,,,,,3.9,3.7,1.0*37
$GPGSV,3,1,12,07,77,089,24,25,56,061,29,08,54,214,33,13,48,085,22*7D
$GPGSV,3,2,12,15,27,298,,02,23,248,34,04,16,220,17,23,15,094,20*7C
$GPGSV,3,3,12,21,12,324,,24,11,327,23,28,11,163,21,29,10,280,*73
$GPRMC,151912.000,A,5005.6644,N,01956.7490,E,,359.77,010409,,,A*7D
$GPGGA,151913.000,5005.6653,N,01956.7492,E,1,04,3.8,174.1,M,42.0,M,,0000*5D
$GPGSA,A,3,07,25,08,02,,,,,,,,,3.9,3.8,1.0*38
$GPRMC,151913.000,A,5005.6653,N,01956.7492,E,,359.77,010409,,,A*78
$GPGGA,151914.000,5005.6656,N,01956.7501,E,1,04,3.8,172.7,M,42.0,M,,0000*54
$GPGSA,A,3,07,25,08,02,,,,,,,,,3.9,3.8,1.0*38
$GPRMC,151914.000,A,5005.6656,N,01956.7501,E,,359.77,010409,,,A*71
$GPGGA,151915.000,5005.6664,N,01956.7504,E,1,04,3.8,172.8,M,42.0,M,,0000*5E
$GPGSA,A,3,07,25,08,02,,,,,,,,,3.9,3.8,1.0*38
$GPRMC,151915.000,A,5005.6664,N,01956.7504,E,,359.77,010409,,,A*74
$GPGGA,151916.000,5005.6673,N,01956.7504,E,1,04,3.8,173.2,M,42.0,M,,0000*50
$GPGSA,A,3,07,25,08,02,,,,,,,,,3.9,3.8,1.0*38
$GPRMC,151916.000,A,5005.6673,N,01956.7504,E,,359.77,010409,,,A*71
$GPGGA,151917.000,5005.6682,N,01956.7506,E,1,04,3.8,173.5,M,42.0,M,,0000*5A
$GPGSA,A,3,07,25,08,02,,,,,,,,,3.9,3.8,1.0*38
$GPGSV,3,1,12,07,77,089,23,25,56,061,29,08,54,214,33,13,48,085,24*7C
$GPGSV,3,2,12,15,27,298,,02,23,248,34,04,16,220,18,23,15,094,20*73
$GPGSV,3,3,12,21,12,324,,24,11,327,19,28,11,163,24,29,10,280,*7F
$GPRMC,151917.000,A,5005.6682,N,01956.7506,E,,359.77,010409,,,A*7C
$GPGGA,151918.000,5005.6695,N,01956.7505,E,1,04,3.8,174.6,M,42.0,M,,0000*54
$GPGSA,A,3,07,25,08,02,,,,,,,,,3.9,3.8,1.0*38
$GPRMC,151918.000,A,5005.6695,N,01956.7505,E,3.61,16.28,010409,,,A*5E
$GPGGA,151919.000,5005.6708,N,01956.7505,E,1,04,3.8,175.7,M,42.0,M,,0000*50
$GPGSA,A,3,07,25,08,02,,,,,,,,,3.9,3.8,1.0*38
$GPRMC,151919.000,A,5005.6708,N,01956.7505,E,,16.28,010409,,,A*40
$GPGGA,151920.000,5005.6721,N,01956.7505,E,1,04,3.8,176.6,M,42.0,M,,0000*53
$GPGSA,A,3,07,25,08,02,,,,,,,,,3.9,3.8,1.0*38
$GPRMC,151920.000,A,5005.6721,N,01956.7505,E,3.31,14.23,010409,,,A*57
$GPGGA,151921.000,5005.6727,N,01956.7513,E,1,04,3.8,175.8,M,42.0,M,,0000*5E
$GPGSA,A,3,07,25,08,02,,,,,,,,,3.9,3.8,1.0*38
$GPRMC,151921.000,A,5005.6727,N,01956.7513,E,,14.23,010409,,,A*48
$GPGGA,151922.000,5005.6729,N,01956.7523,E,1,04,3.8,174.4,M,42.0,M,,0000*5D
$GPGSA,A,3,07,25,08,02,,,,,,,,,3.9,3.8,1.0*38
$GPGSV,3,1,12,07,77,089,23,25,56,061,31,08,54,214,34,13,48,085,24*72
$GPGSV,3,2,12,15,27,298,,02,23,248,28,04,16,220,28,23,15,094,20*7D
$GPGSV,3,3,12,21,12,324,,24,11,327,18,28,11,163,31,29,10,280,*7A
$GPRMC,151922.000,A,5005.6729,N,01956.7523,E,3.27,20.28,010409,,,A*52
$GPGGA,151923.000,5005.6735,N,01956.7530,E,1,04,3.8,173.9,M,42.0,M,,0000*59
$GPGSA,A,3,07,25,08,02,,,,,,,,,3.9,3.8,1.0*38
$GPRMC,151923.000,A,5005.6735,N,01956.7530,E,,20.28,010409,,,A*44
$GPGGA,151924.000,5005.6740,N,01956.7534,E,1,04,3.8,173.9,M,42.0,M,,0000*58
$GPGSA,A,3,07,25,08,02,,,,,,,,,3.9,3.8,1.0*38
$GPRMC,151924.000,A,5005.6740,N,01956.7534,E,,20.28,010409,,,A*45
$GPGGA,151925.000,5005.6746,N,01956.7539,E,1,04,3.8,173.6,M,42.0,M,,0000*5D
$GPGSA,A,3,07,25,08,02,,,,,,,,,3.9,3.8,1.0*38
$GPRMC,151925.000,A,5005.6746,N,01956.7539,E,,20.28,010409,,,A*4F
$GPGGA,151926.000,5005.6754,N,01956.7542,E,1,04,3.8,173.9,M,42.0,M,,0000*5E
$GPGSA,A,3,07,25,08,02,,,,,,,,,3.9,3.8,1.0*38
$GPRMC,151926.000,A,5005.6754,N,01956.7542,E,,20.28,010409,,,A*43
$GPGGA,151927.000,5005.6761,N,01956.7542,E,1,04,3.8,174.7,M,42.0,M,,0000*50
$GPGSA,A,3,07,25,08,02,,,,,,,,,3.9,3.8,1.0*38
$GPGSV,3,1,12,07,77,089,23,25,56,061,28,08,54,214,35,13,48,085,23*7C
$GPGSV,3,2,12,15,27,298,,02,23,248,33,04,16,220,28,23,15,094,20*77
$GPGSV,3,3,12,21,12,324,,24,11,327,19,28,11,163,29,29,10,280,*72
$GPRMC,151927.000,A,5005.6761,N,01956.7542,E,,20.28,010409,,,A*44
$GPGGA,151928.000,5005.6769,N,01956.7546,E,1,04,3.8,174.8,M,42.0,M,,0000*5C
$GPGSA,A,3,07,25,08,02,,,,,,,,,3.9,3.8,1.0*38
$GPRMC,151928.000,A,5005.6769,N,01956.7546,E,,20.28,010409,,,A*47
$GPGGA,151929.000,5005.6773,N,01956.7553,E,1,04,3.8,174.3,M,42.0,M,,0000*59
$GPGSA,A,3,07,25,08,02,,,,,,,,,3.9,3.8,1.0*38
$GPRMC,151929.000,A,5005.6773,N,01956.7553,E,,20.28,010409,,,A*49
$GPGGA,151930.000,5005.6778,N,01956.7561,E,1,04,3.8,173.4,M,42.0,M,,0000*5B
$GPGSA,A,3,07,25,08,02,,,,,,,,,3.9,3.8,1.0*38
$GPRMC,151930.000,A,5005.6778,N,01956.7561,E,,20.28,010409,,,A*4B
$GPGGA,151931.000,5005.6782,N,01956.7570,E,1,04,3.8,172.4,M,42.0,M,,0000*5E
$GPGSA,A,3,07,25,08,02,,,,,,,,,3.9,3.8,1.0*38
$GPRMC,151931.000,A,5005.6782,N,01956.7570,E,,20.28,010409,,,A*4F
$GPGGA,151932.000,5005.6787,N,01956.7578,E,1,04,3.8,171.7,M,42.0,M,,0000*50
$GPGSA,A,3,07,25,08,02,,,,,,,,,3.9,3.8,1.0*38
$GPGSV,3,1,12,07,77,089,23,25,56,061,28,08,54,214,35,13,48,085,23*7C
$GPGSV,3,2,12,15,27,298,,02,23,248,34,04,16,220,28,23,15,094,19*7A
$GPGSV,3,3,12,21,12,324,,24,11,327,18,28,11,163,31,29,10,280,*7A
$GPRMC,151932.000,A,5005.6787,N,01956.7578,E,,20.28,010409,,,A*41
$GPGGA,151933.000,5005.6790,N,01956.7589,E,1,04,3.8,170.4,M,42.0,M,,0000*5B
$GPGSA,A,3,07,25,08,02,,,,,,,,,3.9,3.8,1.0*38
$GPRMC,151933.000,A,5005.6790,N,01956.7589,E,,20.28,010409,,,A*48
$GPGGA,151934.000,5005.6796,N,01956.7598,E,1,04,3.8,169.4,M,42.0,M,,0000*52
$GPGSA,A,3,07,25,08,02,,,,,,,,,3.9,3.8,1.0*38
$GPRMC,151934.000,A,5005.6796,N,01956.7598,E,,20.28,010409,,,A*49
$GPGGA,151935.000,5005.6798,N,01956.7607,E,1,04,3.8,168.3,M,42.0,M,,0000*5E
$GPGSA,A,3,07,25,08,02,,,,,,,,,3.9,3.8,1.0*38
$GPRMC,151935.000,A,5005.6798,N,01956.7607,E,,20.28,010409,,,A*43
$GPGGA,151936.000,5005.6805,N,01956.7612,E,1,04,3.8,168.3,M,42.0,M,,0000*52
$GPGSA,A,3,07,25,08,02,,,,,,,,,3.9,3.8,1.0*38
$GPRMC,151936.000,A,5005.6805,N,01956.7612,E,,20.28,010409,,,A*4F
$GPGGA,151937.000,5005.6810,N,01956.7612,E,1,04,3.8,169.1,M,42.0,M,,0000*54
$GPGSA,A,3,07,25,08,02,,,,,,,,,3.9,3.8,1.0*38
$GPGSV,3,1,12,07,77,089,23,25,56,061,27,08,54,214,36,13,48,085,23*70
$GPGSV,3,2,12,15,27,298,,02,23,248,34,04,16,220,28,23,15,094,18*7B
$GPGSV,3,3,12,21,12,324,,24,11,327,23,28,11,163,32,29,10,280,*71
$GPRMC,151937.000,A,5005.6810,N,01956.7612,E,,20.28,010409,,,A*4A
$GPGGA,151938.000,5005.6815,N,01956.7616,E,1,04,3.8,169.1,M,42.0,M,,0000*5A
$GPGSA,A,3,07,25,08,02,,,,,,,,,3.9,3.8,1.0*38
$GPRMC,151938.000,A,5005.6815,N,01956.7616,E,,20.28,010409,,,A*44
$GPGGA,151939.000,5005.6819,N,01956.7626,E,1,04,3.8,168.0,M,42.0,M,,0000*54
$GPGSA,A,3,07,25,08,02,,,,,,,,,3.9,3.8,1.0*38
$GPRMC,151939.000,A,5005.6819,N,01956.7626,E,,20.28,010409,,,A*4A
$GPGGA,151940.000,5005.6827,N,01956.7632,E,1,04,3.8,168.3,M,42.0,M,,0000*51
$GPGSA,A,3,07,25,08,02,,,,,,,,,3.9,3.8,1.0*38
$GPRMC,151940.000,A,5005.6827,N,01956.7632,E,,20.28,010409,,,A*4C
$GPGGA,151941.000,5005.6837,N,01956.7633,E,1,04,3.8,169.3,M,42.0,M,,0000*51
$GPGSA,A,3,07,25,08,02,,,,,,,,,3.9,3.8,1.0*38
$GPRMC,151941.000,A,5005.6837,N,01956.7633,E,,20.28,010409,,,A*4D
$GPGGA,151942.000,5005.6846,N,01956.7636,E,1,04,3.8,169.8,M,42.0,M,,0000*5A
$GPGSA,A,3,07,25,08,02,,,,,,,,,3.9,3.8,1.0*38
$GPGSV,3,1,12,07,77,088,23,25,56,061,27,08,54,214,35,13,48,085,23*72
$GPGSV,3,2,12,15,27,297,,02,23,248,32,04,16,220,28,23,15,094,19*73
$GPGSV,3,3,12,21,12,324,,24,11,327,25,29,10,280,,28,04,173,32*72
$GPRMC,151942.000,A,5005.6846,N,01956.7636,E,,20.28,010409,,,A*4D
$GPGGA,151943.000,5005.6857,N,01956.7637,E,1,04,3.8,170.8,M,42.0,M,,0000*52
$GPGSA,A,3,07,25,08,02,,,,,,,,,3.9,3.8,1.0*38
$GPRMC,151943.000,A,5005.6857,N,01956.7637,E,,20.28,010409,,,A*4D
$GPGGA,151944.000,5005.6867,N,01956.7640,E,1,04,3.8,171.6,M,42.0,M,,0000*59
$GPGSA,A,3,07,25,08,02,,,,,,,,,3.9,3.8,1.0*38
$GPRMC,151944.000,A,5005.6867,N,01956.7640,E,,20.28,010409,,,A*49
$GPGGA,151945.000,5005.6875,N,01956.7645,E,1,04,3.8,171.8,M,42.0,M,,0000*50
$GPGSA,A,3,07,25,08,02,,,,,,,,,3.9,3.8,1.0*38
$GPRMC,151945.000,A,5005.6875,N,01956.7645,E,,20.28,010409,,,A*4E
$GPGGA,151946.000,5005.6882,N,01956.7649,E,1,04,3.8,172.1,M,42.0,M,,0000*5D
$GPGSA,A,3,07,25,08,02,,,,,,,,,3.9,3.8,1.0*38
$GPRMC,151946.000,A,5005.6882,N,01956.7649,E,,20.28,010409,,,A*49
$GPGGA,151947.000,5005.6890,N,01956.7651,E,1,04,3.8,173.0,M,42.0,M,,0000*56
$GPGSA,A,3,07,25,08,02,,,,,,,,,3.9,3.8,1.0*38
$GPGSV,3,1,12,07,77,088,23,25,56,061,27,08,54,214,35,13,48,085,23*72
$GPGSV,3,2,12,15,27,297,,02,23,248,35,04,16,220,29,23,15,094,25*7A
$GPGSV,3,3,12,21,12,324,,24,11,327,25,29,10,280,,28,04,173,32*72
$GPRMC,151947.000,A,5005.6890,N,01956.7651,E,,20.28,010409,,,A*42
$GPGGA,151948.000,5005.6898,N,01956.7656,E,1,04,3.8,173.1,M,42.0,M,,0000*57
$GPGSA,A,3,07,25,08,02,,,,,,,,,3.9,3.8,1.0*38
$GPRMC,151948.000,A,5005.6898,N,01956.7656,E,3.44,28.27,010409,,,A*58
$GPGGA,151949.000,5005.6905,N,01956.7663,E,1,04,3.8,173.0,M,42.0,M,,0000*54
$GPGSA,A,3,07,25,08,02,,,,,,,,,3.9,3.8,1.0*38
$GPRMC,151949.000,A,5005.6905,N,01956.7663,E,,28.27,010409,,,A*47
$GPGGA,151950.000,5005.6908,N,01956.7669,E,1,04,3.8,172.4,M,42.0,M,,0000*5E
$GPGSA,A,3,07,25,08,02,,,,,,,,,3.9,3.8,1.0*38
$GPRMC,151950.000,A,5005.6908,N,01956.7669,E,,28.27,010409,,,A*48
$GPGGA,151951.000,5005.6915,N,01956.7668,E,1,04,3.8,173.1,M,42.0,M,,0000*56
$GPGSA,A,3,07,25,08,02,,,,,,,,,3.9,3.8,1.0*38
$GPRMC,151951.000,A,5005.6915,N,01956.7668,E,,28.27,010409,,,A*44
$GPGGA,151952.000,5005.6921,N,01956.7667,E,1,04,3.8,173.6,M,42.0,M,,0000*5A
$GPGSA,A,3,07,25,08,02,,,,,,,,,3.9,3.8,1.0*38
$GPGSV,3,1,12,07,77,088,24,25,56,061,27,08,54,214,35,13,48,085,28*7E
$GPGSV,3,2,12,15,27,297,,02,23,248,29,04,16,220,17,23,15,094,34*7A
$GPGSV,3,3,12,21,12,324,,24,11,327,17,29,10,280,,28,04,173,28*78
$GPRMC,151952.000,A,5005.6921,N,01956.7667,E,,28.27,010409,,,A*4F
$GPGGA,151953.000,5005.6928,N,01956.7663,E,1,04,3.8,173.8,M,42.0,M,,0000*58
$GPGSA,A,3,07,25,08,02,,,,,,,,,3.9,3.8,1.0*38
$GPRMC,151953.000,A,5005.6928,N,01956.7663,E,,28.27,010409,,,A*43
$GPGGA,151954.000,5005.6928,N,01956.7663,E,1,04,3.8,173.8,M,42.0,M,,0000*5F
$GPGSA,A,3,07,25,08,02,,,,,,,,,3.9,3.8,1.0*38
$GPRMC,151954.000,A,5005.6928,N,01956.7663,E,,28.27,010409,,,A*44
$GPGGA,151955.000,5005.6928,N,01956.7665,E,1,04,3.8,173.6,M,42.0,M,,0000*56
$GPGSA,A,3,07,25,08,02,,,,,,,,,3.9,3.8,1.0*38
$GPRMC,151955.000,A,5005.6928,N,01956.7665,E,,28.27,010409,,,A*43
$GPGGA,151956.000,5005.6930,N,01956.7663,E,1,04,3.8,174.3,M,42.0,M,,0000*58
$GPGSA,A,3,07,25,08,02,,,,,,,,,3.9,3.8,1.0*38
$GPRMC,151956.000,A,5005.6930,N,01956.7663,E,,28.27,010409,,,A*4F
$GPGGA,151957.000,5005.6934,N,01956.7660,E,1,04,3.8,175.3,M,42.0,M,,0000*5F
$GPGSA,A,3,07,25,08,02,,,,,,,,,3.9,3.8,1.0*38
$GPGSV,3,1,12,07,77,088,29,25,56,061,35,08,54,214,29,13,48,085,33*77
$GPGSV,3,2,12,15,27,297,,02,23,248,31,04,16,220,19,23,15,094,32*7B
$GPGSV,3,3,12,21,12,324,,24,11,327,17,29,10,280,,28,04,173,22*72
$GPRMC,151957.000,A,5005.6934,N,01956.7660,E,,28.27,010409,,,A*49
$GPGGA,151958.000,5005.6937,N,01956.7658,E,1,04,3.8,176.1,M,42.0,M,,0000*59
$GPGSA,A,3,07,25,08,02,,,,,,,,,3.9,3.8,1.0*38
$GPRMC,151958.000,A,5005.6937,N,01956.7658,E,,28.27,010409,,,A*4E
$GPGGA,151959.000,5005.6941,N,01956.7655,E,1,04,3.8,177.0,M,42.0,M,,0000*54
$GPGSA,A,3,07,25,08,02,,,,,,,,,3.9,3.8,1.0*38
$GPRMC,151959.000,A,5005.6941,N,01956.7655,E,,28.27,010409,,,A*43
$GPGGA,152000.000,5005.6945,N,01956.7651,E,1,04,3.8,177.8,M,42.0,M,,0000*5A
$GPGSA,A,3,07,25,08,02,,,,,,,,,4.0,3.8,1.0*36
$GPRMC,152000.000,A,5005.6945,N,01956.7651,E,,28.27,010409,,,A*45
$GPGGA,152001.000,5005.6951,N,01956.7642,E,1,04,3.8,178.6,M,42.0,M,,0000*5D
$GPGSA,A,3,07,25,08,02,,,,,,,,,4.0,3.8,1.0*36
$GPRMC,152001.000,A,5005.6951,N,01956.7642,E,,28.27,010409,,,A*43
$GPGGA,152002.000,5005.6957,N,01956.7630,E,1,04,3.8,179.4,M,42.0,M,,0000*5E
$GPGSA,A,3,07,25,08,02,,,,,,,,,4.0,3.8,1.0*36
$GPGSV,3,1,12,07,77,088,29,25,56,061,35,08,54,214,29,13,48,085,33*77
$GPGSV,3,2,12,15,27,297,,02,23,248,27,04,16,220,19,23,15,094,28*77
$GPGSV,3,3,12,21,12,324,,24,11,327,17,29,10,280,,28,04,173,23*73
$GPRMC,152002.000,A,5005.6957,N,01956.7630,E,,28.27,010409,,,A*43
$GPGGA,152003.000,5005.6964,N,01956.7618,E,1,04,3.8,180.1,M,42.0,M,,0000*56
$GPGSA,A,3,07,25,08,02,,,,,,,,,4.0,3.8,1.0*36
$GPRMC,152003.000,A,5005.6964,N,01956.7618,E,,28.27,010409,,,A*48
$GPGGA,152004.000,5005.6971,N,01956.7605,E,1,04,3.8,180.7,M,42.0,M,,0000*5F
$GPGSA,A,3,07,25,08,02,,,,,,,,,4.0,3.8,1.0*36
$GPRMC,152004.000,A,5005.6971,N,01956.7605,E,,28.27,010409,,,A*47
$GPGGA,152005.000,5005.7049,N,01956.7486,E,1,05,2.8,197.9,M,42.0,M,,0000*5C
$GPGSA,A,3,07,25,08,23,02,,,,,,,,3.3,2.8,1.8*3A
$GPRMC,152005.000,A,5005.7049,N,01956.7486,E,,28.27,010409,,,A*4C
$GPGGA,152006.000,5005.7078,N,01956.7443,E,1,05,2.8,204.0,M,42.0,M,,0000*54
$GPGSA,A,3,07,25,08,23,02,,,,,,,,3.3,2.8,1.8*3A
$GPRMC,152006.000,A,5005.7078,N,01956.7443,E,,28.27,010409,,,A*44
$GPGGA,152007.000,5005.7094,N,01956.7422,E,1,05,2.8,207.4,M,42.0,M,,0000*57
$GPGSA,A,3,07,25,08,23,02,,,,,,,,3.3,2.8,1.8*3A
$GPGSV,3,1,12,07,77,087,30,25,56,061,34,08,54,214,31,13,48,085,32*79
$GPGSV,3,2,12,15,27,297,,02,23,248,27,04,16,220,25,23,15,094,36*77
$GPGSV,3,3,12,21,12,324,,24,11,326,17,29,10,280,,28,04,173,17*75
$GPRMC,152007.000,A,5005.7094,N,01956.7422,E,,28.27,010409,,,A*40
$GPGGA,152008.000,5005.7108,N,01956.7409,E,1,05,2.8,209.5,M,42.0,M,,0000*5A
$GPGSA,A,3,07,25,08,23,02,,,,,,,,3.3,2.8,1.8*3A
$GPRMC,152008.000,A,5005.7108,N,01956.7409,E,,28.27,010409,,,A*42
$GPGGA,152009.000,5005.7122,N,01956.7404,E,1,05,2.8,210.7,M,42.0,M,,0000*54
$GPGSA,A,3,07,25,08,23,02,,,,,,,,3.3,2.8,1.8*3A
$GPRMC,152009.000,A,5005.7122,N,01956.7404,E,,28.27,010409,,,A*46
$GPGGA,152010.000,5005.7132,N,01956.7406,E,1,05,2.8,211.3,M,42.0,M,,0000*5A
$GPGSA,A,3,07,25,08,23,02,,,,,,,,3.3,2.8,1.8*3A
$GPRMC,152010.000,A,5005.7132,N,01956.7406,E,,28.27,010409,,,A*4D
$GPGGA,152011.000,5005.7137,N,01956.7408,E,1,05,2.8,211.7,M,42.0,M,,0000*54
$GPGSA,A,3,07,25,08,23,02,,,,,,,,3.3,2.8,1.8*3A
$GPRMC,152011.000,A,5005.7137,N,01956.7408,E,,28.27,010409,,,A*47
$GPGGA,152012.000,5005.7141,N,01956.7413,E,1,05,2.8,212.0,M,42.0,M,,0000*58
$GPGSA,A,3,07,25,08,23,02,,,,,,,,3.3,2.8,1.8*3A
$GPGSV,3,1,12,07,77,087,23,25,56,061,24,08,54,214,36,13,48,085,23*7D
$GPGSV,3,2,12,15,27,297,,02,23,248,33,04,16,220,29,23,15,094,25*7C
$GPGSV,3,3,12,21,12,324,,24,11,326,16,29,10,280,,28,04,173,32*73
$GPRMC,152012.000,A,5005.7141,N,01956.7413,E,,28.27,010409,,,A*4F
$GPGGA,152013.000,5005.7144,N,01956.7419,E,1,05,2.8,212.2,M,42.0,M,,0000*54
$GPGSA,A,3,07,25,08,23,02,,,,,,,,3.3,2.8,1.8*3A
$GPRMC,152013.000,A,5005.7144,N,01956.7419,E,,28.27,010409,,,A*41
$GPGGA,152014.000,5005.7150,N,01956.7422,E,1,05,2.8,213.0,M,42.0,M,,0000*5D
$GPGSA,A,3,07,25,08,23,02,,,,,,,,3.3,2.8,1.8*3A
$GPRMC,152014.000,A,5005.7150,N,01956.7422,E,,28.27,010409,,,A*4B
$GPGGA,152015.000,5005.7155,N,01956.7425,E,1,05,2.8,213.5,M,42.0,M,,0000*5B
$GPGSA,A,3,07,25,08,23,02,,,,,,,,3.3,2.8,1.8*3A
$GPRMC,152015.000,A,5005.7155,N,01956.7425,E,,28.27,010409,,,A*48
$GPGGA,152016.000,5005.7166,N,01956.7425,E,1,05,2.8,214.7,M,42.0,M,,0000*5D
$GPGSA,A,3,07,25,08,23,02,,,,,,,,3.3,2.8,1.8*3A
$GPRMC,152016.000,A,5005.7166,N,01956.7425,E,3.54,13.98,010409,,,A*5B
$GPGGA,152017.000,5005.7174,N,01956.7434,E,1,05,2.8,214.7,M,42.0,M,,0000*5F
$GPGSA,A,3,07,25,08,23,02,,,,,,,,3.3,2.8,1.8*3A
$GPGSV,3,1,12,07,77,087,23,25,56,061,25,08,54,214,36,13,48,085,24*7B
$GPGSV,3,2,12,15,27,297,,02,23,248,33,04,16,220,30,23,15,094,24*75
$GPGSV,3,3,12,21,12,324,,24,11,326,16,29,10,280,,28,04,173,33*72
$GPRMC,152017.000,A,5005.7174,N,01956.7434,E,3.62,32.46,010409,,,A*5C
$GPGGA,152018.000,5005.7180,N,01956.7444,E,1,05,2.8,214.4,M,42.0,M,,0000*5F
$GPGSA,A,3,07,25,08,23,02,,,,,,,,3.3,2.8,1.8*3A
$GPRMC,152018.000,A,5005.7180,N,01956.7444,E,3.48,32.92,010409,,,A*5E
$GPGGA,152019.000,5005.7181,N,01956.7454,E,1,05,2.8,213.9,M,42.0,M,,0000*54
$GPGSA,A,3,07,25,08,23,02,,,,,,,,3.3,2.8,1.8*3A
$GPRMC,152019.000,A,5005.7181,N,01956.7454,E,,32.92,010409,,,A*4E
$GPGGA,152020.000,5005.7181,N,01956.7462,E,1,05,2.8,213.7,M,42.0,M,,0000*55
$GPGSA,A,3,07,25,08,23,02,,,,,,,,3.3,2.8,1.8*3A
$GPRMC,152020.000,A,5005.7181,N,01956.7462,E,,32.92,010409,,,A*41
$GPGGA,152021.000,5005.7194,N,01956.7468,E,1,05,2.8,214.3,M,42.0,M,,0000*59
$GPGSA,A,3,07,25,08,23,02,,,,,,,,3.3,2.8,1.8*3A
$GPRMC,152021.000,A,5005.7194,N,01956.7468,E,,32.92,010409,,,A*4E
$GPGGA,152022.000,5005.7196,N,01956.7474,E,1,05,2.8,214.4,M,42.0,M,,0000*52
$GPGSA,A,3,07,25,08,23,02,,,,,,,,3.3,2.8,1.8*3A
$GPGSV,3,1,12,07,77,087,23,25,56,061,25,08,54,214,36,13,48,085,24*7B
$GPGSV,3,2,12,15,27,297,,02,23,248,33,04,16,220,30,23,15,094,24*75
$GPGSV,3,3,12,21,13,324,,24,11,326,15,29,10,280,,28,04,173,33*70
$GPRMC,152022.000,A,5005.7196,N,01956.7474,E,,32.92,010409,,,A*42
$GPGGA,152023.000,5005.7209,N,01956.7477,E,1,05,2.8,215.0,M,42.0,M,,0000*50
$GPGSA,A,3,07,25,08,23,02,,,,,,,,3.3,2.8,1.8*3A
$GPRMC,152023.000,A,5005.7209,N,01956.7477,E,3.40,27.53,010409,,,A*55
$GPGGA,152024.000,5005.7217,N,01956.7483,E,1,05,2.8,215.4,M,42.0,M,,0000*57
$GPGSA,A,3,07,25,08,23,02,,,,,,,,3.3,2.8,1.8*3A
$GPRMC,152024.000,A,5005.7217,N,01956.7483,E,,27.53,010409,,,A*4F
$GPGGA,152025.000,5005.7225,N,01956.7489,E,1,05,2.8,216.1,M,42.0,M,,0000*5B
$GPGSA,A,3,07,25,08,23,02,,,,,,,,3.3,2.8,1.8*3A
$GPRMC,152025.000,A,5005.7225,N,01956.7489,E,,27.53,010409,,,A*45
$GPGGA,152026.000,5005.7231,N,01956.7497,E,1,05,2.8,216.7,M,42.0,M,,0000*54
$GPGSA,A,3,07,25,08,23,02,,,,,,,,3.3,2.8,1.8*3A
$GPRMC,152026.000,A,5005.7231,N,01956.7497,E,3.32,36.80,010409,,,A*5E
$GPGGA,152027.000,5005.7235,N,01956.7506,E,1,05,2.8,216.5,M,42.0,M,,0000*5A
$GPGSA,A,3,07,25,08,23,02,,,,,,,,3.3,2.8,1.8*3A
$GPGSV,3,1,12,07,77,087,22,25,56,061,25,08,54,214,35,13,48,085,24*79
$GPGSV,3,2,12,15,27,297,,02,23,248,32,04,16,220,29,23,14,094,25*7C
$GPGSV,3,3,12,21,13,324,,24,11,326,14,29,10,280,,28,04,173,34*76
$GPRMC,152027.000,A,5005.7235,N,01956.7506,E,3.32,41.18,010409,,,A*53
$GPGGA,152028.000,5005.7242,N,01956.7516,E,1,05,2.8,216.7,M,42.0,M,,0000*56
$GPGSA,A,3,07,25,08,23,02,,,,,,,,3.3,2.8,1.8*3A
$GPRMC,152028.000,A,5005.7242,N,01956.7516,E,,41.18,010409,,,A*41
$GPGGA,152029.000,5005.7250,N,01956.7521,E,1,05,2.8,217.2,M,42.0,M,,0000*54
$GPGSA,A,3,07,25,08,23,02,,,,,,,,3.3,2.8,1.8*3A
$GPRMC,152029.000,A,5005.7250,N,01956.7521,E,,41.18,010409,,,A*47
$GPGGA,152030.000,5005.7257,N,01956.7526,E,1,05,2.8,217.3,M,42.0,M,,0000*5D
$GPGSA,A,3,07,25,08,23,02,,,,,,,,3.3,2.8,1.8*3A
$GPRMC,152030.000,A,5005.7257,N,01956.7526,E,,41.18,010409,,,A*4F
$GPGGA,152031.000,5005.7260,N,01956.7531,E,1,05,2.8,217.5,M,42.0,M,,0000*58
$GPGSA,A,3,07,25,08,23,02,,,,,,,,3.3,2.8,1.8*3A
$GPRMC,152031.000,A,5005.7260,N,01956.7531,E,,41.18,010409,,,A*4C
$GPGGA,152032.000,5005.7265,N,01956.7538,E,1,05,2.8,217.4,M,42.0,M,,0000*56
$GPGSA,A,3,07,25,08,23,02,,,,,,,,3.3,2.8,1.8*3A
$GPGSV,3,1,12,07,77,087,23,25,56,061,25,08,54,214,35,13,48,085,24*78
$GPGSV,3,2,12,15,27,297,,02,23,248,30,04,16,220,30,23,14,094,25*76
$GPGSV,3,3,12,21,13,324,,24,11,326,15,29,10,280,,28,04,173,24*76
$GPRMC,152032.000,A,5005.7265,N,01956.7538,E,,41.18,010409,,,A*43
$GPGGA,152033.000,5005.7266,N,01956.7545,E,1,05,2.8,217.3,M,42.0,M,,0000*59
$GPGSA,A,3,07,25,08,23,02,,,,,,,,3.3,2.8,1.8*3A
$GPRMC,152033.000,A,5005.7266,N,01956.7545,E,,41.18,010409,,,A*4B
$GPGGA,152034.000,5005.7267,N,01956.7556,E,1,05,2.8,217.2,M,42.0,M,,0000*5C
$GPGSA,A,3,07,25,08,23,02,,,,,,,,3.3,2.8,1.8*3A
$GPRMC,152034.000,A,5005.7267,N,01956.7556,E,,41.18,010409,,,A*4F
$GPGGA,152035.000,5005.7269,N,01956.7569,E,1,06,2.3,217.2,M,42.0,M,,0000*57
$GPGSA,A,3,07,25,08,23,02,04,,,,,,,2.9,2.3,1.7*31
$GPRMC,152035.000,A,5005.7269,N,01956.7569,E,,41.18,010409,,,A*4C
$GPGGA,152036.000,5005.7271,N,01956.7583,E,1,06,2.3,217.2,M,42.0,M,,0000*59
$GPGSA,A,3,07,25,08,23,02,04,,,,,,,2.9,2.3,1.7*31
$GPRMC,152036.000,A,5005.7271,N,01956.7583,E,,41.18,010409,,,A*42
$GPGGA,152037.000,5005.7272,N,01956.7597,E,1,06,2.3,217.2,M,42.0,M,,0000*5E
$GPGSA,A,3,07,25,08,23,02,04,,,,,,,2.9,2.3,1.7*31
$GPGSV,3,1,12,07,77,087,23,25,56,061,25,08,54,215,35,13,47,085,24*76
$GPGSV,3,2,12,15,27,297,,02,22,248,26,23,14,094,26,21,13,324,*77
$GPGSV,3,3,12,24,11,326,21,29,10,280,,04,09,212,30,28,04,173,22*7C
$GPRMC,152037.000,A,5005.7272,N,01956.7597,E,,41.18,010409,,,A*45
$GPGGA,152038.000,5005.7271,N,01956.7609,E,1,06,2.3,217.1,M,42.0,M,,0000*55
$GPGSA,A,3,07,25,08,23,02,04,,,,,,,2.9,2.3,1.7*31
$GPRMC,152038.000,A,5005.7271,N,01956.7609,E,,41.18,010409,,,A*4D
$GPGGA,152039.000,5005.7272,N,01956.7616,E,1,06,2.3,217.6,M,42.0,M,,0000*5E
$GPGSA,A,3,07,25,08,23,02,04,,,,,,,2.9,2.3,1.7*31
$GPRMC,152039.000,A,5005.7272,N,01956.7616,E,,41.18,010409,,,A*41
$GPGGA,152040.000,5005.7277,N,01956.7618,E,1,06,2.3,218.5,M,42.0,M,,0000*57
$GPGSA,A,3,07,25,08,23,02,04,,,,,,,2.9,2.3,1.7*31
$GPRMC,152040.000,A,5005.7277,N,01956.7618,E,,41.18,010409,,,A*44
$GPGGA,152041.000,5005.7286,N,01956.7616,E,1,06,2.3,218.7,M,42.0,M,,0000*54
$GPGSA,A,3,07,25,08,23,02,04,,,,,,,2.9,2.3,1.7*31
$GPRMC,152041.000,A,5005.7286,N,01956.7616,E,,41.18,010409,,,A*45
$GPGGA,152042.000,5005.7295,N,01956.7617,E,1,06,2.3,219.6,M,42.0,M,,0000*54
$GPGSA,A,3,07,25,08,23,02,04,,,,,,,2.9,2.3,1.7*31
$GPGSV,3,1,12,07,77,086,23,25,56,061,25,08,54,215,36,13,47,085,24*74
$GPGSV,3,2,12,15,27,297,,02,22,248,26,23,14,094,25,21,13,324,*74
$GPGSV,3,3,12,24,11,326,20,04,09,212,30,28,04,173,,10,03,316,*7B
$GPRMC,152042.000,A,5005.7295,N,01956.7617,E,,41.18,010409,,,A*45
$GPGGA,152043.000,5005.7301,N,01956.7624,E,1,06,2.3,220.0,M,42.0,M,,0000*55
$GPGSA,A,3,07,25,08,23,02,04,,,,,,,2.9,2.3,1.7*31
$GPRMC,152043.000,A,5005.7301,N,01956.7624,E,,41.18,010409,,,A*48
$GPGGA,152044.000,5005.7303,N,01956.7630,E,1,06,2.3,220.2,M,42.0,M,,0000*57
$GPGSA,A,3,07,25,08,23,02,04,,,,,,,2.9,2.3,1.7*31
$GPRMC,152044.000,A,5005.7303,N,01956.7630,E,,41.18,010409,,,A*48
$GPGGA,152045.000,5005.7303,N,01956.7638,E,1,06,2.3,220.4,M,42.0,M,,0000*58
$GPGSA,A,3,07,25,08,23,02,04,,,,,,,2.9,2.3,1.7*31
$GPRMC,152045.000,A,5005.7303,N,01956.7638,E,,41.18,010409,,,A*41
$GPGGA,152046.000,5005.7311,N,01956.7642,E,1,06,2.3,219.7,M,42.0,M,,0000*5C
$GPGSA,A,3,07,25,08,23,02,04,,,,,,,2.9,2.3,1.7*31
$GPRMC,152046.000,A,5005.7311,N,01956.7642,E,,41.18,010409,,,A*4C
$GPGGA,152047.000,5005.7321,N,01956.7647,E,1,06,2.3,219.3,M,42.0,M,,0000*5F
$GPGSA,A,3,07,25,08,23,02,04,,,,,,,2.9,2.3,1.7*31
$GPGSV,3,1,12,07,77,086,22,25,56,061,25,08,54,215,35,13,47,085,24*76
$GPGSV,3,2,12,15,27,297,,02,22,248,29,23,14,094,25,21,13,324,*7B
$GPGSV,3,3,12,24,11,326,14,04,09,212,30,28,04,173,,10,03,316,*7C
$GPRMC,152047.000,A,5005.7321,N,01956.7647,E,,41.18,010409,,,A*4B
$GPGGA,152048.000,5005.7330,N,01956.7652,E,1,06,2.3,219.2,M,42.0,M,,0000*55
$GPGSA,A,3,07,25,08,23,02,04,,,,,,,2.9,2.3,1.7*31
$GPRMC,152048.000,A,5005.7330,N,01956.7652,E,,41.18,010409,,,A*40
$GPGGA,152049.000,5005.7337,N,01956.7658,E,1,06,2.3,219.0,M,42.0,M,,0000*5B
$GPGSA,A,3,07,25,08,23,02,04,,,,,,,2.9,2.3,1.7*31
$GPRMC,152049.000,A,5005.7337,N,01956.7658,E,,41.18,010409,,,A*4C
$GPGGA,152050.000,5005.7344,N,01956.7664,E,1,06,2.3,219.0,M,42.0,M,,0000*58
$GPGSA,A,3,07,25,08,23,02,04,,,,,,,2.9,2.3,1.7*31
$GPRMC,152050.000,A,5005.7344,N,01956.7664,E,,41.18,010409,,,A*4F
$GPGGA,152051.000,5005.7353,N,01956.7669,E,1,06,2.3,218.6,M,42.0,M,,0000*55
$GPGSA,A,3,07,25,08,23,02,04,,,,,,,2.9,2.3,1.7*31
$GPRMC,152051.000,A,5005.7353,N,01956.7669,E,,41.18,010409,,,A*45
$GPGGA,152052.000,5005.7361,N,01956.7678,E,1,06,2.3,218.3,M,42.0,M,,0000*52
$GPGSA,A,3,07,25,08,23,02,04,,,,,,,2.9,2.3,1.7*31
$GPGSV,3,1,12,07,77,086,22,25,56,061,25,08,54,215,35,13,47,086,24*75
$GPGSV,3,2,12,15,27,297,,02,22,247,31,23,14,094,23,21,13,324,*7B
$GPGSV,3,3,12,24,11,326,14,04,09,212,29,28,04,173,,10,03,316,*74
$GPRMC,152052.000,A,5005.7361,N,01956.7678,E,,41.18,010409,,,A*47
$GPGGA,152053.000,5005.7368,N,01956.7685,E,1,06,2.3,217.9,M,42.0,M,,0000*5D
$GPGSA,A,3,07,25,08,23,02,04,,,,,,,2.9,2.3,1.7*31
$GPRMC,152053.000,A,5005.7368,N,01956.7685,E,,41.18,010409,,,A*4D
$GPGGA,152054.000,5005.7374,N,01956.7692,E,1,06,2.3,217.6,M,42.0,M,,0000*5E
$GPGSA,A,3,07,25,08,23,02,04,,,,,,,2.9,2.3,1.7*31
$GPRMC,152054.000,A,5005.7374,N,01956.7692,E,,41.18,010409,,,A*41
$GPGGA,152055.000,5005.7380,N,01956.7699,E,1,06,2.3,217.8,M,42.0,M,,0000*51
$GPGSA,A,3,07,25,08,23,02,04,,,,,,,2.9,2.3,1.7*31
$GPRMC,152055.000,A,5005.7380,N,01956.7699,E,,41.18,010409,,,A*40
$GPGGA,152056.000,5005.7386,N,01956.7706,E,1,06,2.3,218.2,M,42.0,M,,0000*56
$GPGSA,A,3,07,25,08,23,02,04,,,,,,,2.9,2.3,1.7*31
$GPRMC,152056.000,A,5005.7386,N,01956.7706,E,,41.18,010409,,,A*42
$GPGGA,152057.000,5005.7394,N,01956.7713,E,1,06,2.3,218.2,M,42.0,M,,0000*50
$GPGSA,A,3,07,25,08,23,02,04,,,,,,,2.9,2.3,1.7*31
$GPGSV,3,1,12,07,77,086,22,25,56,061,25,08,54,215,35,13,47,086,24*75
$GPGSV,3,2,12,15,27,297,,02,22,247,32,23,14,094,29,21,13,324,*72
$GPGSV,3,3,12,24,11,326,14,04,09,212,29,28,04,173,13,10,03,316,*76
$GPRMC,152057.000,A,5005.7394,N,01956.7713,E,,41.18,010409,,,A*44
$GPGGA,152058.000,5005.7401,N,01956.7721,E,1,06,2.3,218.1,M,42.0,M,,0000*56
$GPGSA,A,3,07,25,08,23,02,04,,,,,,,2.9,2.3,1.7*31
$GPRMC,152058.000,A,5005.7401,N,01956.7721,E,,41.18,010409,,,A*41
$GPGGA,152059.000,5005.7407,N,01956.7729,E,1,06,2.3,217.7,M,42.0,M,,0000*50
$GPGSA,A,3,07,25,08,23,02,04,,,,,,,2.9,2.3,1.7*31
$GPRMC,152059.000,A,5005.7407,N,01956.7729,E,,41.18,010409,,,A*4E
$GPGGA,152100.000,5005.7414,N,01956.7739,E,1,06,2.3,217.3,M,42.0,M,,0000*5A
$GPGSA,A,3,07,25,08,23,02,04,,,,,,,2.9,2.3,1.7*31
$GPRMC,152100.000,A,5005.7414,N,01956.7739,E,,41.18,010409,,,A*40
$GPGGA,152101.000,5005.7422,N,01956.7746,E,1,06,2.3,217.0,M,42.0,M,,0000*55
$GPGSA,A,3,07,25,08,23,02,04,,,,,,,2.9,2.3,1.7*31
$GPRMC,152101.000,A,5005.7422,N,01956.7746,E,,41.18,010409,,,A*4C
$GPGGA,152102.000,5005.7429,N,01956.7754,E,1,06,2.3,216.8,M,42.0,M,,0000*57
$GPGSA,A,3,07,25,08,23,02,04,,,,,,,2.9,2.3,1.7*31
$GPGSV,3,1,12,07,77,086,22,25,56,061,25,08,54,215,35,13,47,086,24*75
$GPGSV,3,2,12,15,27,297,,02,22,247,27,23,14,094,29,21,13,324,*76
$GPGSV,3,3,12,24,11,326,15,04,09,212,28,28,04,173,15,10,03,316,*70
$GPRMC,152102.000,A,5005.7429,N,01956.7754,E,,41.18,010409,,,A*47
$GPGGA,152103.000,5005.7439,N,01956.7762,E,1,06,2.3,216.7,M,42.0,M,,0000*5D
$GPGSA,A,3,07,25,08,23,02,04,,,,,,,2.9,2.3,1.7*31
$GPRMC,152103.000,A,5005.7439,N,01956.7762,E,3.34,30.04,010409,,,A*53
$GPGGA,152104.000,5005.7448,N,01956.7769,E,1,06,2.3,216.6,M,42.0,M,,0000*56
$GPGSA,A,3,07,25,08,23,02,04,,,,,,,2.9,2.3,1.7*31
$GPRMC,152104.000,A,5005.7448,N,01956.7769,E,,30.04,010409,,,A*43
$GPGGA,152105.000,5005.7457,N,01956.7776,E,1,06,2.3,216.7,M,42.0,M,,0000*56
$GPGSA,A,3,07,25,08,23,02,04,,,,,,,2.9,2.3,1.7*31
$GPRMC,152105.000,A,5005.7457,N,01956.7776,E,,30.04,010409,,,A*42
$GPGGA,152106.000,5005.7465,N,01956.7783,E,1,06,2.3,216.8,M,42.0,M,,0000*51
$GPGSA,A,3,07,25,08,23,02,04,,,,,,,2.9,2.3,1.7*31
$GPRMC,152106.000,A,5005.7465,N,01956.7783,E,,30.04,010409,,,A*4A
$GPGGA,152107.000,5005.7471,N,01956.7791,E,1,06,2.3,216.9,M,42.0,M,,0000*57
$GPGSA,A,3,07,25,08,23,02,04,,,,,,,2.9,2.3,1.7*31
$GPGSV,3,1,12,07,77,086,22,25,56,061,25,08,54,215,35,13,47,086,25*74
$GPGSV,3,2,12,15,27,297,,02,22,247,29,23,14,094,22,21,13,324,*73
$GPGSV,3,3,12,24,11,326,24,04,09,212,29,28,04,173,15,10,03,316,*73
$GPRMC,152107.000,A,5005.7471,N,01956.7791,E,,30.04,010409,,,A*4D
$GPGGA,152108.000,5005.7479,N,01956.7798,E,1,06,2.3,216.9,M,42.0,M,,0000*59
$GPGSA,A,3,07,25,08,23,02,04,,,,,,,2.9,2.3,1.7*31
$GPRMC,152108.000,A,5005.7479,N,01956.7798,E,3.26,37.71,010409,,,A*5F
$GPGGA,152109.000,5005.7488,N,01956.7802,E,1,06,2.3,217.5,M,42.0,M,,0000*57
$GPGSA,A,3,07,25,08,23,02,04,,,,,,,2.9,2.3,1.7*31
$GPRMC,152109.000,A,5005.7488,N,01956.7802,E,,37.71,010409,,,A*45
$GPGGA,152110.000,5005.7495,N,01956.7805,E,1,06,2.3,217.5,M,42.0,M,,0000*54
$GPGSA,A,3,07,25,08,23,02,04,,,,,,,2.9,2.3,1.7*31
$GPRMC,152110.000,A,5005.7495,N,01956.7805,E,,37.71,010409,,,A*46
$GPGGA,152111.000,5005.7498,N,01956.7804,E,1,06,2.3,217.8,M,42.0,M,,0000*54
$GPGSA,A,3,07,25,08,23,02,04,,,,,,,2.9,2.3,1.7*31
$GPRMC,152111.000,A,5005.7498,N,01956.7804,E,,37.71,010409,,,A*4B
$GPGGA,152112.000,5005.7498,N,01956.7798,E,1,06,2.3,218.7,M,42.0,M,,0000*5D
$GPGSA,A,3,07,25,08,23,02,04,,,,,,,2.9,2.3,1.7*31
$GPGSV,3,1,12,07,77,086,32,25,56,061,36,08,55,215,26,13,47,086,34*74
$GPGSV,3,2,12,15,27,297,,02,22,247,27,23,14,094,23,21,13,323,*7B
$GPGSV,3,3,12,24,11,326,23,04,09,212,19,28,04,173,13,10,03,316,*71
$GPRMC,152112.000,A,5005.7498,N,01956.7798,E,,37.71,010409,,,A*42
$GPGGA,152113.000,5005.7497,N,01956.7787,E,1,06,2.3,218.8,M,42.0,M,,0000*52
$GPGSA,A,3,07,25,08,23,02,04,,,,,,,2.9,2.3,1.7*31
$GPRMC,152113.000,A,5005.7497,N,01956.7787,E,,37.71,010409,,,A*42
$GPGGA,152114.000,5005.7494,N,01956.7782,E,1,06,2.3,219.2,M,42.0,M,,0000*58
$GPGSA,A,3,07,25,08,23,02,04,,,,,,,2.9,2.3,1.7*31
$GPRMC,152114.000,A,5005.7494,N,01956.7782,E,,37.71,010409,,,A*43
$GPGGA,152115.000,5005.7493,N,01956.7777,E,1,06,2.3,219.6,M,42.0,M,,0000*50
$GPGSA,A,3,07,25,08,23,02,04,,,,,,,2.9,2.3,1.7*31
$GPRMC,152115.000,A,5005.7493,N,01956.7777,E,,37.71,010409,,,A*4F
$GPGGA,152116.000,5005.7491,N,01956.7773,E,1,06,2.3,219.8,M,42.0,M,,0000*5B
$GPGSA,A,3,07,25,08,23,02,04,,,,,,,2.9,2.3,1.7*31
$GPRMC,152116.000,A,5005.7491,N,01956.7773,E,,37.71,010409,,,A*4A
$GPGGA,152117.000,5005.7491,N,01956.7772,E,1,06,2.3,220.1,M,42.0,M,,0000*58
$GPGSA,A,3,07,25,08,23,02,04,,,,,,,2.9,2.3,1.7*31
$GPGSV,3,1,12,07,77,086,22,25,56,061,30,08,55,215,21,13,47,086,30*70
$GPGSV,3,2,12,15,27,297,,02,22,247,20,23,14,094,23,21,13,323,*7C
$GPGSV,3,3,12,24,11,326,30,04,09,212,25,28,04,173,,10,03,316,*7E
$GPRMC,152117.000,A,5005.7491,N,01956.7772,E,,37.71,010409,,,A*4A
$GPGGA,152118.000,5005.7495,N,01956.7771,E,1,06,2.3,220.6,M,42.0,M,,0000*57
$GPGSA,A,3,07,25,08,23,02,04,,,,,,,2.9,2.3,1.7*31
$GPRMC,152118.000,A,5005.7495,N,01956.7771,E,,37.71,010409,,,A*42
$GPGGA,152119.000,5005.7498,N,01956.7777,E,1,06,2.3,221.5,M,42.0,M,,0000*5F
$GPGSA,A,3,07,25,08,23,02,04,,,,,,,2.9,2.3,1.7*31
$GPRMC,152119.000,A,5005.7498,N,01956.7777,E,,37.71,010409,,,A*48
$GPGGA,152120.000,5005.7502,N,01956.7783,E,1,06,2.3,221.5,M,42.0,M,,0000*5C
$GPGSA,A,3,07,25,08,23,02,04,,,,,,,2.9,2.3,1.7*31
$GPRMC,152120.000,A,5005.7502,N,01956.7783,E,,37.71,010409,,,A*4B
$GPGGA,152121.000,5005.7508,N,01956.7787,E,1,06,2.3,222.0,M,42.0,M,,0000*55
$GPGSA,A,3,07,25,08,23,02,04,,,,,,,2.9,2.3,1.7*31
$GPRMC,152121.000,A,5005.7508,N,01956.7787,E,,37.71,010409,,,A*44
$GPGGA,152122.000,5005.7517,N,01956.7785,E,1,06,2.3,223.3,M,42.0,M,,0000*58
$GPGSA,A,3,07,25,08,23,02,04,,,,,,,2.9,2.3,1.7*31
$GPGSV,3,1,12,07,77,086,22,25,56,061,29,08,55,215,28,13,47,086,29*79
$GPGSV,3,2,12,15,27,297,,02,22,247,29,23,14,094,23,21,13,323,*75
$GPGSV,3,3,12,24,11,326,21,04,09,212,28,28,04,173,10,10,03,316,*72
$GPRMC,152122.000,A,5005.7517,N,01956.7785,E,3.38,0.60,010409,,,A*69
$GPGGA,152123.000,5005.7525,N,01956.7786,E,1,06,2.3,224.3,M,42.0,M,,0000*5C
$GPGSA,A,3,07,25,08,23,02,04,,,,,,,2.9,2.3,1.7*31
$GPRMC,152123.000,A,5005.7525,N,01956.7786,E,,0.60,010409,,,A*7C
$GPGGA,152124.000,5005.7530,N,01956.7793,E,1,06,2.3,225.8,M,42.0,M,,0000*51
$GPGSA,A,3,07,25,08,23,02,04,,,,,,,2.9,2.3,1.7*31
$GPRMC,152124.000,A,5005.7530,N,01956.7793,E,,0.60,010409,,,A*7B
$GPGGA,152125.000,5005.7537,N,01956.7798,E,1,05,5.2,225.9,M,42.0,M,,0000*58
$GPGSA,A,3,07,25,08,23,04,,,,,,,,6.1,5.2,3.2*3E
$GPRMC,152125.000,A,5005.7537,N,01956.7798,E,,0.60,010409,,,A*76
$GPGGA,152126.000,5005.7545,N,01956.7799,E,1,06,2.3,225.4,M,42.0,M,,0000*57
$GPGSA,A,3,07,25,08,23,02,04,,,,,,,2.9,2.3,1.7*31
$GPRMC,152126.000,A,5005.7545,N,01956.7799,E,,0.60,010409,,,A*71
$GPGGA,152127.000,5005.7547,N,01956.7808,E,1,06,2.3,225.6,M,42.0,M,,0000*51
$GPGSA,A,3,07,25,08,23,02,04,,,,,,,2.9,2.3,1.7*31
$GPGSV,3,1,12,07,77,086,22,25,56,061,25,08,55,215,37,13,47,086,29*7B
$GPGSV,3,2,12,15,27,297,,02,22,247,24,23,14,094,23,21,13,323,*78
$GPGSV,3,3,12,24,11,326,22,04,09,212,29,28,04,173,,10,03,316,*71
$GPRMC,152127.000,A,5005.7547,N,01956.7808,E,,0.60,010409,,,A*75
$GPGGA,152128.000,5005.7547,N,01956.7824,E,1,06,2.3,226.0,M,42.0,M,,0000*55
$GPGSA,A,3,07,25,08,23,02,04,,,,,,,2.9,2.3,1.7*31
$GPRMC,152128.000,A,5005.7547,N,01956.7824,E,,0.60,010409,,,A*74
$GPGGA,152129.000,5005.7551,N,01956.7840,E,1,06,2.3,225.9,M,42.0,M,,0000*5B
$GPGSA,A,3,07,25,08,23,02,04,,,,,,,2.9,2.3,1.7*31
$GPRMC,152129.000,A,5005.7551,N,01956.7840,E,,0.60,010409,,,A*70
$GPGGA,152130.000,5005.7558,N,01956.7850,E,1,06,2.3,225.7,M,42.0,M,,0000*55
$GPGSA,A,3,07,25,08,23,02,04,,,,,,,2.9,2.3,1.7*31
$GPRMC,152130.000,A,5005.7558,N,01956.7850,E,,0.60,010409,,,A*70
$GPGGA,152131.000,5005.7565,N,01956.7857,E,1,06,2.3,225.1,M,42.0,M,,0000*5B
$GPGSA,A,3,07,25,08,23,02,04,,,,,,,2.9,2.3,1.7*31
$GPRMC,152131.000,A,5005.7565,N,01956.7857,E,,0.60,010409,,,A*78
$GPGGA,152132.000,5005.7570,N,01956.7867,E,1,06,2.3,225.0,M,42.0,M,,0000*5E
$GPGSA,A,3,07,25,08,23,02,04,,,,,,,2.9,2.3,1.7*31
$GPGSV,3,1,12,07,77,086,22,25,56,061,26,08,55,215,36,13,47,086,29*79
$GPGSV,3,2,12,15,27,297,,02,22,247,31,23,14,094,27,21,13,323,*78
$GPGSV,3,3,12,24,11,326,22,04,09,212,30,28,04,173,16,10,03,316,*7E
$GPRMC,152132.000,A,5005.7570,N,01956.7867,E,,0.60,010409,,,A*7C
$GPGGA,152133.000,5005.7575,N,01956.7879,E,1,06,2.3,224.9,M,42.0,M,,0000*5D
$GPGSA,A,3,07,25,08,23,02,04,,,,,,,2.9,2.3,1.7*31
$GPRMC,152133.000,A,5005.7575,N,01956.7879,E,,0.60,010409,,,A*77
$GPGGA,152134.000,5005.7576,N,01956.7894,E,1,06,2.3,225.1,M,42.0,M,,0000*53
$GPGSA,A,3,07,25,08,23,02,04,,,,,,,2.9,2.3,1.7*31
$GPRMC,152134.000,A,5005.7576,N,01956.7894,E,,0.60,010409,,,A*70
$GPGGA,152135.000,5005.7578,N,01956.7904,E,1,06,2.3,225.3,M,42.0,M,,0000*56
$GPGSA,A,3,07,25,08,23,02,04,,,,,,,2.9,2.3,1.7*31
$GPRMC,152135.000,A,5005.7578,N,01956.7904,E,,0.60,010409,,,A*77
$GPGGA,152136.000,5005.7582,N,01956.7911,E,1,06,2.3,224.7,M,42.0,M,,0000*51
$GPGSA,A,3,07,25,08,23,02,04,,,,,,,2.9,2.3,1.7*31
$GPRMC,152136.000,A,5005.7582,N,01956.7911,E,,0.60,010409,,,A*75
$GPGGA,152137.000,5005.7584,N,01956.7923,E,1,06,2.3,224.5,M,42.0,M,,0000*55
$GPGSA,A,3,07,25,08,23,02,04,,,,,,,2.9,2.3,1.7*31
$GPGSV,3,1,12,07,77,086,21,25,56,061,26,08,55,215,36,13,47,086,29*7A
$GPGSV,3,2,12,15,27,297,,02,22,247,30,23,14,094,28,21,13,323,*76
$GPGSV,3,3,12,24,11,326,22,04,09,212,30,28,04,173,14,10,03,316,*7C
$GPRMC,152137.000,A,5005.7584,N,01956.7923,E,,0.60,010409,,,A*73
