$GPGGA,075829.000,5003.6000,N,01956.0487,E,1,05,1.8,224.2,M,42.0,M,,0000*51
$GPGSA,A,3,32,11,14,19,20,,,,,,,,3.8,1.8,3.3*3E
$GPRMC,075829.000,A,5003.6000,N,01956.0487,E,,18.76,150409,,,A*40
$GPGGA,075830.000,5003.6003,N,01956.0484,E,1,05,1.8,223.5,M,42.0,M,,0000*59
$GPGSA,A,3,32,11,14,19,20,,,,,,,,3.8,1.8,3.3*3E
$GPGSV,3,1,12,11,65,280,26,32,59,245,26,14,46,065,27,19,37,187,25*7B
$GPGSV,3,2,12,31,31,303,,20,29,250,22,22,15,066,19,28,12,292,19*71
$GPGSV,3,3,12,17,11,323,,03,09,175,24,23,07,196,,02,06,171,*7A
$GPRMC,075830.000,A,5003.6003,N,01956.0484,E,,18.76,150409,,,A*48
$GPGGA,075831.000,5003.6004,N,01956.0481,E,1,05,1.8,224.5,M,42.0,M,,0000*5D
$GPGSA,A,3,32,11,14,19,20,,,,,,,,3.8,1.8,3.3*3E
$GPRMC,075831.000,A,5003.6004,N,01956.0481,E,,18.76,150409,,,A*4B
$GPGGA,075832.000,5003.6008,N,01956.0471,E,1,05,1.8,224.8,M,42.0,M,,0000*50
$GPGSA,A,3,32,11,14,19,20,,,,,,,,3.8,1.8,3.3*3E
$GPRMC,075832.000,A,5003.6008,N,01956.0471,E,,18.76,150409,,,A*4B
$GPGGA,075833.000,5003.6016,N,01956.0456,E,1,05,1.8,225.0,M,42.0,M,,0000*52
$GPGSA,A,3,32,11,14,19,20,,,,,,,,3.8,1.8,3.3*3E
$GPRMC,075833.000,A,5003.6016,N,01956.0456,E,,18.76,150409,,,A*40
$GPGGA,075834.000,5003.6022,N,01956.0441,E,1,05,1.8,225.7,M,42.0,M,,0000*53
$GPGSA,A,3,32,11,14,19,20,,,,,,,,3.8,1.8,3.3*3E
$GPRMC,075834.000,A,5003.6022,N,01956.0441,E,,18.76,150409,,,A*46
$GPGGA,075835.000,5003.6028,N,01956.0429,E,1,05,1.8,225.9,M,42.0,M,,0000*58
$GPGSA,A,3,32,11,14,19,20,,,,,,,,3.8,1.8,3.3*3E
$GPGSV,3,1,12,11,65,280,27,32,59,245,25,14,46,065,33,19,37,187,26*7F
$GPGSV,3,2,12,31,31,303,,20,29,250,22,22,15,066,19,28,12,292,18*70
$GPGSV,3,3,12,17,11,323,,03,09,175,23,23,07,196,,02,06,171,*7D
$GPRMC,075835.000,A,5003.6028,N,01956.0429,E,,18.76,150409,,,A*43
$GPGGA,075836.000,5003.6032,N,01956.0422,E,1,05,1.8,227.8,M,42.0,M,,0000*58
$GPGSA,A,3,32,11,14,19,20,,,,,,,,3.8,1.8,3.3*3E
$GPRMC,075836.000,A,5003.6032,N,01956.0422,E,,18.76,150409,,,A*40
$GPGGA,075837.000,5003.6037,N,01956.0418,E,1,05,1.8,229.0,M,42.0,M,,0000*53
$GPGSA,A,3,32,11,14,19,20,,,,,,,,3.8,1.8,3.3*3E
$GPRMC,075837.000,A,5003.6037,N,01956.0418,E,,18.76,150409,,,A*4D
$GPGGA,075838.000,5003.6034,N,01956.0418,E,1,05,1.8,231.5,M,42.0,M,,0000*53
$GPGSA,A,3,32,11,14,19,20,,,,,,,,3.8,1.8,3.3*3E
$GPRMC,075838.000,A,5003.6034,N,01956.0418,E,,18.76,150409,,,A*41
$GPGGA,075839.000,5003.6032,N,01956.0420,E,1,05,1.8,234.3,M,42.0,M,,0000*5C
$GPGSA,A,3,32,11,14,19,20,,,,,,,,3.8,1.8,3.3*3E
$GPRMC,075839.000,A,5003.6032,N,01956.0420,E,,18.76,150409,,,A*4D
$GPGGA,075840.000,5003.6032,N,01956.0419,E,1,05,1.8,237.5,M,42.0,M,,0000*5D
$GPGSA,A,3,32,11,14,19,20,,,,,,,,3.8,1.8,3.3*3E
$GPGSV,3,1,12,11,65,280,24,32,59,245,24,14,46,065,22,19,37,187,27*7C
$GPGSV,3,2,12,31,31,303,,20,29,250,21,22,15,066,18,28,12,292,18*72
$GPGSV,3,3,12,17,11,323,,03,09,175,22,23,07,196,,02,06,171,*7C
$GPRMC,075840.000,A,5003.6032,N,01956.0419,E,,18.76,150409,,,A*49
$GPGGA,075841.000,5003.6030,N,01956.0411,E,1,05,1.8,239.8,M,42.0,M,,0000*55
$GPGSA,A,3,32,11,14,19,20,,,,,,,,3.8,1.8,3.3*3E
$GPRMC,075841.000,A,5003.6030,N,01956.0411,E,,18.76,150409,,,A*42
$GPGGA,075842.000,5003.6035,N,01956.0394,E,1,05,1.8,240.8,M,42.0,M,,0000*57
$GPGSA,A,3,32,11,14,19,20,,,,,,,,3.8,1.8,3.3*3E
$GPRMC,075842.000,A,5003.6035,N,01956.0394,E,,18.76,150409,,,A*4E
$GPGGA,075843.000,5003.6040,N,01956.0378,E,1,05,1.8,238.9,M,42.0,M,,0000*58
$GPGSA,A,3,32,11,14,19,20,,,,,,,,3.8,1.8,3.3*3E
$GPRMC,075843.000,A,5003.6040,N,01956.0378,E,,18.76,150409,,,A*4F
$GPGGA,075844.000,5003.6048,N,01956.0364,E,1,05,1.8,239.0,M,42.0,M,,0000*52
$GPGSA,A,3,32,11,14,19,20,,,,,,,,3.8,1.8,3.3*3E
$GPRMC,075844.000,A,5003.6048,N,01956.0364,E,,18.76,150409,,,A*4D
$GPGGA,075845.000,5003.6054,N,01956.0345,E,1,05,1.8,238.3,M,42.0,M,,0000*5F
$GPGSA,A,3,32,11,14,19,20,,,,,,,,3.8,1.8,3.3*3E
$GPGSV,3,1,12,11,65,280,24,32,59,245,23,14,46,065,24,19,37,187,27*7D
$GPGSV,3,2,12,31,31,303,,20,29,250,21,22,15,066,18,28,12,292,17*7D
$GPGSV,3,3,12,17,11,323,,03,09,175,21,23,07,196,,02,06,171,*7F
$GPRMC,075845.000,A,5003.6054,N,01956.0345,E,,18.76,150409,,,A*42
$GPGGA,075846.000,5003.6057,N,01956.0330,E,1,05,1.8,237.9,M,42.0,M,,0000*58
$GPGSA,A,3,32,11,14,19,20,,,,,,,,3.8,1.8,3.3*3E
$GPRMC,075846.000,A,5003.6057,N,01956.0330,E,,18.76,150409,,,A*40
$GPGGA,075847.000,5003.6060,N,01956.0320,E,1,05,1.8,236.8,M,42.0,M,,0000*5C
$GPGSA,A,3,32,11,14,19,20,,,,,,,,3.8,1.8,3.3*3E
$GPRMC,075847.000,A,5003.6060,N,01956.0320,E,,18.76,150409,,,A*44
$GPGGA,075848.000,5003.6060,N,01956.0310,E,1,05,1.8,234.4,M,42.0,M,,0000*5E
$GPGSA,A,3,32,11,14,19,20,,,,,,,,3.8,1.8,3.3*3E
$GPRMC,075848.000,A,5003.6060,N,01956.0310,E,,18.76,150409,,,A*48
$GPGGA,075849.000,5003.6067,N,01956.0300,E,1,05,1.8,232.8,M,42.0,M,,0000*53
$GPGSA,A,3,32,11,14,19,20,,,,,,,,3.8,1.8,3.3*3E
$GPRMC,075849.000,A,5003.6067,N,01956.0300,E,,18.76,150409,,,A*4F
$GPGGA,075850.000,5003.6074,N,01956.0290,E,1,05,1.8,230.1,M,42.0,M,,0000*5A
$GPGSA,A,3,32,11,14,19,20,,,,,,,,3.8,1.8,3.3*3E
$GPGSV,3,1,12,11,65,280,24,32,59,245,24,14,46,065,30,19,37,187,25*7D
$GPGSV,3,2,12,31,31,303,,20,29,250,22,22,15,066,18,28,12,292,17*7E
$GPGSV,3,3,12,17,11,323,,03,09,175,21,23,07,196,,02,06,171,*7F
$GPRMC,075850.000,A,5003.6074,N,01956.0290,E,,18.76,150409,,,A*4D
$GPGGA,075851.000,5003.6077,N,01956.0283,E,1,05,1.8,227.3,M,42.0,M,,0000*5E
$GPGSA,A,3,32,11,14,19,20,,,,,,,,3.8,1.8,3.3*3E
$GPRMC,075851.000,A,5003.6077,N,01956.0283,E,,18.76,150409,,,A*4D
$GPGGA,075852.000,5003.6088,N,01956.0267,E,1,05,1.8,226.5,M,42.0,M,,0000*50
$GPGSA,A,3,32,11,14,19,20,,,,,,,,3.8,1.8,3.3*3E
$GPRMC,075852.000,A,5003.6088,N,01956.0267,E,,18.76,150409,,,A*44
$GPGGA,075853.000,5003.6103,N,01956.0250,E,1,05,1.8,224.9,M,42.0,M,,0000*59
$GPGSA,A,3,32,11,14,19,20,,,,,,,,3.8,1.8,3.3*3E
$GPRMC,075853.000,A,5003.6103,N,01956.0250,E,,18.76,150409,,,A*43
$GPGGA,075854.000,5003.6120,N,01956.0231,E,1,05,1.8,225.5,M,42.0,M,,0000*55
$GPGSA,A,3,32,11,14,19,20,,,,,,,,3.8,1.8,3.3*3E
$GPRMC,075854.000,A,5003.6120,N,01956.0231,E,,18.76,150409,,,A*42
$GPGGA,075855.000,5003.6136,N,01956.0211,E,1,05,1.8,226.0,M,42.0,M,,0000*57
$GPGSA,A,3,32,11,14,19,20,,,,,,,,3.8,1.8,3.3*3E
$GPGSV,3,1,12,11,65,280,29,32,59,245,24,14,46,065,35,19,37,187,25*75
$GPGSV,3,2,12,31,31,303,,20,29,250,24,22,15,066,18,28,12,292,17*78
$GPGSV,3,3,12,17,11,323,,03,09,175,22,23,07,196,,02,06,171,*7C
$GPRMC,075855.000,A,5003.6136,N,01956.0211,E,3.81,320.79,150409,,,A*65
$GPGGA,075856.000,5003.6154,N,01956.0190,E,1,05,1.8,225.9,M,42.0,M,,0000*50
$GPGSA,A,3,32,11,14,19,20,,,,,,,,3.8,1.8,3.3*3E
$GPRMC,075856.000,A,5003.6154,N,01956.0190,E,5.28,328.42,150409,,,A*6D
$GPGGA,075857.000,5003.6165,N,01956.0173,E,1,05,1.8,225.8,M,42.0,M,,0000*5F
$GPGSA,A,3,32,11,14,19,20,,,,,,,,3.8,1.8,3.3*3E
$GPRMC,075857.000,A,5003.6165,N,01956.0173,E,3.47,322.22,150409,,,A*60
$GPGGA,075858.000,5003.6178,N,01956.0160,E,1,05,1.8,225.3,M,42.0,M,,0000*55
$GPGSA,A,3,32,11,14,19,20,,,,,,,,3.8,1.8,3.3*3E
$GPRMC,075858.000,A,5003.6178,N,01956.0160,E,4.28,329.53,150409,,,A*62
$GPGGA,075859.000,5003.6186,N,01956.0147,E,1,05,1.8,225.1,M,42.0,M,,0000*52
$GPGSA,A,3,32,11,14,19,20,,,,,,,,3.8,1.8,3.3*3E
$GPRMC,075859.000,A,5003.6186,N,01956.0147,E,,329.53,150409,,,A*77
$GPGGA,075900.000,5003.6188,N,01956.0137,E,1,05,1.8,226.5,M,42.0,M,,0000*51
$GPGSA,A,3,32,11,14,19,20,,,,,,,,3.8,1.8,3.3*3E
$GPGSV,3,1,12,11,65,280,29,32,59,245,27,14,46,065,31,19,37,187,25*72
$GPGSV,3,2,12,31,31,303,,20,29,250,25,22,15,066,18,28,12,292,17*79
$GPGSV,3,3,12,17,11,323,14,03,09,175,22,23,07,196,,02,06,171,*79
$GPRMC,075900.000,A,5003.6188,N,01956.0137,E,,329.53,150409,,,A*73
$GPGGA,075901.000,5003.6188,N,01956.0120,E,1,05,1.8,228.7,M,42.0,M,,0000*5A
$GPGSA,A,3,32,11,14,19,20,,,,,,,,3.8,1.8,3.3*3E
$GPRMC,075901.000,A,5003.6188,N,01956.0120,E,,329.53,150409,,,A*74
$GPGGA,075902.000,5003.6181,N,01956.0114,E,1,05,1.8,233.5,M,42.0,M,,0000*5F
$GPGSA,A,3,32,11,14,19,20,,,,,,,,3.8,1.8,3.3*3E
$GPRMC,075902.000,A,5003.6181,N,01956.0114,E,,329.53,150409,,,A*79
$GPGGA,075903.000,5003.6184,N,01956.0104,E,1,05,1.8,236.7,M,42.0,M,,0000*5D
$GPGSA,A,3,32,11,14,19,20,,,,,,,,3.8,1.8,3.3*3E
$GPRMC,075903.000,A,5003.6184,N,01956.0104,E,,329.53,150409,,,A*7C
$GPGGA,075904.000,5003.6185,N,01956.0097,E,1,05,1.8,240.1,M,42.0,M,,0000*57
$GPGSA,A,3,32,11,14,19,20,,,,,,,,3.8,1.8,3.3*3E
$GPRMC,075904.000,A,5003.6185,N,01956.0097,E,,329.53,150409,,,A*71
$GPGGA,075905.000,5003.6182,N,01956.0091,E,1,05,1.8,242.9,M,42.0,M,,0000*5D
$GPGSA,A,3,32,11,14,19,20,,,,,,,,3.8,1.8,3.3*3E
$GPGSV,3,1,12,11,65,280,29,32,59,245,27,14,46,065,32,19,37,187,25*71
$GPGSV,3,2,12,31,31,303,,20,29,250,21,22,15,066,18,28,12,292,17*7D
$GPGSV,3,3,12,17,11,323,15,03,09,175,22,23,07,196,,02,06,171,*78
$GPRMC,075905.000,A,5003.6182,N,01956.0091,E,,329.53,150409,,,A*71
$GPGGA,075906.000,5003.6181,N,01956.0086,E,1,05,1.8,245.3,M,42.0,M,,0000*56
$GPGSA,A,3,32,11,14,19,20,,,,,,,,3.8,1.8,3.3*3E
$GPRMC,075906.000,A,5003.6181,N,01956.0086,E,,329.53,150409,,,A*77
$GPGGA,075907.000,5003.6179,N,01956.0082,E,1,05,1.8,248.7,M,42.0,M,,0000*5D
$GPGSA,A,3,32,11,14,19,20,,,,,,,,3.8,1.8,3.3*3E
$GPRMC,075907.000,A,5003.6179,N,01956.0082,E,,329.53,150409,,,A*75
$GPGGA,075908.000,5003.6180,N,01956.0077,E,1,05,1.8,251.8,M,42.0,M,,0000*59
$GPGSA,A,3,32,11,14,19,20,,,,,,,,3.8,1.8,3.3*3E
$GPRMC,075908.000,A,5003.6180,N,01956.0077,E,,329.53,150409,,,A*76
$GPGGA,075909.000,5003.6178,N,01956.0071,E,1,05,1.8,255.0,M,42.0,M,,0000*55
$GPGSA,A,3,32,11,14,19,20,,,,,,,,3.8,1.8,3.3*3E
$GPRMC,075909.000,A,5003.6178,N,01956.0071,E,,329.53,150409,,,A*76
$GPGGA,075910.000,5003.6178,N,01956.0058,E,1,05,1.8,256.9,M,42.0,M,,0000*5C
$GPGSA,A,3,32,11,14,19,20,,,,,,,,3.8,1.8,3.3*3E
$GPGSV,3,1,12,11,65,280,29,32,59,245,27,14,46,065,23,19,37,187,28*7C
$GPGSV,3,2,12,31,31,303,,20,29,250,20,22,15,066,18,28,12,292,17*7C
$GPGSV,3,3,12,17,11,323,15,03,09,175,21,23,07,196,,02,06,171,*7B
$GPRMC,075910.000,A,5003.6178,N,01956.0058,E,,329.53,150409,,,A*75
$GPGGA,075911.000,5003.6182,N,01956.0044,E,1,05,1.8,257.5,M,42.0,M,,0000*58
$GPGSA,A,3,32,11,14,19,20,,,,,,,,3.8,1.8,3.3*3E
$GPRMC,075911.000,A,5003.6182,N,01956.0044,E,,329.53,150409,,,A*7C
$GPGGA,075912.000,5003.6188,N,01956.0029,E,1,05,1.8,256.9,M,42.0,M,,0000*57
$GPGSA,A,3,32,11,14,19,20,,,,,,,,3.8,1.8,3.3*3E
$GPRMC,075912.000,A,5003.6188,N,01956.0029,E,,329.53,150409,,,A*7E
$GPGGA,075913.000,5003.6191,N,01956.0011,E,1,05,1.8,256.6,M,42.0,M,,0000*5A
$GPGSA,A,3,32,11,14,19,20,,,,,,,,3.8,1.8,3.3*3E
$GPRMC,075913.000,A,5003.6191,N,01956.0011,E,,329.53,150409,,,A*7C
$GPGGA,075914.000,5003.6199,N,01955.9994,E,1,05,1.8,255.2,M,42.0,M,,0000*5C
$GPGSA,A,3,32,11,14,19,20,,,,,,,,3.8,1.8,3.3*3E
$GPRMC,075914.000,A,5003.6199,N,01955.9994,E,,329.53,150409,,,A*7D
$GPGGA,075915.000,5003.6208,N,01955.9977,E,1,05,1.8,252.8,M,42.0,M,,0000*56
$GPGSA,A,3,32,11,14,19,20,,,,,,,,3.8,1.8,3.3*3E
$GPGSV,3,1,12,11,65,280,29,32,59,245,26,14,46,065,22,19,37,187,27*73
$GPGSV,3,2,12,31,31,303,,20,29,250,21,22,15,066,17,28,12,292,17*72
$GPGSV,3,3,12,17,11,323,15,03,09,175,20,23,07,196,,02,06,171,*7A
$GPRMC,075915.000,A,5003.6208,N,01955.9977,E,,329.53,150409,,,A*7A
$GPGGA,075916.000,5003.6209,N,01955.9967,E,1,05,1.8,254.5,M,42.0,M,,0000*5E
$GPGSA,A,3,32,11,14,19,20,,,,,,,,3.8,1.8,3.3*3E
$GPRMC,075916.000,A,5003.6209,N,01955.9967,E,,329.53,150409,,,A*79
$GPGGA,075917.000,5003.6208,N,01955.9960,E,1,05,1.8,257.7,M,42.0,M,,0000*58
$GPGSA,A,3,32,11,14,19,20,,,,,,,,3.8,1.8,3.3*3E
$GPRMC,075917.000,A,5003.6208,N,01955.9960,E,,329.53,150409,,,A*7E
$GPGGA,075918.000,5003.6208,N,01955.9955,E,1,05,1.8,259.6,M,42.0,M,,0000*5E
$GPGSA,A,3,32,11,14,19,20,,,,,,,,3.8,1.8,3.3*3E
$GPRMC,075918.000,A,5003.6208,N,01955.9955,E,,329.53,150409,,,A*77
$GPGGA,075919.000,5003.6209,N,01955.9950,E,1,05,1.8,260.5,M,42.0,M,,0000*52
$GPGSA,A,3,32,11,14,19,20,,,,,,,,3.8,1.8,3.3*3E
$GPRMC,075919.000,A,5003.6209,N,01955.9950,E,,329.53,150409,,,A*72
$GPGGA,075920.000,5003.6217,N,01955.9939,E,1,05,1.8,259.1,M,42.0,M,,0000*56
$GPGSA,A,3,32,11,14,19,20,,,,,,,,3.8,1.8,3.3*3E
$GPGSV,3,1,12,11,65,280,23,32,59,245,26,14,46,065,31,19,37,187,25*79
$GPGSV,3,2,12,31,31,303,,20,29,250,22,22,15,066,17,28,12,292,17*71
$GPGSV,3,3,12,17,11,323,16,03,09,175,16,23,07,196,,02,06,171,*7C
$GPRMC,075920.000,A,5003.6217,N,01955.9939,E,,329.53,150409,,,A*78
$GPGGA,075921.000,5003.6226,N,01955.9928,E,1,05,1.8,255.9,M,42.0,M,,0000*51
$GPGSA,A,3,32,11,14,19,20,,,,,,,,3.8,1.8,3.3*3E
$GPRMC,075921.000,A,5003.6226,N,01955.9928,E,,329.53,150409,,,A*7B
$GPGGA,075922.000,5003.6233,N,01955.9917,E,1,05,1.8,253.4,M,42.0,M,,0000*51
$GPGSA,A,3,32,11,14,19,20,,,,,,,,3.8,1.8,3.3*3E
$GPRMC,075922.000,A,5003.6233,N,01955.9917,E,,329.53,150409,,,A*70
$GPGGA,075923.000,5003.6242,N,01955.9909,E,1,05,1.8,251.2,M,42.0,M,,0000*5D
$GPGSA,A,3,32,11,14,19,20,,,,,,,,3.8,1.8,3.3*3E
$GPRMC,075923.000,A,5003.6242,N,01955.9909,E,,329.53,150409,,,A*78
$GPGGA,075924.000,5003.6250,N,01955.9901,E,1,05,1.8,249.4,M,42.0,M,,0000*5E
$GPGSA,A,3,32,11,14,19,20,,,,,,,,3.8,1.8,3.3*3E
$GPRMC,075924.000,A,5003.6250,N,01955.9901,E,,329.53,150409,,,A*74
$GPGGA,075925.000,5003.6263,N,01955.9890,E,1,05,1.8,247.7,M,42.0,M,,0000*5B
$GPGSA,A,3,32,11,14,19,20,,,,,,,,3.8,1.8,3.3*3E
$GPGSV,3,1,12,11,65,280,22,32,59,245,26,14,46,065,33,19,37,187,26*79
$GPGSV,3,2,12,31,31,303,,20,29,250,23,22,15,066,17,28,12,292,16*71
$GPGSV,3,3,12,17,11,323,16,03,09,175,17,23,07,196,,02,06,171,*7D
$GPRMC,075925.000,A,5003.6263,N,01955.9890,E,,329.53,150409,,,A*7C
$GPGGA,075926.000,5003.6277,N,01955.9874,E,1,05,1.8,246.0,M,42.0,M,,0000*51
$GPGSA,A,3,32,11,14,19,20,,,,,,,,3.8,1.8,3.3*3E
$GPRMC,075926.000,A,5003.6277,N,01955.9874,E,3.34,316.56,150409,,,A*63
$GPGGA,075927.000,5003.6287,N,01955.9857,E,1,05,1.8,244.9,M,42.0,M,,0000*55
$GPGSA,A,3,32,11,14,19,20,,,,,,,,3.8,1.8,3.3*3E
$GPRMC,075927.000,A,5003.6287,N,01955.9857,E,,316.56,150409,,,A*76
$GPGGA,075928.000,5003.6291,N,01955.9849,E,1,05,1.8,245.1,M,42.0,M,,0000*5B
$GPGSA,A,3,32,11,14,19,20,,,,,,,,3.8,1.8,3.3*3E
$GPRMC,075928.000,A,5003.6291,N,01955.9849,E,,316.56,150409,,,A*71
$GPGGA,075929.000,5003.6295,N,01955.9836,E,1,05,1.8,243.7,M,42.0,M,,0000*56
$GPGSA,A,3,32,11,14,19,20,,,,,,,,3.8,1.8,3.3*3E
$GPRMC,075929.000,A,5003.6295,N,01955.9836,E,,316.56,150409,,,A*7C
$GPGGA,075930.000,5003.6295,N,01955.9827,E,1,05,1.8,242.3,M,42.0,M,,0000*5B
$GPGSA,A,3,32,11,14,19,20,,,,,,,,3.8,1.8,3.3*3E
$GPGSV,3,1,12,11,65,280,26,32,59,245,23,14,46,065,23,19,37,187,25*7A
$GPGSV,3,2,12,31,31,303,,20,29,250,22,22,15,066,16,28,12,292,16*71
$GPGSV,3,3,12,17,11,323,16,03,09,175,18,23,07,196,,02,06,171,*72
$GPRMC,075930.000,A,5003.6295,N,01955.9827,E,,316.56,150409,,,A*74
$GPGGA,075931.000,5003.6300,N,01955.9823,E,1,05,1.8,239.5,M,42.0,M,,0000*59
$GPGSA,A,3,32,11,14,19,20,,,,,,,,3.8,1.8,3.3*3E
$GPRMC,075931.000,A,5003.6300,N,01955.9823,E,,316.56,150409,,,A*7C
$GPGGA,075932.000,5003.6306,N,01955.9817,E,1,05,1.8,235.9,M,42.0,M,,0000*5B
$GPGSA,A,3,32,11,14,19,20,,,,,,,,3.8,1.8,3.3*3E
$GPRMC,075932.000,A,5003.6306,N,01955.9817,E,,316.56,150409,,,A*7E
$GPGGA,075933.000,5003.6308,N,01955.9811,E,1,05,1.8,233.4,M,42.0,M,,0000*59
$GPGSA,A,3,32,11,14,19,20,,,,,,,,3.8,1.8,3.3*3E
$GPRMC,075933.000,A,5003.6308,N,01955.9811,E,,316.56,150409,,,A*77
$GPGGA,075934.000,5003.6310,N,01955.9799,E,1,05,1.8,231.0,M,42.0,M,,0000*5E
$GPGSA,A,3,32,11,14,19,20,,,,,,,,3.8,1.8,3.3*3E
$GPRMC,075934.000,A,5003.6310,N,01955.9799,E,,316.56,150409,,,A*76
$GPGGA,075935.000,5003.6313,N,01955.9779,E,1,05,1.8,229.9,M,42.0,M,,0000*52
$GPGSA,A,3,32,11,14,19,20,,,,,,,,3.8,1.8,3.3*3E
$GPGSV,3,1,12,11,65,280,25,32,59,245,23,14,46,065,24,19,37,187,25*7E
$GPGSV,3,2,12,31,31,303,,20,29,250,23,22,15,066,16,28,12,292,15*73
$GPGSV,3,3,12,17,11,323,15,03,09,175,18,23,07,196,,02,06,171,*71
$GPRMC,075935.000,A,5003.6313,N,01955.9779,E,,316.56,150409,,,A*7A
$GPGGA,075936.000,5003.6319,N,01955.9757,E,1,05,1.8,230.5,M,42.0,M,,0000*53
$GPGSA,A,3,32,11,14,19,20,,,,,,,,3.8,1.8,3.3*3E
$GPRMC,075936.000,A,5003.6319,N,01955.9757,E,,316.56,150409,,,A*7F
$GPGGA,075937.000,5003.6324,N,01955.9742,E,1,05,1.8,230.9,M,42.0,M,,0000*54
$GPGSA,A,3,32,11,14,19,20,,,,,,,,3.8,1.8,3.3*3E
$GPRMC,075937.000,A,5003.6324,N,01955.9742,E,,316.56,150409,,,A*74
$GPGGA,075938.000,5003.6326,N,01955.9734,E,1,05,1.8,232.8,M,42.0,M,,0000*5B
$GPGSA,A,3,32,11,14,19,20,,,,,,,,3.8,1.8,3.3*3E
$GPRMC,075938.000,A,5003.6326,N,01955.9734,E,,316.56,150409,,,A*78
$GPGGA,075939.000,5003.6332,N,01955.9720,E,1,05,1.8,232.9,M,42.0,M,,0000*5B
$GPGSA,A,3,32,11,14,19,20,,,,,,,,3.8,1.8,3.3*3E
$GPRMC,075939.000,A,5003.6332,N,01955.9720,E,,316.56,150409,,,A*79
$GPGGA,075940.000,5003.6339,N,01955.9699,E,1,05,1.8,233.1,M,42.0,M,,0000*54
$GPGSA,A,3,32,11,14,19,20,,,,,,,,3.8,1.8,3.3*3E
$GPGSV,3,1,12,11,65,280,26,32,59,245,24,14,46,065,20,19,37,187,26*7D
$GPGSV,3,2,12,31,31,303,,20,29,250,23,22,15,066,16,28,12,292,*77
$GPGSV,3,3,12,17,11,323,,03,09,175,18,23,07,196,,02,06,171,*75
$GPRMC,075940.000,A,5003.6339,N,01955.9699,E,4.29,306.99,150409,,,A*6C
$GPGGA,075941.000,5003.6347,N,01955.9687,E,1,05,1.8,232.8,M,42.0,M,,0000*5B
$GPGSA,A,3,32,11,14,19,20,,,,,,,,3.8,1.8,3.3*3E
$GPRMC,075941.000,A,5003.6347,N,01955.9687,E,3.87,323.21,150409,,,A*6C
$GPGGA,075942.000,5003.6356,N,01955.9670,E,1,05,1.8,229.6,M,42.0,M,,0000*54
$GPGSA,A,3,32,11,14,19,20,,,,,,,,3.8,1.8,3.3*3E
$GPRMC,075942.000,A,5003.6356,N,01955.9670,E,4.01,300.14,150409,,,A*69
$GPGGA,075943.000,5003.6360,N,01955.9661,E,1,05,1.8,227.9,M,42.0,M,,0000*51
$GPGSA,A,3,32,11,14,19,20,,,,,,,,3.8,1.8,3.3*3E
$GPRMC,075943.000,A,5003.6360,N,01955.9661,E,,300.14,150409,,,A*76
$GPGGA,075944.000,5003.6368,N,01955.9652,E,1,05,1.8,227.2,M,42.0,M,,0000*55
$GPGSA,A,3,32,11,14,19,20,,,,,,,,3.8,1.8,3.3*3E
$GPRMC,075944.000,A,5003.6368,N,01955.9652,E,,300.14,150409,,,A*79
$GPGGA,075945.000,5003.6372,N,01955.9640,E,1,05,1.8,227.8,M,42.0,M,,0000*56
$GPGSA,A,3,32,11,14,19,20,,,,,,,,3.8,1.8,3.3*3E
$GPGSV,3,1,12,11,65,280,26,32,59,245,23,14,46,065,20,19,37,187,26*7A
$GPGSV,3,2,12,31,31,303,,20,29,250,23,22,15,066,15,28,12,292,11*74
$GPGSV,3,3,12,17,11,323,14,03,09,175,18,23,07,196,,02,06,171,*70
$GPRMC,075945.000,A,5003.6372,N,01955.9640,E,,300.14,150409,,,A*70
$GPGGA,075946.000,5003.6378,N,01955.9629,E,1,05,1.8,227.1,M,42.0,M,,0000*59
$GPGSA,A,3,32,11,14,19,20,,,,,,,,3.8,1.8,3.3*3E
$GPRMC,075946.000,A,5003.6378,N,01955.9629,E,3.66,334.98,150409,,,A*68
$GPGGA,075947.000,5003.6381,N,01955.9618,E,1,05,1.8,228.3,M,42.0,M,,0000*51
$GPGSA,A,3,32,11,14,19,20,,,,,,,,3.8,1.8,3.3*3E
$GPRMC,075947.000,A,5003.6381,N,01955.9618,E,,334.98,150409,,,A*70
$GPGGA,075948.000,5003.6387,N,01955.9601,E,1,05,1.8,228.7,M,42.0,M,,0000*54
$GPGSA,A,3,32,11,14,19,20,,,,,,,,3.8,1.8,3.3*3E
$GPRMC,075948.000,A,5003.6387,N,01955.9601,E,3.58,313.32,150409,,,A*64
$GPGGA,075949.000,5003.6393,N,01955.9573,E,1,05,1.8,231.0,M,42.0,M,,0000*59
$GPGSA,A,3,32,11,14,19,20,,,,,,,,3.8,1.8,3.3*3E
$GPRMC,075949.000,A,5003.6393,N,01955.9573,E,4.71,299.36,150409,,,A*6D
$GPGGA,075950.000,5003.6398,N,01955.9546,E,1,05,1.8,232.2,M,42.0,M,,0000*5D
$GPGSA,A,3,32,11,14,19,20,,,,,,,,3.8,1.8,3.3*3E
$GPGSV,3,1,12,11,65,280,29,32,59,245,29,14,46,065,20,19,37,187,26*7F
$GPGSV,3,2,12,31,31,303,,20,29,250,22,22,15,066,,28,12,292,17*77
$GPGSV,3,3,12,17,11,323,,03,09,175,18,23,07,196,,02,06,171,*75
$GPRMC,075950.000,A,5003.6398,N,01955.9546,E,4.22,300.78,150409,,,A*65
$GPGGA,075951.000,5003.6405,N,01955.9530,E,1,05,1.8,233.1,M,42.0,M,,0000*5C
$GPGSA,A,3,32,11,14,19,20,,,,,,,,3.8,1.8,3.3*3E
$GPRMC,075951.000,A,5003.6405,N,01955.9530,E,3.86,315.45,150409,,,A*65
$GPGGA,075952.000,5003.6415,N,01955.9512,E,1,05,1.8,235.0,M,42.0,M,,0000*59
$GPGSA,A,3,32,11,14,19,20,,,,,,,,3.8,1.8,3.3*3E
$GPRMC,075952.000,A,5003.6415,N,01955.9512,E,3.64,324.83,150409,,,A*63
$GPGGA,075953.000,5003.6420,N,01955.9495,E,1,05,1.8,239.3,M,42.0,M,,0000*5F
$GPGSA,A,3,32,11,14,19,20,,,,,,,,3.8,1.8,3.3*3E
$GPRMC,075953.000,A,5003.6420,N,01955.9495,E,5.01,318.61,150409,,,A*6C
$GPGGA,075954.000,5003.6431,N,01955.9482,E,1,05,1.8,242.5,M,42.0,M,,0000*54
$GPGSA,A,3,32,11,14,19,20,,,,,,,,3.8,1.8,3.3*3E
$GPRMC,075954.000,A,5003.6431,N,01955.9482,E,4.06,339.18,150409,,,A*66
$GPGGA,075955.000,5003.6433,N,01955.9477,E,1,05,1.8,245.7,M,42.0,M,,0000*58
$GPGSA,A,3,32,11,14,19,20,,,,,,,,3.8,1.8,3.3*3E
$GPGSV,3,1,12,11,65,280,29,32,59,245,29,14,46,065,19,19,37,187,24*77
$GPGSV,3,2,12,31,31,303,,20,29,250,22,22,15,066,,28,12,292,17*77
$GPGSV,3,3,12,17,11,323,,03,09,175,18,23,07,196,,02,06,171,*75
$GPRMC,075955.000,A,5003.6433,N,01955.9477,E,,339.18,150409,,,A*73
$GPGGA,075956.000,5003.6432,N,01955.9476,E,1,05,1.8,249.2,M,42.0,M,,0000*52
$GPGSA,A,3,32,11,14,19,20,,,,,,,,3.8,1.8,3.3*3E
$GPRMC,075956.000,A,5003.6432,N,01955.9476,E,,339.18,150409,,,A*70
$GPGGA,075957.000,5003.6432,N,01955.9484,E,1,04,3.0,252.7,M,42.0,M,,0000*5A
$GPGSA,A,3,32,11,19,20,,,,,,,,,3.2,3.0,1.0*3A
$GPRMC,075957.000,A,5003.6432,N,01955.9484,E,,339.18,150409,,,A*7C
$GPGGA,075958.000,5003.6435,N,01955.9499,E,1,04,3.0,254.1,M,42.0,M,,0000*5E
$GPGSA,A,3,32,11,19,20,,,,,,,,,3.2,3.0,1.0*3A
$GPRMC,075958.000,A,5003.6435,N,01955.9499,E,,339.18,150409,,,A*78
$GPGGA,075959.000,5003.6432,N,01955.9504,E,1,05,1.8,257.3,M,42.0,M,,0000*57
$GPGSA,A,3,32,11,14,19,20,,,,,,,,3.8,1.8,3.3*3E
$GPRMC,075959.000,A,5003.6432,N,01955.9504,E,,339.18,150409,,,A*7B
$GPGGA,080000.000,5003.6428,N,01955.9514,E,1,05,1.8,260.6,M,42.0,M,,0000*53
$GPGSA,A,3,32,11,14,19,20,,,,,,,,3.8,1.8,3.3*3E
$GPGSV,3,1,12,11,65,280,29,32,59,245,29,14,46,065,19,19,37,187,32*70
$GPGSV,3,2,12,31,31,303,,20,29,250,21,22,15,066,,28,12,292,17*74
$GPGSV,3,3,12,17,11,323,,03,09,175,22,23,07,196,,02,06,171,*7C
$GPRMC,080000.000,A,5003.6428,N,01955.9514,E,,339.18,150409,,,A*7E
$GPGGA,080001.000,5003.6424,N,01955.9513,E,1,05,1.8,264.8,M,42.0,M,,0000*53
$GPGSA,A,3,32,11,14,19,20,,,,,,,,3.8,1.8,3.3*3E
$GPRMC,080001.000,A,5003.6424,N,01955.9513,E,,339.18,150409,,,A*74
$GPGGA,080002.000,5003.6421,N,01955.9510,E,1,05,1.8,270.0,M,42.0,M,,0000*5B
$GPGSA,A,3,32,11,14,19,20,,,,,,,,3.8,1.8,3.3*3E
$GPRMC,080002.000,A,5003.6421,N,01955.9510,E,,339.18,150409,,,A*71
$GPGGA,080003.000,5003.6412,N,01955.9502,E,1,05,1.8,274.8,M,42.0,M,,0000*55
$GPGSA,A,3,32,11,14,19,20,,,,,,,,3.8,1.8,3.3*3E
$GPRMC,080003.000,A,5003.6412,N,01955.9502,E,,339.18,150409,,,A*73
$GPGGA,080004.000,5003.6404,N,01955.9485,E,1,05,1.8,278.3,M,42.0,M,,0000*5C
$GPGSA,A,3,32,11,14,19,20,,,,,,,,3.8,1.8,3.3*3E
$GPRMC,080004.000,A,5003.6404,N,01955.9485,E,,339.18,150409,,,A*7D
$GPGGA,080005.000,5003.6400,N,01955.9472,E,1,05,1.8,281.8,M,42.0,M,,0000*5C
$GPGSA,A,3,32,11,14,19,20,,,,,,,,3.8,1.8,3.3*3E
$GPGSV,3,1,12,11,65,280,29,32,59,245,25,14,46,065,18,19,37,187,33*7C
$GPGSV,3,2,12,31,31,303,,20,29,250,21,22,15,066,12,28,12,292,16*76
$GPGSV,3,3,12,17,11,323,,03,09,175,30,23,07,196,,02,06,171,*7F
$GPRMC,080005.000,A,5003.6400,N,01955.9472,E,,339.18,150409,,,A*70
$GPGGA,080006.000,5003.6400,N,01955.9466,E,1,05,1.8,283.1,M,42.0,M,,0000*51
$GPGSA,A,3,32,11,14,19,20,,,,,,,,3.8,1.8,3.3*3E
$GPRMC,080006.000,A,5003.6400,N,01955.9466,E,,339.18,150409,,,A*76
$GPGGA,080007.000,5003.6401,N,01955.9445,E,1,05,1.8,283.0,M,42.0,M,,0000*51
$GPGSA,A,3,32,11,14,19,20,,,,,,,,3.8,1.8,3.3*3E
$GPRMC,080007.000,A,5003.6401,N,01955.9445,E,,339.18,150409,,,A*77
$GPGGA,080008.000,5003.6400,N,01955.9434,E,1,05,1.8,284.9,M,42.0,M,,0000*57
$GPGSA,A,3,32,11,14,19,20,,,,,,,,3.8,1.8,3.3*3E
$GPRMC,080008.000,A,5003.6400,N,01955.9434,E,,339.18,150409,,,A*7F
$GPGGA,080009.000,5003.6399,N,01955.9431,E,1,05,1.8,287.7,M,42.0,M,,0000*59
$GPGSA,A,3,32,11,14,19,20,,,,,,,,3.8,1.8,3.3*3E
$GPRMC,080009.000,A,5003.6399,N,01955.9431,E,,339.18,150409,,,A*7C
$GPGGA,080010.000,5003.6400,N,01955.9432,E,1,05,1.8,290.1,M,42.0,M,,0000*55
$GPGSA,A,3,32,11,14,19,20,,,,,,,,3.8,1.8,3.3*3E
$GPGSV,3,1,12,11,65,280,29,32,59,245,25,14,46,065,18,19,37,187,35*7A
$GPGSV,3,2,12,31,31,303,,20,29,250,21,22,15,066,,28,12,292,16*75
$GPGSV,3,3,12,17,11,323,19,03,09,175,30,23,07,196,,02,06,171,*77
$GPRMC,080010.000,A,5003.6400,N,01955.9432,E,,339.18,150409,,,A*70
$GPGGA,080011.000,5003.6400,N,01955.9433,E,1,05,1.8,293.5,M,42.0,M,,0000*52
$GPGSA,A,3,32,11,14,19,20,,,,,,,,3.8,1.8,3.3*3E
$GPRMC,080011.000,A,5003.6400,N,01955.9433,E,,339.18,150409,,,A*70
$GPGGA,080012.000,5003.6399,N,01955.9437,E,1,05,1.8,297.2,M,42.0,M,,0000*51
$GPGSA,A,3,32,11,14,19,20,,,,,,,,3.8,1.8,3.3*3E
$GPRMC,080012.000,A,5003.6399,N,01955.9437,E,,339.18,150409,,,A*70
$GPGGA,080013.000,5003.6398,N,01955.9433,E,1,05,1.8,300.4,M,42.0,M,,0000*5C
$GPGSA,A,3,32,11,14,19,20,,,,,,,,3.8,1.8,3.3*3E
$GPRMC,080013.000,A,5003.6398,N,01955.9433,E,,339.18,150409,,,A*74
$GPGGA,080014.000,5003.6401,N,01955.9437,E,1,05,1.8,302.6,M,42.0,M,,0000*58
$GPGSA,A,3,32,11,14,19,20,,,,,,,,3.8,1.8,3.3*3E
$GPRMC,080014.000,A,5003.6401,N,01955.9437,E,,339.18,150409,,,A*70
$GPGGA,080015.000,5003.6405,N,01955.9441,E,1,05,1.8,303.8,M,42.0,M,,0000*53
$GPGSA,A,3,32,11,14,19,20,,,,,,,,3.8,1.8,3.3*3E
$GPGSV,3,1,12,11,65,280,30,32,59,245,29,14,46,065,18,19,37,187,40*7C
$GPGSV,3,2,12,31,31,303,,20,29,250,21,22,15,066,16,28,12,292,17*73
$GPGSV,3,3,12,17,11,323,17,03,09,175,29,23,07,196,,02,06,171,*71
$GPRMC,080015.000,A,5003.6405,N,01955.9441,E,,339.18,150409,,,A*74
$GPGGA,080016.000,5003.6407,N,01955.9452,E,1,05,1.8,306.3,M,42.0,M,,0000*5E
$GPGSA,A,3,32,11,14,19,20,,,,,,,,3.8,1.8,3.3*3E
$GPRMC,080016.000,A,5003.6407,N,01955.9452,E,,339.18,150409,,,A*77
$GPGGA,080017.000,5003.6411,N,01955.9466,E,1,05,1.8,306.8,M,42.0,M,,0000*54
$GPGSA,A,3,32,11,14,19,20,,,,,,,,3.8,1.8,3.3*3E
$GPRMC,080017.000,A,5003.6411,N,01955.9466,E,,339.18,150409,,,A*76
$GPGGA,080018.000,5003.6417,N,01955.9479,E,1,05,1.8,307.1,M,42.0,M,,0000*5B
$GPGSA,A,3,32,11,14,19,20,,,,,,,,3.8,1.8,3.3*3E
$GPRMC,080018.000,A,5003.6417,N,01955.9479,E,,339.18,150409,,,A*71
$GPGGA,080019.000,5003.6425,N,01955.9489,E,1,05,1.8,305.9,M,42.0,M,,0000*5E
$GPGSA,A,3,32,11,14,19,20,,,,,,,,3.8,1.8,3.3*3E
$GPRMC,080019.000,A,5003.6425,N,01955.9489,E,,339.18,150409,,,A*7E
$GPGGA,080020.000,5003.6434,N,01955.9495,E,1,05,1.8,302.8,M,42.0,M,,0000*5F
$GPGSA,A,3,32,11,14,19,20,,,,,,,,3.8,1.8,3.3*3E
$GPGSV,3,1,12,11,66,279,31,32,60,246,35,14,45,064,20,19,36,187,40*74
$GPGSV,3,2,12,31,32,302,,20,30,250,27,22,15,066,18,28,12,291,21*77
$GPGSV,3,3,12,17,12,322,18,03,08,175,24,23,07,196,,02,07,171,*71
$GPRMC,080020.000,A,5003.6434,N,01955.9495,E,,339.18,150409,,,A*79
$GPGGA,080021.000,5003.6446,N,01955.9494,E,1,05,1.8,297.3,M,42.0,M,,0000*5C
$GPGSA,A,3,32,11,14,19,20,,,,,,,,3.8,1.8,3.3*3E
$GPRMC,080021.000,A,5003.6446,N,01955.9494,E,,339.18,150409,,,A*7C
$GPGGA,080022.000,5003.6453,N,01955.9487,E,1,05,1.8,292.8,M,42.0,M,,0000*57
$GPGSA,A,3,32,11,14,19,20,,,,,,,,3.8,1.8,3.3*3E
$GPRMC,080022.000,A,5003.6453,N,01955.9487,E,,339.18,150409,,,A*79
$GPGGA,080023.000,5003.6454,N,01955.9486,E,1,05,1.8,292.1,M,42.0,M,,0000*59
$GPGSA,A,3,32,11,14,19,20,,,,,,,,3.8,1.8,3.3*3E
$GPRMC,080023.000,A,5003.6454,N,01955.9486,E,,339.18,150409,,,A*7E
$GPGGA,080024.000,5003.6455,N,01955.9486,E,1,05,1.8,291.0,M,42.0,M,,0000*5D
$GPGSA,A,3,32,11,14,19,20,,,,,,,,3.8,1.8,3.3*3E
$GPRMC,080024.000,A,5003.6455,N,01955.9486,E,,339.18,150409,,,A*78
$GPGGA,080025.000,5003.6456,N,01955.9485,E,1,05,1.8,290.1,M,42.0,M,,0000*5C
$GPGSA,A,3,32,11,14,19,20,,,,,,,,3.8,1.8,3.3*3E
$GPGSV,3,1,12,11,66,279,35,32,60,246,38,14,45,064,23,19,36,187,31*78
$GPGSV,3,2,12,31,32,302,,20,30,250,34,22,15,066,17,28,12,291,22*79
$GPGSV,3,3,12,17,12,322,18,03,08,175,15,23,07,196,,02,07,171,*73
$GPRMC,080025.000,A,5003.6456,N,01955.9485,E,,339.18,150409,,,A*79
$GPGGA,080026.000,5003.6458,N,01955.9485,E,1,05,1.8,289.0,M,42.0,M,,0000*58
$GPGSA,A,3,32,11,14,19,20,,,,,,,,3.8,1.8,3.3*3E
$GPRMC,080026.000,A,5003.6458,N,01955.9485,E,,339.18,150409,,,A*74
$GPGGA,080027.000,5003.6456,N,01955.9478,E,1,05,1.8,288.8,M,42.0,M,,0000*5C
$GPGSA,A,3,32,11,14,19,20,,,,,,,,3.8,1.8,3.3*3E
$GPRMC,080027.000,A,5003.6456,N,01955.9478,E,,339.18,150409,,,A*79
$GPGGA,080028.000,5003.6457,N,01955.9478,E,1,05,1.8,287.6,M,42.0,M,,0000*53
$GPGSA,A,3,32,11,14,19,20,,,,,,,,3.8,1.8,3.3*3E
$GPRMC,080028.000,A,5003.6457,N,01955.9478,E,,339.18,150409,,,A*77
$GPGGA,080029.000,5003.6468,N,01955.9484,E,1,04,1.9,285.7,M,42.0,M,,0000*5E
$GPGSA,A,3,32,11,14,19,,,,,,,,,2.1,1.9,1.0*34
$GPRMC,080029.000,A,5003.6468,N,01955.9484,E,,339.18,150409,,,A*79
$GPGGA,080030.000,5003.6480,N,01955.9489,E,1,05,1.8,283.0,M,42.0,M,,0000*5C
$GPGSA,A,3,32,11,14,19,20,,,,,,,,3.8,1.8,3.3*3E
$GPGSV,3,1,12,11,66,279,26,32,60,246,24,14,45,064,33,19,36,187,23*75
$GPGSV,3,2,12,31,32,302,,20,30,250,20,22,15,066,16,28,12,291,22*7D
$GPGSV,3,3,12,17,12,322,25,03,08,175,,23,07,196,,02,07,171,*79
$GPRMC,080030.000,A,5003.6480,N,01955.9489,E,,339.18,150409,,,A*7A
$GPGGA,080031.000,5003.6499,N,01955.9513,E,1,05,1.8,278.2,M,42.0,M,,0000*51
$GPGSA,A,3,32,11,14,19,20,,,,,,,,3.8,1.8,3.3*3E
$GPRMC,080031.000,A,5003.6499,N,01955.9513,E,,339.18,150409,,,A*71
$GPGGA,080032.000,5003.6512,N,01955.9526,E,1,05,1.8,273.2,M,42.0,M,,0000*5D
$GPGSA,A,3,32,11,14,19,20,,,,,,,,3.8,1.8,3.3*3E
$GPRMC,080032.000,A,5003.6512,N,01955.9526,E,,339.18,150409,,,A*76
$GPGGA,080033.000,5003.6523,N,01955.9534,E,1,05,1.8,270.0,M,42.0,M,,0000*5C
$GPGSA,A,3,32,11,14,19,20,,,,,,,,3.8,1.8,3.3*3E
$GPRMC,080033.000,A,5003.6523,N,01955.9534,E,,339.18,150409,,,A*76
$GPGGA,080034.000,5003.6534,N,01955.9544,E,1,05,1.8,267.7,M,42.0,M,,0000*5B
$GPGSA,A,3,32,11,14,19,20,,,,,,,,3.8,1.8,3.3*3E
$GPRMC,080034.000,A,5003.6534,N,01955.9544,E,,339.18,150409,,,A*70
$GPGGA,080035.000,5003.6551,N,01955.9554,E,1,05,1.8,261.5,M,42.0,M,,0000*5C
$GPGSA,A,3,32,11,14,19,20,,,,,,,,3.8,1.8,3.3*3E
$GPGSV,3,1,12,11,66,279,29,32,60,246,32,14,45,064,29,19,36,187,40*73
$GPGSV,3,2,12,31,32,302,,20,30,250,28,22,15,066,16,28,12,291,19*7D
$GPGSV,3,3,12,17,12,322,18,03,08,175,21,23,07,196,,02,07,171,*74
$GPRMC,080035.000,A,5003.6551,N,01955.9554,E,,339.18,150409,,,A*73
$GPGGA,080036.000,5003.6568,N,01955.9562,E,1,05,1.8,257.4,M,42.0,M,,0000*54
$GPGSA,A,3,32,11,14,19,20,,,,,,,,3.8,1.8,3.3*3E
$GPRMC,080036.000,A,5003.6568,N,01955.9562,E,,339.18,150409,,,A*7F
$GPGGA,080037.000,5003.6582,N,01955.9568,E,1,05,1.8,253.7,M,42.0,M,,0000*5C
$GPGSA,A,3,32,11,14,19,20,,,,,,,,3.8,1.8,3.3*3E
$GPRMC,080037.000,A,5003.6582,N,01955.9568,E,,339.18,150409,,,A*70
$GPGGA,080038.000,5003.6596,N,01955.9571,E,1,05,1.8,249.1,M,42.0,M,,0000*53
$GPGSA,A,3,32,11,14,19,20,,,,,,,,3.8,1.8,3.3*3E
$GPRMC,080038.000,A,5003.6596,N,01955.9571,E,,339.18,150409,,,A*72
$GPGGA,080039.000,5003.6610,N,01955.9574,E,1,05,1.8,244.8,M,42.0,M,,0000*5E
$GPGSA,A,3,32,11,14,19,20,,,,,,,,3.8,1.8,3.3*3E
$GPRMC,080039.000,A,5003.6610,N,01955.9574,E,,339.18,150409,,,A*7B
$GPGGA,080040.000,5003.6622,N,01955.9577,E,1,05,1.8,241.1,M,42.0,M,,0000*5E
$GPGSA,A,3,32,11,14,19,20,,,,,,,,3.8,1.8,3.3*3E
$GPGSV,3,1,12,11,66,279,29,32,60,246,31,14,45,064,28,19,36,187,39*7F
$GPGSV,3,2,12,31,32,302,,20,30,250,28,22,14,067,20,17,12,322,18*7C
$GPGSV,3,3,12,28,12,291,18,03,08,175,17,23,08,196,,02,07,171,*7B
$GPRMC,080040.000,A,5003.6622,N,01955.9577,E,,339.18,150409,,,A*77
$GPGGA,080041.000,5003.6634,N,01955.9581,E,1,05,1.8,237.8,M,42.0,M,,0000*59
$GPGSA,A,3,32,11,14,19,20,,,,,,,,3.8,1.8,3.3*3E
$GPRMC,080041.000,A,5003.6634,N,01955.9581,E,3.29,21.04,150409,,,A*59
$GPGGA,080042.000,5003.6646,N,01955.9585,E,1,05,1.8,235.1,M,42.0,M,,0000*50
$GPGSA,A,3,32,11,14,19,20,,,,,,,,3.8,1.8,3.3*3E
$GPRMC,080042.000,A,5003.6646,N,01955.9585,E,,21.04,150409,,,A*4D
$GPGGA,080043.000,5003.6655,N,01955.9590,E,1,05,1.8,233.4,M,42.0,M,,0000*54
$GPGSA,A,3,32,11,14,19,20,,,,,,,,3.8,1.8,3.3*3E
$GPRMC,080043.000,A,5003.6655,N,01955.9590,E,,21.04,150409,,,A*4A
$GPGGA,080044.000,5003.6664,N,01955.9595,E,1,05,1.8,231.9,M,42.0,M,,0000*5B
$GPGSA,A,3,32,11,14,19,20,,,,,,,,3.8,1.8,3.3*3E
$GPRMC,080044.000,A,5003.6664,N,01955.9595,E,,21.04,150409,,,A*4A
$GPGGA,080045.000,5003.6672,N,01955.9602,E,1,05,1.8,231.0,M,42.0,M,,0000*59
$GPGSA,A,3,32,11,14,19,20,,,,,,,,3.8,1.8,3.3*3E
$GPGSV,3,1,12,11,66,279,30,32,60,246,31,14,45,064,27,19,36,187,40*76
$GPGSV,3,2,12,31,32,302,,20,30,250,23,22,14,067,18,17,12,322,18*7C
$GPGSV,3,3,12,28,12,291,18,03,08,175,17,23,08,196,,02,07,171,*7B
$GPRMC,080045.000,A,5003.6672,N,01955.9602,E,,21.04,150409,,,A*41
$GPGGA,080046.000,5003.6679,N,01955.9609,E,1,05,1.8,231.1,M,42.0,M,,0000*5B
$GPGSA,A,3,32,11,14,19,20,,,,,,,,3.8,1.8,3.3*3E
$GPRMC,080046.000,A,5003.6679,N,01955.9609,E,,21.04,150409,,,A*42
$GPGGA,080047.000,5003.6686,N,01955.9614,E,1,05,1.8,230.7,M,42.0,M,,0000*51
$GPGSA,A,3,32,11,14,19,20,,,,,,,,3.8,1.8,3.3*3E
$GPRMC,080047.000,A,5003.6686,N,01955.9614,E,,21.04,150409,,,A*4F
$GPGGA,080048.000,5003.6691,N,01955.9621,E,1,05,1.8,231.5,M,42.0,M,,0000*5D
$GPGSA,A,3,32,11,14,19,20,,,,,,,,3.8,1.8,3.3*3E
$GPRMC,080048.000,A,5003.6691,N,01955.9621,E,,21.04,150409,,,A*40
$GPGGA,080049.000,5003.6697,N,01955.9623,E,1,05,1.8,231.2,M,42.0,M,,0000*5F
$GPGSA,A,3,32,11,14,19,20,,,,,,,,3.8,1.8,3.3*3E
$GPRMC,080049.000,A,5003.6697,N,01955.9623,E,,21.04,150409,,,A*45
$GPGGA,080050.000,5003.6704,N,01955.9623,E,1,05,1.8,229.9,M,42.0,M,,0000*5E
$GPGSA,A,3,32,11,14,19,20,,,,,,,,3.8,1.8,3.3*3E
$GPGSV,3,1,12,11,66,279,31,32,60,246,31,14,45,064,27,19,36,187,39*79
$GPGSV,3,2,12,31,32,302,,20,30,250,25,22,14,067,12,17,12,322,17*7F
$GPGSV,3,3,12,28,12,291,18,03,08,175,16,23,08,196,,09,01,010,*71
$GPRMC,080050.000,A,5003.6704,N,01955.9623,E,,21.04,150409,,,A*46
$GPGGA,080051.000,5003.6710,N,01955.9623,E,1,05,1.8,229.2,M,42.0,M,,0000*51
$GPGSA,A,3,32,11,14,19,20,,,,,,,,3.8,1.8,3.3*3E
$GPRMC,080051.000,A,5003.6710,N,01955.9623,E,,21.04,150409,,,A*42
$GPGGA,080052.000,5003.6713,N,01955.9627,E,1,05,1.8,229.7,M,42.0,M,,0000*50
$GPGSA,A,3,32,11,14,19,20,,,,,,,,3.8,1.8,3.3*3E
$GPRMC,080052.000,A,5003.6713,N,01955.9627,E,,21.04,150409,,,A*46
$GPGGA,080053.000,5003.6717,N,01955.9632,E,1,05,1.8,230.2,M,42.0,M,,0000*5C
$GPGSA,A,3,32,11,14,19,20,,,,,,,,3.8,1.8,3.3*3E
$GPRMC,080053.000,A,5003.6717,N,01955.9632,E,,21.04,150409,,,A*47
$GPGGA,080054.000,5003.6717,N,01955.9635,E,1,05,1.8,231.5,M,42.0,M,,0000*5A
$GPGSA,A,3,32,11,14,19,20,,,,,,,,3.8,1.8,3.3*3E
$GPRMC,080054.000,A,5003.6717,N,01955.9635,E,,21.04,150409,,,A*47
$GPGGA,080055.000,5003.6723,N,01955.9637,E,1,05,1.8,230.9,M,42.0,M,,0000*53
$GPGSA,A,3,32,11,14,19,20,,,,,,,,3.8,1.8,3.3*3E
$GPGSV,3,1,12,11,66,279,31,32,60,246,31,14,45,064,21,19,36,187,38*7E
$GPGSV,3,2,12,31,32,302,,20,30,250,26,22,14,067,14,17,12,322,18*75
$GPGSV,3,3,12,28,12,291,18,03,08,175,15,23,08,196,,09,01,010,*72
$GPRMC,080055.000,A,5003.6723,N,01955.9637,E,,21.04,150409,,,A*43
$GPGGA,080056.000,5003.6729,N,01955.9638,E,1,05,1.8,230.0,M,42.0,M,,0000*5C
$GPGSA,A,3,32,11,14,19,20,,,,,,,,3.8,1.8,3.3*3E
$GPRMC,080056.000,A,5003.6729,N,01955.9638,E,,21.04,150409,,,A*45
$GPGGA,080057.000,5003.6734,N,01955.9634,E,1,05,1.8,228.4,M,42.0,M,,0000*50
$GPGSA,A,3,32,11,14,19,20,,,,,,,,3.8,1.8,3.3*3E
$GPRMC,080057.000,A,5003.6734,N,01955.9634,E,,21.04,150409,,,A*44
$GPGGA,080058.000,5003.6735,N,01955.9628,E,1,05,1.8,227.8,M,42.0,M,,0000*50
$GPGSA,A,3,32,11,14,19,20,,,,,,,,3.8,1.8,3.3*3E
$GPRMC,080058.000,A,5003.6735,N,01955.9628,E,,21.04,150409,,,A*47
$GPGGA,080059.000,5003.6735,N,01955.9623,E,1,05,1.8,226.8,M,42.0,M,,0000*5B
$GPGSA,A,3,32,11,14,19,20,,,,,,,,3.8,1.8,3.3*3E
$GPRMC,080059.000,A,5003.6735,N,01955.9623,E,,21.04,150409,,,A*4D
$GPGGA,080100.000,5003.6734,N,01955.9620,E,1,05,1.8,225.7,M,42.0,M,,0000*58
$GPGSA,A,3,32,11,14,19,20,,,,,,,,3.8,1.8,3.3*3E
$GPGSV,3,1,12,11,66,279,29,32,60,246,30,14,45,064,21,19,36,187,38*76
$GPGSV,3,2,12,31,32,302,,20,30,250,29,22,14,067,,17,12,322,17*70
$GPGSV,3,3,12,28,12,291,19,03,08,175,,23,08,196,,09,01,010,08*7F
$GPRMC,080100.000,A,5003.6734,N,01955.9620,E,,21.04,150409,,,A*42
$GPGGA,080101.000,5003.6732,N,01955.9616,E,1,05,1.8,225.5,M,42.0,M,,0000*58
$GPGSA,A,3,32,11,14,19,20,,,,,,,,3.8,1.8,3.3*3E
$GPRMC,080101.000,A,5003.6732,N,01955.9616,E,,21.04,150409,,,A*40
$GPGGA,080102.000,5003.6730,N,01955.9612,E,1,05,1.8,225.4,M,42.0,M,,0000*5C
$GPGSA,A,3,32,11,14,19,20,,,,,,,,3.8,1.8,3.3*3E
$GPRMC,080102.000,A,5003.6730,N,01955.9612,E,,21.04,150409,,,A*45
$GPGGA,080103.000,5003.6730,N,01955.9614,E,1,04,3.0,225.3,M,42.0,M,,0000*57
$GPGSA,A,3,32,11,19,20,,,,,,,,,3.2,3.0,1.0*3A
$GPRMC,080103.000,A,5003.6730,N,01955.9614,E,,21.04,150409,,,A*42
$GPGGA,080104.000,5003.6731,N,01955.9612,E,1,04,3.0,224.5,M,42.0,M,,0000*50
$GPGSA,A,3,32,11,19,20,,,,,,,,,3.2,3.0,1.0*3A
$GPRMC,080104.000,A,5003.6731,N,01955.9612,E,,21.04,150409,,,A*42
$GPGGA,080105.000,5003.6732,N,01955.9602,E,1,04,3.0,223.0,M,42.0,M,,0000*51
$GPGSA,A,3,32,11,19,20,,,,,,,,,3.2,3.0,1.0*3A
$GPGSV,3,1,12,11,67,279,30,32,60,246,25,14,45,063,11,19,36,187,37*70
$GPGSV,3,2,12,31,32,302,,20,30,250,21,22,14,067,,17,12,322,16*79
$GPGSV,3,3,12,28,12,291,19,03,08,175,,23,08,196,,09,01,009,*7F
$GPRMC,080105.000,A,5003.6732,N,01955.9602,E,,21.04,150409,,,A*41
$GPGGA,080106.000,5003.6733,N,01955.9597,E,1,04,3.0,221.9,M,42.0,M,,0000*57
$GPGSA,A,3,32,11,19,20,,,,,,,,,3.2,3.0,1.0*3A
$GPRMC,080106.000,A,5003.6733,N,01955.9597,E,,21.04,150409,,,A*4C
$GPGGA,080107.000,5003.6735,N,01955.9595,E,1,04,3.0,220.5,M,42.0,M,,0000*5F
$GPGSA,A,3,32,11,19,20,,,,,,,,,3.2,3.0,1.0*3A
$GPRMC,080107.000,A,5003.6735,N,01955.9595,E,,21.04,150409,,,A*49
$GPGGA,080108.000,5003.6736,N,01955.9591,E,1,04,3.0,219.4,M,42.0,M,,0000*5C
$GPGSA,A,3,32,11,19,20,,,,,,,,,3.2,3.0,1.0*3A
$GPRMC,080108.000,A,5003.6736,N,01955.9591,E,,21.04,150409,,,A*41
$GPGGA,080109.000,5003.6742,N,01955.9588,E,1,05,1.8,216.3,M,42.0,M,,0000*55
$GPGSA,A,3,32,11,14,19,20,,,,,,,,3.8,1.8,3.3*3E
$GPRMC,080109.000,A,5003.6742,N,01955.9588,E,,21.04,150409,,,A*4B
$GPGGA,080110.000,5003.6744,N,01955.9580,E,1,05,1.8,214.7,M,42.0,M,,0000*55
$GPGSA,A,3,32,11,14,19,20,,,,,,,,3.8,1.8,3.3*3E
$GPGSV,3,1,12,11,67,279,31,32,60,246,26,14,45,063,17,19,36,187,37*74
$GPGSV,3,2,12,31,32,302,,20,30,250,20,22,14,067,,17,12,322,16*78
$GPGSV,3,3,12,28,12,291,18,03,08,175,,23,08,196,,09,01,009,*7E
$GPRMC,080110.000,A,5003.6744,N,01955.9580,E,,21.04,150409,,,A*4D
$GPGGA,080111.000,5003.6737,N,01955.9557,E,1,05,1.8,214.8,M,42.0,M,,0000*55
$GPGSA,A,3,32,11,14,19,20,,,,,,,,3.8,1.8,3.3*3E
$GPRMC,080111.000,A,5003.6737,N,01955.9557,E,,21.04,150409,,,A*42
$GPGGA,080112.000,5003.6737,N,01955.9537,E,1,04,3.0,212.9,M,42.0,M,,0000*5C
$GPGSA,A,3,32,11,19,20,,,,,,,,,3.2,3.0,1.0*3A
$GPRMC,080112.000,A,5003.6737,N,01955.9537,E,4.06,251.23,150409,,,A*6B
$GPGGA,080113.000,5003.6729,N,01955.9514,E,1,05,1.8,213.8,M,42.0,M,,0000*58
$GPGSA,A,3,32,11,14,19,20,,,,,,,,3.8,1.8,3.3*3E
$GPRMC,080113.000,A,5003.6729,N,01955.9514,E,3.93,247.81,150409,,,A*60
$GPGGA,080114.000,5003.6728,N,01955.9515,E,1,05,1.8,214.6,M,42.0,M,,0000*56
$GPGSA,A,3,32,11,14,19,20,,,,,,,,3.8,1.8,3.3*3E
$GPRMC,080114.000,A,5003.6728,N,01955.9515,E,,247.81,150409,,,A*70
$GPGGA,080115.000,5003.6730,N,01955.9519,E,1,05,1.8,215.5,M,42.0,M,,0000*50
$GPGSA,A,3,32,11,14,19,20,,,,,,,,3.8,1.8,3.3*3E
$GPGSV,3,1,12,11,67,279,29,32,60,246,30,14,45,063,28,19,36,187,28*78
$GPGSV,3,2,12,31,32,302,,20,30,250,27,22,14,067,,17,12,322,26*7C
$GPGSV,3,3,12,28,12,291,18,03,08,175,,23,08,196,,09,01,009,*7E
$GPRMC,080115.000,A,5003.6730,N,01955.9519,E,,247.81,150409,,,A*74
$GPGGA,080116.000,5003.6732,N,01955.9521,E,1,05,1.8,215.3,M,42.0,M,,0000*5C
$GPGSA,A,3,32,11,14,19,20,,,,,,,,3.8,1.8,3.3*3E
$GPRMC,080116.000,A,5003.6732,N,01955.9521,E,,247.81,150409,,,A*7E
$GPGGA,080117.000,5003.6736,N,01955.9526,E,1,05,1.8,216.3,M,42.0,M,,0000*5D
$GPGSA,A,3,32,11,14,19,20,,,,,,,,3.8,1.8,3.3*3E
$GPRMC,080117.000,A,5003.6736,N,01955.9526,E,,247.81,150409,,,A*7C
$GPGGA,080118.000,5003.6740,N,01955.9529,E,1,05,1.8,216.6,M,42.0,M,,0000*59
$GPGSA,A,3,32,11,14,19,20,,,,,,,,3.8,1.8,3.3*3E
$GPRMC,080118.000,A,5003.6740,N,01955.9529,E,,247.81,150409,,,A*7D
$GPGGA,080119.000,5003.6740,N,01955.9532,E,1,05,1.8,218.3,M,42.0,M,,0000*59
$GPGSA,A,3,32,11,14,19,20,,,,,,,,3.8,1.8,3.3*3E
$GPRMC,080119.000,A,5003.6740,N,01955.9532,E,,247.81,150409,,,A*76
$GPGGA,080120.000,5003.6745,N,01955.9545,E,1,05,1.8,219.2,M,42.0,M,,0000*56
$GPGSA,A,3,32,11,14,19,20,,,,,,,,3.8,1.8,3.3*3E
$GPGSV,3,1,12,11,67,279,27,32,60,246,25,14,45,063,34,19,36,187,26*71
$GPGSV,3,2,12,31,32,302,,20,30,250,23,22,14,067,,17,12,322,17*7A
$GPGSV,3,3,12,28,12,291,19,03,08,175,,23,08,196,,09,01,009,*7F
$GPRMC,080120.000,A,5003.6745,N,01955.9545,E,,247.81,150409,,,A*79
$GPGGA,080121.000,5003.6746,N,01955.9547,E,1,05,1.8,220.1,M,42.0,M,,0000*5F
$GPGSA,A,3,32,11,14,19,20,,,,,,,,3.8,1.8,3.3*3E
$GPRMC,080121.000,A,5003.6746,N,01955.9547,E,,247.81,150409,,,A*79
$GPGGA,080122.000,5003.6745,N,01955.9550,E,1,05,1.8,221.4,M,42.0,M,,0000*5D
$GPGSA,A,3,32,11,14,19,20,,,,,,,,3.8,1.8,3.3*3E
$GPRMC,080122.000,A,5003.6745,N,01955.9550,E,,247.81,150409,,,A*7F
$GPGGA,080123.000,5003.6745,N,01955.9546,E,1,05,1.8,222.1,M,42.0,M,,0000*5D
$GPGSA,A,3,32,11,14,19,20,,,,,,,,3.8,1.8,3.3*3E
$GPRMC,080123.000,A,5003.6745,N,01955.9546,E,,247.81,150409,,,A*79
$GPGGA,080124.000,5003.6750,N,01955.9542,E,1,05,1.8,222.6,M,42.0,M,,0000*5D
$GPGSA,A,3,32,11,14,19,20,,,,,,,,3.8,1.8,3.3*3E
$GPRMC,080124.000,A,5003.6750,N,01955.9542,E,,247.81,150409,,,A*7E
$GPGGA,080125.000,5003.6752,N,01955.9537,E,1,05,1.8,223.0,M,42.0,M,,0000*5B
$GPGSA,A,3,32,11,14,19,20,,,,,,,,3.8,1.8,3.3*3E
$GPGSV,3,1,12,11,67,279,27,32,60,246,24,14,45,063,25,19,36,187,26*70
$GPGSV,3,2,12,31,32,302,,20,30,250,25,22,14,067,,17,12,322,16*7D
$GPGSV,3,3,12,28,12,291,16,03,08,175,14,23,08,196,,09,01,009,*75
$GPRMC,080125.000,A,5003.6752,N,01955.9537,E,,247.81,150409,,,A*7F
$GPGGA,080126.000,5003.6753,N,01955.9532,E,1,05,1.8,222.9,M,42.0,M,,0000*54
$GPGSA,A,3,32,11,14,19,20,,,,,,,,3.8,1.8,3.3*3E
$GPRMC,080126.000,A,5003.6753,N,01955.9532,E,,247.81,150409,,,A*78
$GPGGA,080127.000,5003.6754,N,01955.9528,E,1,05,1.8,223.1,M,42.0,M,,0000*50
$GPGSA,A,3,32,11,14,19,20,,,,,,,,3.8,1.8,3.3*3E
$GPRMC,080127.000,A,5003.6754,N,01955.9528,E,,247.81,150409,,,A*75
$GPGGA,080128.000,5003.6757,N,01955.9523,E,1,05,1.8,224.6,M,42.0,M,,0000*57
$GPGSA,A,3,32,11,14,19,20,,,,,,,,3.8,1.8,3.3*3E
$GPRMC,080128.000,A,5003.6757,N,01955.9523,E,,247.81,150409,,,A*72
$GPGGA,080129.000,5003.6758,N,01955.9523,E,1,05,1.8,228.1,M,42.0,M,,0000*52
$GPGSA,A,3,32,11,14,19,20,,,,,,,,3.8,1.8,3.3*3E
$GPRMC,080129.000,A,5003.6758,N,01955.9523,E,,247.81,150409,,,A*7C
$GPGGA,080130.000,5003.6765,N,01955.9522,E,1,05,1.8,229.3,M,42.0,M,,0000*56
$GPGSA,A,3,32,11,14,19,20,,,,,,,,3.8,1.8,3.3*3E
$GPGSV,3,1,12,11,67,279,28,32,60,246,28,14,45,063,26,19,36,187,25*73
$GPGSV,3,2,12,31,32,302,,20,30,250,25,22,14,067,,17,12,322,16*7D
$GPGSV,3,3,12,28,12,291,23,03,08,175,17,23,08,196,,09,01,009,*70
$GPRMC,080130.000,A,5003.6765,N,01955.9522,E,,247.81,150409,,,A*7B
$GPGGA,080131.000,5003.6772,N,01955.9517,E,1,05,1.8,231.4,M,42.0,M,,0000*59
$GPGSA,A,3,32,11,14,19,20,,,,,,,,3.8,1.8,3.3*3E
$GPRMC,080131.000,A,5003.6772,N,01955.9517,E,,247.81,150409,,,A*7A
$GPGGA,080132.000,5003.6776,N,01955.9511,E,1,05,1.8,234.2,M,42.0,M,,0000*5B
$GPGSA,A,3,32,11,14,19,20,,,,,,,,3.8,1.8,3.3*3E
$GPRMC,080132.000,A,5003.6776,N,01955.9511,E,,247.81,150409,,,A*7B
$GPGGA,080133.000,5003.6777,N,01955.9500,E,1,05,1.8,237.4,M,42.0,M,,0000*5E
$GPGSA,A,3,32,11,14,19,20,,,,,,,,3.8,1.8,3.3*3E
$GPRMC,080133.000,A,5003.6777,N,01955.9500,E,,247.81,150409,,,A*7B
$GPGGA,080134.000,5003.6779,N,01955.9491,E,1,05,1.8,238.5,M,42.0,M,,0000*50
$GPGSA,A,3,32,11,14,19,20,,,,,,,,3.8,1.8,3.3*3E
$GPRMC,080134.000,A,5003.6779,N,01955.9491,E,,247.81,150409,,,A*7B
$GPGGA,080135.000,5003.6782,N,01955.9480,E,1,05,1.8,238.8,M,42.0,M,,0000*58
$GPGSA,A,3,32,11,14,19,20,,,,,,,,3.8,1.8,3.3*3E
$GPGSV,3,1,12,11,67,279,28,32,60,246,28,14,45,063,20,19,36,187,30*71
$GPGSV,3,2,12,31,32,302,,20,30,250,27,22,14,067,,17,12,322,18*71
$GPGSV,3,3,12,28,12,291,22,03,08,175,17,23,08,196,,09,01,009,*71
$GPRMC,080135.000,A,5003.6782,N,01955.9480,E,,247.81,150409,,,A*7E
$GPGGA,080136.000,5003.6784,N,01955.9472,E,1,05,1.8,239.5,M,42.0,M,,0000*5C
$GPGSA,A,3,32,11,14,19,20,,,,,,,,3.8,1.8,3.3*3E
$GPRMC,080136.000,A,5003.6784,N,01955.9472,E,,247.81,150409,,,A*76
$GPGGA,080137.000,5003.6786,N,01955.9463,E,1,05,1.8,239.9,M,42.0,M,,0000*53
$GPGSA,A,3,32,11,14,19,20,,,,,,,,3.8,1.8,3.3*3E
$GPRMC,080137.000,A,5003.6786,N,01955.9463,E,,247.81,150409,,,A*75
$GPGGA,080138.000,5003.6783,N,01955.9454,E,1,05,1.8,242.6,M,42.0,M,,0000*5E
$GPGSA,A,3,32,11,14,19,20,,,,,,,,3.8,1.8,3.3*3E
$GPRMC,080138.000,A,5003.6783,N,01955.9454,E,,247.81,150409,,,A*7B
$GPGGA,080139.000,5003.6781,N,01955.9446,E,1,05,1.8,244.6,M,42.0,M,,0000*58
$GPGSA,A,3,32,11,14,19,20,,,,,,,,3.8,1.8,3.3*3E
$GPRMC,080139.000,A,5003.6781,N,01955.9446,E,,247.81,150409,,,A*7B
$GPGGA,080140.000,5003.6784,N,01955.9443,E,1,05,1.8,245.3,M,42.0,M,,0000*52
$GPGSA,A,3,32,11,14,19,20,,,,,,,,3.8,1.8,3.3*3E
$GPGSV,3,1,12,11,67,279,28,32,60,246,28,14,45,063,23,19,36,187,31*73
$GPGSV,3,2,12,31,32,302,,20,30,250,27,22,14,067,,17,12,322,18*71
$GPGSV,3,3,12,28,12,291,22,03,08,175,22,23,08,196,,09,01,009,*77
$GPRMC,080140.000,A,5003.6784,N,01955.9443,E,,247.81,150409,,,A*75
$GPGGA,080141.000,5003.6790,N,01955.9450,E,1,05,1.8,245.9,M,42.0,M,,0000*5E
$GPGSA,A,3,32,11,14,19,20,,,,,,,,3.8,1.8,3.3*3E
$GPRMC,080141.000,A,5003.6790,N,01955.9450,E,,247.81,150409,,,A*73
$GPGGA,080142.000,5003.6800,N,01955.9453,E,1,05,1.8,245.6,M,42.0,M,,0000*57
$GPGSA,A,3,32,11,14,19,20,,,,,,,,3.8,1.8,3.3*3E
$GPRMC,080142.000,A,5003.6800,N,01955.9453,E,,247.81,150409,,,A*75
$GPGGA,080143.000,5003.6808,N,01955.9462,E,1,05,1.8,245.8,M,42.0,M,,0000*52
$GPGSA,A,3,32,11,14,19,20,,,,,,,,3.8,1.8,3.3*3E
$GPRMC,080143.000,A,5003.6808,N,01955.9462,E,,247.81,150409,,,A*7E
$GPGGA,080144.000,5003.6818,N,01955.9468,E,1,05,1.8,244.8,M,42.0,M,,0000*5F
$GPGSA,A,3,32,11,14,19,20,,,,,,,,3.8,1.8,3.3*3E
$GPRMC,080144.000,A,5003.6818,N,01955.9468,E,,247.81,150409,,,A*72
$GPGGA,080145.000,5003.6829,N,01955.9470,E,1,05,1.8,244.3,M,42.0,M,,0000*5E
$GPGSA,A,3,32,11,14,19,20,,,,,,,,3.8,1.8,3.3*3E
$GPGSV,3,1,12,11,67,279,25,32,60,246,23,14,45,063,27,19,36,187,33*73
$GPGSV,3,2,12,31,32,302,,20,30,250,27,22,14,067,,17,12,322,18*71
$GPGSV,3,3,12,28,12,291,21,03,08,175,23,23,08,196,,09,01,009,*75
$GPRMC,080145.000,A,5003.6829,N,01955.9470,E,,247.81,150409,,,A*78
$GPGGA,080146.000,5003.6838,N,01955.9472,E,1,05,1.8,243.2,M,42.0,M,,0000*59
$GPGSA,A,3,32,11,14,19,20,,,,,,,,3.8,1.8,3.3*3E
$GPRMC,080146.000,A,5003.6838,N,01955.9472,E,,247.81,150409,,,A*79
$GPGGA,080147.000,5003.6846,N,01955.9474,E,1,05,1.8,242.5,M,42.0,M,,0000*51
$GPGSA,A,3,32,11,14,19,20,,,,,,,,3.8,1.8,3.3*3E
$GPRMC,080147.000,A,5003.6846,N,01955.9474,E,,247.81,150409,,,A*77
$GPGGA,080148.000,5003.6857,N,01955.9476,E,1,05,1.8,241.5,M,42.0,M,,0000*5F
$GPGSA,A,3,32,11,14,19,20,,,,,,,,3.8,1.8,3.3*3E
$GPRMC,080148.000,A,5003.6857,N,01955.9476,E,,247.81,150409,,,A*7A
$GPGGA,080149.000,5003.6863,N,01955.9482,E,1,05,1.8,241.5,M,42.0,M,,0000*52
$GPGSA,A,3,32,11,14,19,20,,,,,,,,3.8,1.8,3.3*3E
$GPRMC,080149.000,A,5003.6863,N,01955.9482,E,,247.81,150409,,,A*77
$GPGGA,080150.000,5003.6871,N,01955.9493,E,1,05,1.8,241.4,M,42.0,M,,0000*58
$GPGSA,A,3,32,11,14,19,20,,,,,,,,3.8,1.8,3.3*3E
$GPGSV,3,1,12,11,67,278,25,32,61,246,22,14,45,063,25,19,36,186,32*70
$GPGSV,3,2,12,31,32,302,,20,31,251,27,22,14,067,16,17,12,322,19*77
$GPGSV,3,3,12,28,11,290,16,23,08,196,,03,08,175,19,09,01,009,*7A
$GPRMC,080150.000,A,5003.6871,N,01955.9493,E,,247.81,150409,,,A*7C
$GPGGA,080151.000,5003.6878,N,01955.9497,E,1,05,1.8,241.4,M,42.0,M,,0000*54
$GPGSA,A,3,32,11,14,19,20,,,,,,,,3.8,1.8,3.3*3E
$GPRMC,080151.000,A,5003.6878,N,01955.9497,E,,247.81,150409,,,A*70
$GPGGA,080152.000,5003.6889,N,01955.9494,E,1,05,1.8,239.9,M,42.0,M,,0000*58
$GPGSA,A,3,32,11,14,19,20,,,,,,,,3.8,1.8,3.3*3E
$GPRMC,080152.000,A,5003.6889,N,01955.9494,E,,247.81,150409,,,A*7E
$GPGGA,080153.000,5003.6899,N,01955.9493,E,1,05,1.8,238.8,M,42.0,M,,0000*5F
$GPGSA,A,3,32,11,14,19,20,,,,,,,,3.8,1.8,3.3*3E
$GPRMC,080153.000,A,5003.6899,N,01955.9493,E,,247.81,150409,,,A*79
$GPGGA,080154.000,5003.6908,N,01955.9500,E,1,05,1.8,237.4,M,42.0,M,,0000*59
$GPGSA,A,3,32,11,14,19,20,,,,,,,,3.8,1.8,3.3*3E
$GPRMC,080154.000,A,5003.6908,N,01955.9500,E,,247.81,150409,,,A*7C
$GPGGA,080155.000,5003.6913,N,01955.9508,E,1,05,1.8,235.2,M,42.0,M,,0000*5E
$GPGSA,A,3,32,11,14,19,20,,,,,,,,3.8,1.8,3.3*3E
$GPGSV,3,1,12,11,67,278,21,32,61,246,29,14,45,063,26,19,36,186,33*7D
$GPGSV,3,2,12,31,32,302,,20,31,251,25,22,14,067,17,17,12,322,19*74
$GPGSV,3,3,12,28,11,290,16,23,08,196,,03,08,175,28,09,01,009,*78
$GPRMC,080155.000,A,5003.6913,N,01955.9508,E,,247.81,150409,,,A*7F
$GPGGA,080156.000,5003.6916,N,01955.9518,E,1,04,1.9,236.3,M,42.0,M,,0000*5B
$GPGSA,A,3,11,14,19,20,,,,,,,,,4.4,1.9,4.0*31
$GPRMC,080156.000,A,5003.6916,N,01955.9518,E,,247.81,150409,,,A*78
$GPGGA,080157.000,5003.6922,N,01955.9524,E,1,05,1.8,236.7,M,42.0,M,,0000*56
$GPGSA,A,3,32,11,14,19,20,,,,,,,,3.8,1.8,3.3*3E
$GPRMC,080157.000,A,5003.6922,N,01955.9524,E,,247.81,150409,,,A*71
$GPGGA,080158.000,5003.6934,N,01955.9528,E,1,05,1.8,235.7,M,42.0,M,,0000*51
$GPGSA,A,3,32,11,14,19,20,,,,,,,,3.8,1.8,3.3*3E
$GPRMC,080158.000,A,5003.6934,N,01955.9528,E,,247.81,150409,,,A*75
$GPGGA,080159.000,5003.6945,N,01955.9532,E,1,05,1.8,235.7,M,42.0,M,,0000*5D
$GPGSA,A,3,32,11,14,19,20,,,,,,,,3.8,1.8,3.3*3E
$GPRMC,080159.000,A,5003.6945,N,01955.9532,E,,247.81,150409,,,A*79
$GPGGA,080200.000,5003.6954,N,01955.9541,E,1,04,1.9,235.3,M,42.0,M,,0000*52
$GPGSA,A,3,32,14,19,20,,,,,,,,,4.4,1.9,4.0*30
$GPGSV,3,1,12,11,67,278,30,32,61,246,23,14,45,063,28,19,36,186,34*7E
$GPGSV,3,2,12,31,32,302,,20,31,251,25,22,14,067,16,17,12,322,19*75
$GPGSV,3,3,12,28,11,290,17,23,08,196,,03,08,175,26,09,01,009,*77
$GPRMC,080200.000,A,5003.6954,N,01955.9541,E,,247.81,150409,,,A*72
$GPGGA,080201.000,5003.6962,N,01955.9548,E,1,05,1.8,235.3,M,42.0,M,,0000*5F
$GPGSA,A,3,32,11,14,19,20,,,,,,,,3.8,1.8,3.3*3E
$GPRMC,080201.000,A,5003.6962,N,01955.9548,E,,247.81,150409,,,A*7F
$GPGGA,080202.000,5003.6970,N,01955.9551,E,1,05,1.8,235.9,M,42.0,M,,0000*5D
$GPGSA,A,3,32,11,14,19,20,,,,,,,,3.8,1.8,3.3*3E
$GPRMC,080202.000,A,5003.6970,N,01955.9551,E,,247.81,150409,,,A*77
$GPGGA,080203.000,5003.6980,N,01955.9551,E,1,05,1.8,234.4,M,42.0,M,,0000*5F
$GPGSA,A,3,32,11,14,19,20,,,,,,,,3.8,1.8,3.3*3E
$GPRMC,080203.000,A,5003.6980,N,01955.9551,E,,247.81,150409,,,A*79
$GPGGA,080204.000,5003.6989,N,01955.9551,E,1,05,1.8,234.1,M,42.0,M,,0000*54
$GPGSA,A,3,32,11,14,19,20,,,,,,,,3.8,1.8,3.3*3E
$GPRMC,080204.000,A,5003.6989,N,01955.9551,E,,247.81,150409,,,A*77
$GPGGA,080205.000,5003.6997,N,01955.9551,E,1,05,1.8,233.8,M,42.0,M,,0000*54
$GPGSA,A,3,32,11,14,19,20,,,,,,,,3.8,1.8,3.3*3E
$GPGSV,3,1,12,11,67,278,30,32,61,246,29,14,45,063,29,19,36,186,30*71
$GPGSV,3,2,12,31,32,302,,20,31,251,29,22,14,067,17,17,12,322,19*78
$GPGSV,3,3,12,28,11,290,25,23,08,196,,03,08,175,27,09,01,009,*77
$GPRMC,080205.000,A,5003.6997,N,01955.9551,E,,247.81,150409,,,A*79
$GPGGA,080206.000,5003.7009,N,01955.9547,E,1,05,1.8,232.6,M,42.0,M,,0000*50
$GPGSA,A,3,32,11,14,19,20,,,,,,,,3.8,1.8,3.3*3E
$GPRMC,080206.000,A,5003.7009,N,01955.9547,E,,247.81,150409,,,A*72
$GPGGA,080207.000,5003.7019,N,01955.9544,E,1,05,1.8,232.2,M,42.0,M,,0000*57
$GPGSA,A,3,32,11,14,19,20,,,,,,,,3.8,1.8,3.3*3E
$GPRMC,080207.000,A,5003.7019,N,01955.9544,E,,247.81,150409,,,A*71
$GPGGA,080208.000,5003.7030,N,01955.9540,E,1,05,1.8,231.6,M,42.0,M,,0000*50
$GPGSA,A,3,32,11,14,19,20,,,,,,,,3.8,1.8,3.3*3E
$GPRMC,080208.000,A,5003.7030,N,01955.9540,E,,247.81,150409,,,A*71
$GPGGA,080209.000,5003.7043,N,01955.9530,E,1,05,1.8,227.9,M,42.0,M,,0000*5A
$GPGSA,A,3,32,11,14,19,20,,,,,,,,3.8,1.8,3.3*3E
$GPRMC,080209.000,A,5003.7043,N,01955.9530,E,,247.81,150409,,,A*73
$GPGGA,080210.000,5003.7056,N,01955.9522,E,1,05,1.8,225.4,M,42.0,M,,0000*5A
$GPGSA,A,3,32,11,14,19,20,,,,,,,,3.8,1.8,3.3*3E
$GPGSV,3,1,12,11,67,278,30,32,61,246,29,14,45,063,27,19,36,186,30*7F
$GPGSV,3,2,12,31,33,302,,20,31,251,29,22,14,067,17,17,12,322,19*79
$GPGSV,3,3,12,28,11,290,21,23,08,196,,03,08,175,27,09,01,009,*73
$GPRMC,080210.000,A,5003.7056,N,01955.9522,E,,247.81,150409,,,A*7C
$GPGGA,080211.000,5003.7067,N,01955.9517,E,1,05,1.8,223.1,M,42.0,M,,0000*5C
$GPGSA,A,3,32,11,14,19,20,,,,,,,,3.8,1.8,3.3*3E
$GPRMC,080211.000,A,5003.7067,N,01955.9517,E,,247.81,150409,,,A*79
$GPGGA,080212.000,5003.7077,N,01955.9513,E,1,05,1.8,221.5,M,42.0,M,,0000*5C
$GPGSA,A,3,32,11,14,19,20,,,,,,,,3.8,1.8,3.3*3E
$GPRMC,080212.000,A,5003.7077,N,01955.9513,E,3.82,14.91,150409,,,A*5D
$GPGGA,080213.000,5003.7089,N,01955.9511,E,1,05,1.8,219.5,M,42.0,M,,0000*55
$GPGSA,A,3,32,11,14,19,20,,,,,,,,3.8,1.8,3.3*3E
$GPRMC,080213.000,A,5003.7089,N,01955.9511,E,3.28,6.40,150409,,,A*60
$GPGGA,080214.000,5003.7095,N,01955.9512,E,1,05,1.8,219.7,M,42.0,M,,0000*5E
$GPGSA,A,3,32,11,14,19,20,,,,,,,,3.8,1.8,3.3*3E
$GPRMC,080214.000,A,5003.7095,N,01955.9512,E,,6.40,150409,,,A*7E
$GPGGA,080215.000,5003.7103,N,01955.9515,E,1,05,1.8,219.8,M,42.0,M,,0000*59
$GPGSA,A,3,32,11,14,19,20,,,,,,,,3.8,1.8,3.3*3E
$GPGSV,3,1,12,11,67,278,30,32,61,246,28,14,45,063,26,19,36,186,35*7A
$GPGSV,3,2,12,31,33,302,,20,31,251,22,22,14,067,17,17,12,322,18*73
$GPGSV,3,3,12,28,11,290,20,23,08,196,,03,08,175,23,09,01,009,*76
$GPRMC,080215.000,A,5003.7103,N,01955.9515,E,,6.40,150409,,,A*76
$GPGGA,080216.000,5003.7110,N,01955.9517,E,1,05,1.8,219.0,M,42.0,M,,0000*52
$GPGSA,A,3,32,11,14,19,20,,,,,,,,3.8,1.8,3.3*3E
$GPRMC,080216.000,A,5003.7110,N,01955.9517,E,,6.40,150409,,,A*75
$GPGGA,080217.000,5003.7118,N,01955.9523,E,1,05,1.8,218.2,M,42.0,M,,0000*5F
$GPGSA,A,3,32,11,14,19,20,,,,,,,,3.8,1.8,3.3*3E
$GPRMC,080217.000,A,5003.7118,N,01955.9523,E,,6.40,150409,,,A*7B
$GPGGA,080218.000,5003.7126,N,01955.9526,E,1,05,1.8,216.6,M,42.0,M,,0000*52
$GPGSA,A,3,32,11,14,19,20,,,,,,,,3.8,1.8,3.3*3E
$GPRMC,080218.000,A,5003.7126,N,01955.9526,E,,6.40,150409,,,A*7C
$GPGGA,080219.000,5003.7132,N,01955.9525,E,1,05,1.8,216.2,M,42.0,M,,0000*51
$GPGSA,A,3,32,11,14,19,20,,,,,,,,3.8,1.8,3.3*3E
$GPRMC,080219.000,A,5003.7132,N,01955.9525,E,,6.40,150409,,,A*7B
$GPGGA,080220.000,5003.7139,N,01955.9520,E,1,05,1.8,215.5,M,42.0,M,,0000*51
$GPGSA,A,3,32,11,14,19,20,,,,,,,,3.8,1.8,3.3*3E
$GPGSV,3,1,12,11,67,278,28,32,61,246,26,14,45,063,28,19,36,186,36*70
$GPGSV,3,2,12,31,33,302,,20,31,251,24,22,14,067,17,17,12,322,18*75
$GPGSV,3,3,12,28,11,290,20,23,08,196,,03,08,175,25,09,01,009,*70
$GPRMC,080220.000,A,5003.7139,N,01955.9520,E,,6.40,150409,,,A*7F
$GPGGA,080221.000,5003.7143,N,01955.9515,E,1,05,1.8,215.9,M,42.0,M,,0000*57
$GPGSA,A,3,32,11,14,19,20,,,,,,,,3.8,1.8,3.3*3E
$GPRMC,080221.000,A,5003.7143,N,01955.9515,E,,6.40,150409,,,A*75
$GPGGA,080222.000,5003.7150,N,01955.9517,E,1,05,1.8,215.4,M,42.0,M,,0000*59
$GPGSA,A,3,32,11,14,19,20,,,,,,,,3.8,1.8,3.3*3E
$GPRMC,080222.000,A,5003.7150,N,01955.9517,E,,6.40,150409,,,A*76
$GPGGA,080223.000,5003.7155,N,01955.9519,E,1,05,1.8,216.0,M,42.0,M,,0000*54
$GPGSA,A,3,32,11,14,19,20,,,,,,,,3.8,1.8,3.3*3E
$GPRMC,080223.000,A,5003.7155,N,01955.9519,E,,6.40,150409,,,A*7C
$GPGGA,080224.000,5003.7158,N,01955.9532,E,1,05,1.8,218.3,M,42.0,M,,0000*5A
$GPGSA,A,3,32,11,14,19,20,,,,,,,,3.8,1.8,3.3*3E
$GPRMC,080224.000,A,5003.7158,N,01955.9532,E,3.26,45.54,150409,,,A*54
$GPGGA,080225.000,5003.7161,N,01955.9548,E,1,05,1.8,220.2,M,42.0,M,,0000*56
$GPGSA,A,3,32,11,14,19,20,,,,,,,,3.8,1.8,3.3*3E
$GPGSV,3,1,12,11,67,278,29,32,61,246,27,14,45,063,24,19,36,186,29*72
$GPGSV,3,2,12,31,33,302,,20,31,251,26,22,14,067,17,17,12,322,19*76
$GPGSV,3,3,12,28,11,290,18,23,08,196,,03,08,175,23,09,01,009,*7D
$GPRMC,080225.000,A,5003.7161,N,01955.9548,E,3.27,48.12,150409,,,A*5C
$GPGGA,080226.000,5003.7167,N,01955.9559,E,1,05,1.8,220.9,M,42.0,M,,0000*58
$GPGSA,A,3,32,11,14,19,20,,,,,,,,3.8,1.8,3.3*3E
$GPRMC,080226.000,A,5003.7167,N,01955.9559,E,,48.12,150409,,,A*41
$GPGGA,080227.000,5003.7170,N,01955.9561,E,1,05,1.8,222.3,M,42.0,M,,0000*5C
$GPGSA,A,3,32,11,14,19,20,,,,,,,,3.8,1.8,3.3*3E
$GPRMC,080227.000,A,5003.7170,N,01955.9561,E,,48.12,150409,,,A*4D
$GPGGA,080228.000,5003.7178,N,01955.9566,E,1,05,1.8,222.1,M,42.0,M,,0000*5E
$GPGSA,A,3,32,11,14,19,20,,,,,,,,3.8,1.8,3.3*3E
$GPRMC,080228.000,A,5003.7178,N,01955.9566,E,,48.12,150409,,,A*4D
$GPGGA,080229.000,5003.7185,N,01955.9577,E,1,05,1.8,222.3,M,42.0,M,,0000*5F
$GPGSA,A,3,32,11,14,19,20,,,,,,,,3.8,1.8,3.3*3E
$GPRMC,080229.000,A,5003.7185,N,01955.9577,E,3.44,44.32,150409,,,A*5D
$GPGGA,080230.000,5003.7193,N,01955.9586,E,1,05,1.8,222.6,M,42.0,M,,0000*5B
$GPGSA,A,3,32,11,14,19,20,,,,,,,,3.8,1.8,3.3*3E
$GPGSV,3,1,12,11,67,278,29,32,61,246,31,14,45,063,24,19,36,186,31*7C
$GPGSV,3,2,12,31,33,302,,20,31,251,26,22,14,067,16,17,12,322,19*77
$GPGSV,3,3,12,28,11,290,18,23,08,196,,03,08,175,24,09,01,009,*7A
$GPRMC,080230.000,A,5003.7193,N,01955.9586,E,,44.32,150409,,,A*41
$GPGGA,080231.000,5003.7199,N,01955.9595,E,1,05,1.8,223.1,M,42.0,M,,0000*54
$GPGSA,A,3,32,11,14,19,20,,,,,,,,3.8,1.8,3.3*3E
$GPRMC,080231.000,A,5003.7199,N,01955.9595,E,,44.32,150409,,,A*48
$GPGGA,080232.000,5003.7201,N,01955.9598,E,1,05,1.8,224.7,M,42.0,M,,0000*59
$GPGSA,A,3,32,11,14,19,20,,,,,,,,3.8,1.8,3.3*3E
$GPRMC,080232.000,A,5003.7201,N,01955.9598,E,,44.32,150409,,,A*44
$GPGGA,080233.000,5003.7203,N,01955.9594,E,1,05,1.8,226.4,M,42.0,M,,0000*57
$GPGSA,A,3,32,11,14,19,20,,,,,,,,3.8,1.8,3.3*3E
$GPRMC,080233.000,A,5003.7203,N,01955.9594,E,,44.32,150409,,,A*4B
$GPGGA,080234.000,5003.7210,N,01955.9591,E,1,05,1.8,225.5,M,42.0,M,,0000*55
$GPGSA,A,3,32,11,14,19,20,,,,,,,,3.8,1.8,3.3*3E
$GPRMC,080234.000,A,5003.7210,N,01955.9591,E,,44.32,150409,,,A*4B
$GPGGA,080235.000,5003.7218,N,01955.9596,E,1,05,1.8,224.9,M,42.0,M,,0000*56
$GPGSA,A,3,32,11,14,19,20,,,,,,,,3.8,1.8,3.3*3E
$GPGSV,3,1,12,11,67,278,28,32,61,246,30,14,45,063,24,19,36,186,38*75
$GPGSV,3,2,12,31,33,302,,20,31,251,25,22,14,067,16,17,12,322,19*74
$GPGSV,3,3,12,28,11,290,18,23,08,196,,03,08,175,21,09,01,009,*7F
$GPRMC,080235.000,A,5003.7218,N,01955.9596,E,,44.32,150409,,,A*45
$GPGGA,080236.000,5003.7229,N,01955.9600,E,1,05,1.8,223.6,M,42.0,M,,0000*53
$GPGSA,A,3,32,11,14,19,20,,,,,,,,3.8,1.8,3.3*3E
$GPRMC,080236.000,A,5003.7229,N,01955.9600,E,,44.32,150409,,,A*48
$GPGGA,080237.000,5003.7238,N,01955.9601,E,1,05,1.8,222.6,M,42.0,M,,0000*52
$GPGSA,A,3,32,11,14,19,20,,,,,,,,3.8,1.8,3.3*3E
$GPRMC,080237.000,A,5003.7238,N,01955.9601,E,,44.32,150409,,,A*48
$GPGGA,080238.000,5003.7245,N,01955.9610,E,1,05,1.8,222.5,M,42.0,M,,0000*54
$GPGSA,A,3,32,11,14,19,20,,,,,,,,3.8,1.8,3.3*3E
$GPRMC,080238.000,A,5003.7245,N,01955.9610,E,,44.32,150409,,,A*4D
$GPGGA,080239.000,5003.7253,N,01955.9621,E,1,05,1.8,222.4,M,42.0,M,,0000*51
$GPGSA,A,3,32,11,14,19,20,,,,,,,,3.8,1.8,3.3*3E
$GPRMC,080239.000,A,5003.7253,N,01955.9621,E,,44.32,150409,,,A*49
$GPGGA,080240.000,5003.7262,N,01955.9627,E,1,05,1.8,221.7,M,42.0,M,,0000*5B
$GPGSA,A,3,32,11,14,19,20,,,,,,,,3.8,1.8,3.3*3E
$GPGSV,3,1,12,11,67,278,33,32,61,246,30,14,45,063,17,19,36,186,38*7F
$GPGSV,3,2,12,31,33,302,,20,31,251,26,22,14,067,16,17,12,322,18*76
$GPGSV,3,3,12,28,11,290,18,23,08,196,,03,08,175,14,09,01,009,*79
$GPRMC,080240.000,A,5003.7262,N,01955.9627,E,,44.32,150409,,,A*43
$GPGGA,080241.000,5003.7268,N,01955.9626,E,1,05,1.8,221.2,M,42.0,M,,0000*54
$GPGSA,A,3,32,11,14,19,20,,,,,,,,3.8,1.8,3.3*3E
$GPRMC,080241.000,A,5003.7268,N,01955.9626,E,,44.32,150409,,,A*49
$GPGGA,080242.000,5003.7273,N,01955.9624,E,1,05,1.8,221.3,M,42.0,M,,0000*5E
$GPGSA,A,3,32,11,14,19,20,,,,,,,,3.8,1.8,3.3*3E
$GPRMC,080242.000,A,5003.7273,N,01955.9624,E,,44.32,150409,,,A*42
$GPGGA,080243.000,5003.7278,N,01955.9626,E,1,04,3.0,221.8,M,42.0,M,,0000*56
$GPGSA,A,3,32,11,19,20,,,,,,,,,3.2,3.0,1.0*3A
$GPRMC,080243.000,A,5003.7278,N,01955.9626,E,,44.32,150409,,,A*4A
$GPGGA,080244.000,5003.7282,N,01955.9628,E,1,04,3.0,222.4,M,42.0,M,,0000*55
$GPGSA,A,3,32,11,19,20,,,,,,,,,3.2,3.0,1.0*3A
$GPRMC,080244.000,A,5003.7282,N,01955.9628,E,,44.32,150409,,,A*46
$GPGGA,080245.000,5003.7286,N,01955.9630,E,1,04,3.0,223.1,M,42.0,M,,0000*5D
$GPGSA,A,3,32,11,19,20,,,,,,,,,3.2,3.0,1.0*3A
$GPGSV,3,1,12,11,67,278,33,32,61,246,31,14,45,063,18,19,36,186,39*70
$GPGSV,3,2,12,31,33,302,,20,31,251,30,22,14,067,16,17,12,322,18*71
$GPGSV,3,3,12,28,11,290,18,23,08,196,,03,08,175,,09,01,009,*7C
$GPRMC,080245.000,A,5003.7286,N,01955.9630,E,,44.32,150409,,,A*4A
$GPGGA,080246.000,5003.7289,N,01955.9633,E,1,04,3.0,224.0,M,42.0,M,,0000*54
$GPGSA,A,3,32,11,19,20,,,,,,,,,3.2,3.0,1.0*3A
$GPRMC,080246.000,A,5003.7289,N,01955.9633,E,,44.32,150409,,,A*45
$GPGGA,080247.000,5003.7292,N,01955.9635,E,1,04,3.0,224.7,M,42.0,M,,0000*5E
$GPGSA,A,3,32,11,19,20,,,,,,,,,3.2,3.0,1.0*3A
$GPRMC,080247.000,A,5003.7292,N,01955.9635,E,,44.32,150409,,,A*48
$GPGGA,080248.000,5003.7295,N,01955.9639,E,1,04,3.0,225.4,M,42.0,M,,0000*58
$GPGSA,A,3,32,11,19,20,,,,,,,,,3.2,3.0,1.0*3A
